$GPGGA,072841.000,4714.3221,N,00131.5486,W,1,08,1.6,36.1,M,48.5,M,,0000*7C
$GPGSA,A,3,03,01,23,09,11,18,31,22,,,,,2.4,1.6,1.7*34
$GPRMC,072841.000,A,4714.3221,N,00131.5486,W,0.13,95.85,271218,,,A*40
$GPGGA,072842.000,4714.3221,N,00131.5486,W,1,08,1.6,36.2,M,48.5,M,,0000*7C
$GPGSA,A,3,03,01,23,09,11,18,31,22,,,,,2.4,1.6,1.7*34
$GPRMC,072842.000,A,4714.3221,N,00131.5486,W,0.14,96.55,271218,,,A*4A
$GPGGA,072843.000,4714.3221,N,00131.5485,W,1,08,1.6,36.2,M,48.5,M,,0000*7E
$GPGSA,A,3,03,01,23,09,11,18,31,22,,,,,2.4,1.6,1.7*34
$GPRMC,072843.000,A,4714.3221,N,00131.5485,W,0.14,98.85,271218,,,A*4B
$GPGGA,072844.000,4714.3220,N,00131.5485,W,1,08,1.6,36.2,M,48.5,M,,0000*78
$GPGSA,A,3,03,01,23,09,11,18,31,22,,,,,2.4,1.6,1.7*34
$GPGSV,3,1,12,04,83,133,,03,80,021,46,24,69,302,,20,63,061,*74
$GPGSV,3,2,12,22,59,065,38,01,53,117,46,17,51,276,,23,45,180,39*7F
$GPGSV,3,3,12,19,34,179,,11,33,148,39,18,22,122,36,09,18,198,41*75
$GPRMC,072844.000,A,4714.3220,N,00131.5485,W,0.13,95.60,271218,,,A*4C
$GPGGA,072845.000,4714.3220,N,00131.5485,W,1,08,1.6,36.2,M,48.5,M,,0000*79
$GPGSA,A,3,03,01,23,09,11,18,31,22,,,,,2.4,1.6,1.7*34
$GPRMC,072845.000,A,4714.3220,N,00131.5485,W,0.13,95.49,271218,,,A*46
$GPGGA,072846.000,4714.3220,N,00131.5485,W,1,08,1.6,36.3,M,48.5,M,,0000*7B
$GPGSA,A,3,03,01,23,09,11,18,31,22,,,,,2.4,1.6,1.7*34
$GPRMC,072846.000,A,4714.3220,N,00131.5485,W,0.14,93.54,271218,,,A*48
$GPGGA,072847.000,4714.3220,N,00131.5484,W,1,08,1.6,36.3,M,48.5,M,,0000*7B
$GPGSA,A,3,03,01,23,09,11,18,31,22,,,,,2.4,1.6,1.7*34
$GPRMC,072847.000,A,4714.3220,N,00131.5484,W,0.14,99.76,271218,,,A*42
$GPGGA,072848.000,4714.3220,N,00131.5484,W,1,08,1.6,36.3,M,48.5,M,,0000*74
$GPGSA,A,3,03,01,23,09,11,18,31,22,,,,,2.4,1.6,1.7*34
$GPRMC,072848.000,A,4714.3220,N,00131.5484,W,0.12,94.98,271218,,,A*46
$GPGGA,072849.000,4714.3219,N,00131.5484,W,1,08,1.6,36.3,M,48.5,M,,0000*7F
$GPGSA,A,3,03,01,23,09,11,18,31,22,,,,,2.4,1.6,1.7*34
$GPGSV,3,1,12,04,83,133,,03,80,021,46,24,69,302,,20,63,061,*74
$GPGSV,3,2,12,22,59,065,38,01,53,117,46,17,51,276,,23,45,180,40*71
$GPGSV,3,3,12,19,34,179,,11,33,148,40,18,22,122,36,09,18,198,41*7B
$GPRMC,072849.000,A,4714.3219,N,00131.5484,W,0.15,96.42,271218,,,A*4F
$GPGGA,072850.000,4714.3219,N,00131.5483,W,1,08,1.6,36.3,M,48.5,M,,0000*70
$GPGSA,A,3,03,01,23,09,11,18,31,22,,,,,2.4,1.6,1.7*34
$GPRMC,072850.000,A,4714.3219,N,00131.5483,W,0.14,90.70,271218,,,A*46
$GPGGA,072851.000,4714.3219,N,00131.5483,W,1,08,1.6,36.4,M,48.5,M,,0000*76
$GPGSA,A,3,03,01,23,09,11,18,31,22,,,,,2.4,1.6,1.7*34
$GPRMC,072851.000,A,4714.3219,N,00131.5483,W,0.16,87.71,271218,,,A*42
$GPGGA,072852.000,4714.3219,N,00131.5483,W,1,08,1.6,36.4,M,48.5,M,,0000*75
$GPGSA,A,3,03,01,23,09,11,18,31,22,,,,,2.4,1.6,1.7*34
$GPRMC,072852.000,A,4714.3219,N,00131.5483,W,0.16,103.99,271218,,,A*7A
$GPGGA,072853.000,4714.3219,N,00131.5483,W,1,08,1.6,36.4,M,48.5,M,,0000*74
$GPGSA,A,3,03,01,23,09,11,18,31,22,,,,,2.4,1.6,1.7*34
$GPRMC,072853.000,A,4714.3219,N,00131.5483,W,0.16,97.97,271218,,,A*49
$GPGGA,072854.000,4714.3219,N,00131.5482,W,1,08,1.6,36.4,M,48.5,M,,0000*72
$GPGSA,A,3,03,01,23,09,11,18,31,22,,,,,2.4,1.6,1.7*34
$GPGSV,3,1,12,04,83,133,,03,80,021,46,24,69,302,,20,63,061,*74
$GPGSV,3,2,12,22,59,065,38,01,53,117,46,17,51,276,,23,45,180,43*72
$GPGSV,3,3,12,19,34,179,,11,33,148,41,18,22,122,37,09,18,198,40*7A
$GPRMC,072854.000,A,4714.3219,N,00131.5482,W,0.16,94.35,271218,,,A*44
$GPGGA,072855.000,4714.3218,N,00131.5482,W,1,08,1.6,36.4,M,48.5,M,,0000*72
$GPGSA,A,3,03,01,23,09,11,18,31,22,,,,,2.4,1.6,1.7*34
$GPRMC,072855.000,A,4714.3218,N,00131.5482,W,0.18,94.48,271218,,,A*40
$GPGGA,072856.000,4714.3218,N,00131.5482,W,1,08,1.6,36.4,M,48.5,M,,0000*71
$GPGSA,A,3,03,01,23,09,11,18,31,22,,,,,2.4,1.6,1.7*34
$GPRMC,072856.000,A,4714.3218,N,00131.5482,W,0.16,96.28,271218,,,A*49
$GPGGA,072857.000,4714.3218,N,00131.5481,W,1,08,1.6,36.4,M,48.5,M,,0000*73
$GPGSA,A,3,03,01,23,09,11,18,31,22,,,,,2.4,1.6,1.7*34
$GPRMC,072857.000,A,4714.3218,N,00131.5481,W,0.16,94.24,271218,,,A*45
$GPGGA,072858.000,4714.3218,N,00131.5481,W,1,08,1.6,36.4,M,48.5,M,,0000*7C
$GPGSA,A,3,03,01,23,09,11,18,31,22,,,,,2.4,1.6,1.7*34
$GPRMC,072858.000,A,4714.3218,N,00131.5481,W,0.16,94.30,271218,,,A*4F
$GPGGA,072859.000,4714.3218,N,00131.5481,W,1,08,1.6,36.4,M,48.5,M,,0000*7D
$GPGSA,A,3,03,01,23,09,11,18,31,22,,,,,2.4,1.6,1.7*34
$GPGSV,3,1,12,04,83,133,,03,80,021,46,24,69,302,,20,63,061,*74
$GPGSV,3,2,12,22,59,065,37,01,53,117,45,17,51,276,,23,45,180,43*7E
$GPGSV,3,3,12,19,34,179,,11,33,148,42,18,22,122,36,09,18,198,39*76
$GPRMC,072859.000,A,4714.3218,N,00131.5481,W,0.17,94.08,271218,,,A*44
$GPGGA,072900.000,4714.3218,N,00131.5481,W,1,08,1.6,36.4,M,48.5,M,,0000*70
$GPGSA,A,3,03,01,23,09,11,18,31,22,,,,,2.4,1.6,1.7*34
$GPRMC,072900.000,A,4714.3218,N,00131.5481,W,0.16,92.67,271218,,,A*47
$GPGGA,072901.000,4714.3218,N,00131.5480,W,1,08,1.6,36.4,M,48.5,M,,0000*70
$GPGSA,A,3,03,01,23,09,11,18,31,22,,,,,2.4,1.6,1.7*34
$GPRMC,072901.000,A,4714.3218,N,00131.5480,W,0.17,91.78,271218,,,A*4B
$GPGGA,072902.000,4714.3218,N,00131.5480,W,1,08,1.6,36.4,M,48.5,M,,0000*73
$GPGSA,A,3,03,01,23,09,11,18,31,22,,,,,2.4,1.6,1.7*34
$GPRMC,072902.000,A,4714.3218,N,00131.5480,W,0.16,90.76,271218,,,A*46
$GPGGA,072903.000,4714.3217,N,00131.5480,W,1,08,1.6,36.4,M,48.5,M,,0000*7D
$GPGSA,A,3,03,01,23,09,11,18,31,22,,,,,2.4,1.6,1.7*34
$GPRMC,072903.000,A,4714.3217,N,00131.5480,W,0.17,95.61,271218,,,A*4A
$GPGGA,072904.000,4714.3217,N,00131.5480,W,1,08,1.6,36.4,M,48.5,M,,0000*7A
$GPGSA,A,3,03,01,23,09,11,18,31,22,,,,,2.4,1.6,1.7*34
$GPGSV,3,1,12,04,83,133,,03,80,021,46,24,69,302,,20,63,061,*74
$GPGSV,3,2,12,22,59,065,37,01,53,117,44,17,51,276,,23,45,180,42*7E
$GPGSV,3,3,12,19,34,179,,11,33,148,42,18,22,122,36,09,18,198,38*77
$GPRMC,072904.000,A,4714.3217,N,00131.5480,W,0.16,90.63,271218,,,A*4B
$GPGGA,072905.000,4714.3217,N,00131.5480,W,1,08,1.6,36.4,M,48.5,M,,0000*7B
$GPGSA,A,3,03,01,23,09,11,18,31,22,,,,,2.4,1.6,1.7*34
$GPRMC,072905.000,A,4714.3217,N,00131.5480,W,0.17,94.81,271218,,,A*43
$GPGGA,072906.000,4714.3217,N,00131.5480,W,1,08,1.6,36.3,M,48.5,M,,0000*7F
$GPGSA,A,3,03,01,23,09,11,18,31,22,,,,,2.4,1.6,1.7*34
$GPRMC,072906.000,A,4714.3217,N,00131.5480,W,0.18,94.87,271218,,,A*49
$GPGGA,072907.000,4714.3217,N,00131.5479,W,1,08,1.6,36.3,M,48.5,M,,0000*78
$GPGSA,A,3,03,01,23,09,11,18,31,22,,,,,2.4,1.6,1.7*34
$GPRMC,072907.000,A,4714.3217,N,00131.5479,W,0.17,90.84,271218,,,A*46
$GPGGA,072908.000,4714.3217,N,00131.5479,W,1,08,1.6,36.3,M,48.5,M,,0000*77
$GPGSA,A,3,03,01,23,09,11,18,31,22,,,,,2.4,1.6,1.7*34
$GPRMC,072908.000,A,4714.3217,N,00131.5479,W,0.16,90.36,271218,,,A*41
$GPGGA,072909.000,4714.3217,N,00131.5479,W,1,08,1.6,36.2,M,48.5,M,,0000*77
$GPGSA,A,3,03,01,23,09,11,18,31,22,,,,,2.4,1.6,1.7*34
$GPGSV,3,1,12,04,83,133,,03,80,021,46,24,69,302,,20,63,061,*74
$GPGSV,3,2,12,22,59,065,36,01,53,117,43,17,51,276,,23,45,180,42*78
$GPGSV,3,3,12,19,34,179,,11,33,148,42,18,22,122,35,09,18,198,38*74
$GPRMC,072909.000,A,4714.3217,N,00131.5479,W,0.17,92.45,271218,,,A*47
$GPGGA,072910.000,4714.3217,N,00131.5479,W,1,08,1.6,36.2,M,48.5,M,,0000*7F
$GPGSA,A,3,03,01,23,09,11,18,31,22,,,,,2.4,1.6,1.7*34
$GPRMC,072910.000,A,4714.3217,N,00131.5479,W,0.16,92.96,271218,,,A*40
$GPGGA,072911.000,4714.3217,N,00131.5479,W,1,08,1.6,36.2,M,48.5,M,,0000*7E
$GPGSA,A,3,03,01,23,09,11,18,31,22,,,,,2.4,1.6,1.7*34
$GPRMC,072911.000,A,4714.3217,N,00131.5479,W,0.17,94.31,271218,,,A*4B
$GPGGA,072912.000,4714.3217,N,00131.5479,W,1,08,1.6,36.1,M,48.5,M,,0000*7E
$GPGSA,A,3,03,01,23,09,11,18,31,22,,,,,2.4,1.6,1.7*34
$GPRMC,072912.000,A,4714.3217,N,00131.5479,W,0.17,87.85,271218,,,A*45
$GPGGA,072913.000,4714.3217,N,00131.5479,W,1,08,1.6,36.1,M,48.5,M,,0000*7F
$GPGSA,A,3,03,01,23,09,11,18,31,22,,,,,2.4,1.6,1.7*34
$GPRMC,072913.000,A,4714.3217,N,00131.5479,W,0.15,90.99,271218,,,A*4D
$GPGGA,072914.000,4714.3217,N,00131.5479,W,1,08,1.6,36.0,M,48.5,M,,0000*79
$GPGSA,A,3,03,01,23,09,11,18,31,22,,,,,2.4,1.6,1.7*34
$GPGSV,3,1,12,04,83,133,,03,80,022,46,24,69,302,,20,62,061,*76
$GPGSV,3,2,12,22,59,065,36,01,52,117,42,17,51,276,,23,46,180,43*7A
$GPGSV,3,3,12,19,35,306,,11,33,148,42,18,22,122,34,09,18,198,37*71
$GPRMC,072914.000,A,4714.3217,N,00131.5479,W,0.17,90.53,271218,,,A*4E
$GPGGA,072915.000,4714.3217,N,00131.5479,W,1,08,1.6,36.0,M,48.5,M,,0000*78
$GPGSA,A,3,03,01,23,09,11,18,31,22,,,,,2.4,1.6,1.7*34
$GPRMC,072915.000,A,4714.3217,N,00131.5479,W,0.16,90.30,271218,,,A*4B
$GPGGA,072916.000,4714.3217,N,00131.5479,W,1,08,1.6,35.9,M,48.5,M,,0000*71
$GPGSA,A,3,03,01,23,09,11,18,31,22,,,,,2.4,1.6,1.7*34
$GPRMC,072916.000,A,4714.3217,N,00131.5479,W,0.17,86.71,271218,,,A*4B
$GPGGA,072917.000,4714.3217,N,00131.5479,W,1,08,1.6,35.9,M,48.5,M,,0000*70
$GPGSA,A,3,03,01,23,09,11,18,31,22,,,,,2.4,1.6,1.7*34
$GPRMC,072917.000,A,4714.3217,N,00131.5479,W,0.16,92.67,271218,,,A*49
$GPGGA,072918.000,4714.3217,N,00131.5478,W,1,08,1.6,35.9,M,48.5,M,,0000*7E
$GPGSA,A,3,03,01,23,09,11,18,31,22,,,,,2.4,1.6,1.7*34
$GPRMC,072918.000,A,4714.3217,N,00131.5478,W,0.16,89.31,271218,,,A*4E
$GPGGA,072919.000,4714.3217,N,00131.5479,W,1,08,1.6,35.8,M,48.5,M,,0000*7F
$GPGSA,A,3,03,01,23,09,11,18,31,22,,,,,2.4,1.6,1.7*34
$GPGSV,3,1,12,04,83,133,,03,80,022,46,24,69,302,,20,62,061,*76
$GPGSV,3,2,12,22,59,065,35,01,52,117,41,17,51,276,,23,46,180,44*7D
$GPGSV,3,3,12,19,35,306,,11,33,148,42,18,22,122,34,09,18,198,37*71
$GPRMC,072919.000,A,4714.3217,N,00131.5479,W,0.12,74.31,271218,,,A*48
$GPGGA,072920.000,4714.3217,N,00131.5479,W,1,08,1.6,35.7,M,48.5,M,,0000*7A
$GPGSA,A,3,03,01,23,09,11,18,31,22,,,,,2.4,1.6,1.7*34
$GPRMC,072920.000,A,4714.3217,N,00131.5479,W,0.17,88.95,271218,,,A*4A
$GPGGA,072921.000,4714.3217,N,00131.5479,W,1,08,1.6,35.7,M,48.5,M,,0000*7B
$GPGSA,A,3,03,01,23,09,11,18,31,22,,,,,2.4,1.6,1.7*34
$GPRMC,072921.000,A,4714.3217,N,00131.5479,W,0.16,88.20,271218,,,A*44
$GPGGA,072922.000,4714.3218,N,00131.5478,W,1,08,1.6,35.6,M,48.5,M,,0000*77
$GPGSA,A,3,03,01,23,09,11,18,31,22,,,,,2.4,1.6,1.7*34
$GPRMC,072922.000,A,4714.3218,N,00131.5478,W,0.17,91.56,271218,,,A*41
$GPGGA,072923.000,4714.3218,N,00131.5478,W,1,08,1.6,35.6,M,48.5,M,,0000*76
$GPGSA,A,3,03,01,23,09,11,18,31,22,,,,,2.4,1.6,1.7*34
$GPRMC,072923.000,A,4714.3218,N,00131.5478,W,0.17,89.61,271218,,,A*4D
$GPGGA,072924.000,4714.3218,N,00131.5478,W,1,08,1.6,35.6,M,48.5,M,,0000*71
$GPGSA,A,3,03,01,23,09,11,18,31,22,,,,,2.4,1.6,1.7*34
$GPGSV,3,1,12,04,83,133,,03,80,022,46,24,69,302,,20,62,061,*76
$GPGSV,3,2,12,22,59,065,35,01,52,117,40,17,51,276,,23,46,180,43*7B
$GPGSV,3,3,12,19,35,306,,11,33,148,41,18,22,122,33,09,18,198,37*75
$GPRMC,072924.000,A,4714.3218,N,00131.5478,W,0.17,88.86,271218,,,A*42
$GPGGA,072925.000,4714.3218,N,00131.5478,W,1,08,1.6,35.5,M,48.5,M,,0000*73
$GPGSA,A,3,03,01,23,09,11,18,31,22,,,,,2.4,1.6,1.7*34
$GPRMC,072925.000,A,4714.3218,N,00131.5478,W,0.18,91.67,271218,,,A*4B
$GPGGA,072926.000,4714.3218,N,00131.5478,W,1,08,1.6,35.5,M,48.5,M,,0000*70
$GPGSA,A,3,03,01,23,09,11,18,31,22,,,,,2.4,1.6,1.7*34
$GPRMC,072926.000,A,4714.3218,N,00131.5478,W,0.18,90.53,271218,,,A*4E
$GPGGA,072927.000,4714.3218,N,00131.5478,W,1,08,1.6,35.4,M,48.5,M,,0000*70
$GPGSA,A,3,03,01,23,09,11,18,31,22,,,,,2.4,1.6,1.7*34
$GPRMC,072927.000,A,4714.3218,N,00131.5478,W,0.19,92.78,271218,,,A*45
$GPGGA,072928.000,4714.3218,N,00131.5478,W,1,08,1.6,35.4,M,48.5,M,,0000*7F
$GPGSA,A,3,03,01,23,09,11,18,31,22,,,,,2.4,1.6,1.7*34
$GPRMC,072928.000,A,4714.3218,N,00131.5478,W,0.17,92.13,271218,,,A*49
$GPGGA,072929.000,4714.3218,N,00131.5478,W,1,08,1.6,35.3,M,48.5,M,,0000*79
$GPGSA,A,3,03,01,23,09,11,18,31,22,,,,,2.4,1.6,1.7*34
$GPGSV,3,1,12,04,83,133,,03,80,022,46,24,69,302,,20,62,061,*76
$GPGSV,3,2,12,22,59,065,35,01,52,117,40,17,51,276,,23,46,180,43*7B
$GPGSV,3,3,12,19,35,306,,11,33,148,41,18,22,122,31,09,18,198,37*77
$GPRMC,072929.000,A,4714.3218,N,00131.5478,W,0.19,90.61,271218,,,A*41
$GPGGA,072930.000,4714.3218,N,00131.5478,W,1,08,1.6,35.2,M,48.5,M,,0000*70
$GPGSA,A,3,03,01,23,09,11,18,31,22,,,,,2.4,1.6,1.7*34
$GPRMC,072930.000,A,4714.3218,N,00131.5478,W,0.19,90.39,271218,,,A*44
$GPGGA,072931.000,4714.3218,N,00131.5477,W,1,08,1.6,35.1,M,48.5,M,,0000*7D
$GPGSA,A,3,03,01,23,09,11,18,31,22,,,,,2.4,1.6,1.7*34
$GPRMC,072931.000,A,4714.3218,N,00131.5477,W,0.20,89.24,271218,,,A*44
$GPGGA,072932.000,4714.3218,N,00131.5477,W,1,08,1.6,34.9,M,48.5,M,,0000*77
$GPGSA,A,3,03,01,23,09,11,18,31,22,,,,,2.4,1.6,1.7*34
$GPRMC,072932.000,A,4714.3218,N,00131.5477,W,0.18,90.45,271218,,,A*43
$GPGGA,072933.000,4714.3218,N,00131.5476,W,1,08,1.6,34.7,M,48.5,M,,0000*79
$GPGSA,A,3,03,01,23,09,11,18,31,22,,,,,2.4,1.6,1.7*34
$GPRMC,072933.000,A,4714.3218,N,00131.5476,W,0.20,90.25,271218,,,A*4E
$GPGGA,072934.000,4714.3219,N,00131.5475,W,1,08,1.6,34.5,M,48.5,M,,0000*7E
$GPGSA,A,3,03,01,23,09,11,18,31,22,,,,,2.4,1.6,1.7*34
$GPGSV,3,1,12,04,83,133,,03,80,022,47,24,69,302,,20,62,061,*77
$GPGSV,3,2,12,22,59,065,35,01,52,117,40,17,51,276,,23,46,180,43*7B
$GPGSV,3,3,12,19,35,306,,11,33,148,41,18,22,122,26,09,18,198,38*7E
$GPRMC,072934.000,A,4714.3219,N,00131.5475,W,0.18,87.01,271218,,,A*40
$GPGGA,072935.000,4714.3219,N,00131.5474,W,1,08,1.6,34.3,M,48.5,M,,0000*78
$GPGSA,A,3,03,01,23,09,11,18,31,22,,,,,2.4,1.6,1.7*34
$GPRMC,072935.000,A,4714.3219,N,00131.5474,W,0.20,87.46,271218,,,A*48
$GPGGA,072936.000,4714.3219,N,00131.5474,W,1,08,1.6,34.1,M,48.5,M,,0000*79
$GPGSA,A,3,03,01,23,09,11,18,31,22,,,,,2.4,1.6,1.7*34
$GPRMC,072936.000,A,4714.3219,N,00131.5474,W,0.18,85.58,271218,,,A*4D
$GPGGA,072937.000,4714.3219,N,00131.5473,W,1,08,1.6,33.7,M,48.5,M,,0000*7E
$GPGSA,A,3,03,01,23,09,11,18,31,22,,,,,2.4,1.6,1.7*34
$GPRMC,072937.000,A,4714.3219,N,00131.5473,W,0.20,81.32,271218,,,A*48
$GPGGA,072938.000,4714.3219,N,00131.5473,W,1,07,1.9,33.7,M,48.5,M,,0000*71
$GPGSA,A,3,03,01,23,09,11,31,22,,,,,,2.5,1.9,1.7*33
$GPRMC,072938.000,A,4714.3219,N,00131.5473,W,0.14,78.45,271218,,,A*46
$GPGGA,072939.000,4714.3220,N,00131.5473,W,1,07,1.9,33.6,M,48.5,M,,0000*7B
$GPGSA,A,3,03,01,23,09,11,31,22,,,,,,2.5,1.9,1.7*33
$GPGSV,3,1,12,04,83,133,,03,80,022,47,24,69,302,,20,62,061,*77
$GPGSV,3,2,12,22,59,065,35,01,52,117,41,17,51,276,,23,46,180,44*7D
$GPGSV,3,3,12,19,35,306,,11,33,148,41,18,22,122,,09,18,198,38*7A
$GPRMC,072939.000,A,4714.3220,N,00131.5473,W,0.16,81.13,271218,,,A*4A
$GPGGA,072940.000,4714.3220,N,00131.5473,W,1,07,1.9,33.5,M,48.5,M,,0000*76
$GPGSA,A,3,03,01,23,09,11,31,22,,,,,,2.5,1.9,1.7*33
$GPRMC,072940.000,A,4714.3220,N,00131.5473,W,0.15,81.48,271218,,,A*49
$GPGGA,072941.000,4714.3220,N,00131.5473,W,1,07,1.9,33.5,M,48.5,M,,0000*77
$GPGSA,A,3,03,01,23,09,11,31,22,,,,,,2.5,1.9,1.7*33
$GPRMC,072941.000,A,4714.3220,N,00131.5473,W,0.12,71.83,271218,,,A*47
$GPGGA,072942.000,4714.3220,N,00131.5474,W,1,07,1.9,33.4,M,48.5,M,,0000*72
$GPGSA,A,3,03,01,23,09,11,31,22,,,,,,2.5,1.9,1.7*33
$GPRMC,072942.000,A,4714.3220,N,00131.5474,W,0.14,79.17,271218,,,A*40
$GPGGA,072943.000,4714.3220,N,00131.5474,W,1,07,1.9,33.4,M,48.5,M,,0000*73
$GPGSA,A,3,03,01,23,09,11,31,22,,,,,,2.5,1.9,1.7*33
$GPRMC,072943.000,A,4714.3220,N,00131.5474,W,0.13,77.65,271218,,,A*4D
$GPGGA,072944.000,4714.3220,N,00131.5475,W,1,07,1.9,33.4,M,48.5,M,,0000*75
$GPGSA,A,3,03,01,23,09,11,31,22,,,,,,2.5,1.9,1.7*33
$GPGSV,3,1,12,04,83,133,,03,80,023,47,24,70,302,,22,59,065,35*76
$GPGSV,3,2,12,01,52,117,42,17,51,276,,23,46,180,44,19,35,306,*7C
$GPGSV,3,3,12,11,33,148,40,18,22,122,,09,18,198,38,31,16,069,34*7D
$GPRMC,072944.000,A,4714.3220,N,00131.5475,W,0.13,76.08,271218,,,A*41
$GPGGA,072945.000,4714.3220,N,00131.5475,W,1,07,1.9,33.3,M,48.5,M,,0000*73
$GPGSA,A,3,03,01,23,09,11,31,22,,,,,,2.5,1.9,1.7*33
$GPRMC,072945.000,A,4714.3220,N,00131.5475,W,0.13,75.99,271218,,,A*4B
$GPGGA,072946.000,4714.3220,N,00131.5475,W,1,07,1.9,33.3,M,48.5,M,,0000*70
$GPGSA,A,3,03,01,23,09,11,31,22,,,,,,2.5,1.9,1.7*33
$GPRMC,072946.000,A,4714.3220,N,00131.5475,W,0.12,80.99,271218,,,A*43
$GPGGA,072947.000,4714.3221,N,00131.5476,W,1,07,1.9,33.3,M,48.5,M,,0000*73
$GPGSA,A,3,03,01,23,09,11,31,22,,,,,,2.5,1.9,1.7*33
$GPRMC,072947.000,A,4714.3221,N,00131.5476,W,0.13,79.86,271218,,,A*49
$GPGGA,072948.000,4714.3221,N,00131.5476,W,1,07,1.9,33.2,M,48.5,M,,0000*7D
$GPGSA,A,3,03,01,23,09,11,31,22,,,,,,2.5,1.9,1.7*33
$GPRMC,072948.000,A,4714.3221,N,00131.5476,W,0.14,87.58,271218,,,A*43
$GPGGA,072949.000,4714.3221,N,00131.5477,W,1,07,1.9,33.2,M,48.5,M,,0000*7D
$GPGSA,A,3,03,01,23,09,11,31,22,,,,,,2.5,1.9,1.7*33
$GPGSV,3,1,12,04,83,133,,03,80,023,46,24,70,302,,22,59,065,36*74
$GPGSV,3,2,12,01,52,117,43,17,51,276,,23,46,180,43,19,35,306,*7A
$GPGSV,3,3,12,11,33,148,39,18,22,122,,09,18,198,38,31,16,069,34*73
$GPRMC,072949.000,A,4714.3221,N,00131.5477,W,0.12,77.73,271218,,,A*43
$GPGGA,072950.000,4714.3221,N,00131.5477,W,1,07,1.9,33.2,M,48.5,M,,0000*75
$GPGSA,A,3,03,01,23,09,11,31,22,,,,,,2.5,1.9,1.7*33
$GPRMC,072950.000,A,4714.3221,N,00131.5477,W,0.14,83.18,271218,,,A*4B
$GPGGA,072951.000,4714.3221,N,00131.5477,W,1,07,1.9,33.1,M,48.5,M,,0000*77
$GPGSA,A,3,03,01,23,09,11,31,22,,,,,,2.5,1.9,1.7*33
$GPRMC,072951.000,A,4714.3221,N,00131.5477,W,0.12,82.68,271218,,,A*4A
$GPGGA,072952.000,4714.3221,N,00131.5478,W,1,07,1.9,33.1,M,48.5,M,,0000*7B
$GPGSA,A,3,03,01,23,09,11,31,22,,,,,,2.5,1.9,1.7*33
$GPRMC,072952.000,A,4714.3221,N,00131.5478,W,0.13,81.51,271218,,,A*4E
$GPGGA,072953.000,4714.3221,N,00131.5478,W,1,07,1.9,33.0,M,48.5,M,,0000*7B
$GPGSA,A,3,03,01,23,09,11,31,22,,,,,,2.5,1.9,1.7*33
$GPRMC,072953.000,A,4714.3221,N,00131.5478,W,0.14,83.55,271218,,,A*4E
$GPGGA,072954.000,4714.3221,N,00131.5479,W,1,08,1.6,33.0,M,48.5,M,,0000*7D
$GPGSA,A,3,03,01,23,09,11,31,22,18,,,,,2.4,1.6,1.7*34
$GPGSV,3,1,12,04,83,133,,03,80,023,46,24,70,302,,22,59,065,37*75
$GPGSV,3,2,12,01,52,117,44,17,51,276,,23,46,180,43,19,35,306,*7D
$GPGSV,3,3,12,11,33,148,38,18,22,122,24,09,18,198,38,31,16,069,33*73
$GPRMC,072954.000,A,4714.3221,N,00131.5479,W,0.08,64.02,271218,,,A*4E
$GPGGA,072955.000,4714.3221,N,00131.5479,W,1,08,1.6,32.9,M,48.5,M,,0000*74
$GPGSA,A,3,03,01,23,09,11,31,22,18,,,,,2.4,1.6,1.7*34
$GPRMC,072955.000,A,4714.3221,N,00131.5479,W,0.12,80.57,271218,,,A*4E
$GPGGA,072956.000,4714.3222,N,00131.5479,W,1,08,1.6,32.9,M,48.5,M,,0000*74
$GPGSA,A,3,03,01,23,09,11,31,22,18,,,,,2.4,1.6,1.7*34
$GPRMC,072956.000,A,4714.3222,N,00131.5479,W,0.17,88.20,271218,,,A*43
$GPGGA,072957.000,4714.3222,N,00131.5480,W,1,08,1.6,32.9,M,48.5,M,,0000*73
$GPGSA,A,3,03,01,23,09,11,31,22,18,,,,,2.4,1.6,1.7*34
$GPRMC,072957.000,A,4714.3222,N,00131.5480,W,0.14,81.06,271218,,,A*4A
$GPGGA,072958.000,4714.3222,N,00131.5480,W,1,08,1.6,32.9,M,48.5,M,,0000*7C
$GPGSA,A,3,03,01,23,09,11,31,22,18,,,,,2.4,1.6,1.7*34
$GPRMC,072958.000,A,4714.3222,N,00131.5480,W,0.12,80.96,271218,,,A*4B
$GPGGA,072959.000,4714.3222,N,00131.5481,W,1,08,1.6,32.9,M,48.5,M,,0000*7C
$GPGSA,A,3,03,01,23,09,11,31,22,18,,,,,2.4,1.6,1.7*34
$GPGSV,3,1,12,04,83,133,,03,80,023,46,24,70,302,,22,59,065,37*75
$GPGSV,3,2,12,01,52,117,44,17,51,276,,23,46,180,43,19,35,306,14*78
$GPGSV,3,3,12,11,33,148,37,18,22,122,27,09,18,198,38,31,16,069,33*7F
$GPRMC,072959.000,A,4714.3222,N,00131.5481,W,0.14,83.68,271218,,,A*4F
$GPGGA,073000.000,4714.3222,N,00131.5481,W,1,08,1.6,32.8,M,48.5,M,,0000*79
$GPGSA,A,3,03,01,23,09,11,31,22,18,,,,,2.4,1.6,1.7*34
$GPRMC,073000.000,A,4714.3222,N,00131.5481,W,0.13,79.36,271218,,,A*42
$GPGGA,073001.000,4714.3222,N,00131.5482,W,1,08,1.6,32.8,M,48.5,M,,0000*7B
$GPGSA,A,3,03,01,23,09,11,31,22,18,,,,,2.4,1.6,1.7*34
$GPRMC,073001.000,A,4714.3222,N,00131.5482,W,0.14,82.68,271218,,,A*48
$GPGGA,073002.000,4714.3222,N,00131.5483,W,1,08,1.6,32.8,M,48.5,M,,0000*79
$GPGSA,A,3,03,01,23,09,11,31,22,18,,,,,2.4,1.6,1.7*34
$GPRMC,073002.000,A,4714.3222,N,00131.5483,W,0.13,80.67,271218,,,A*40
$GPGGA,073003.000,4714.3223,N,00131.5484,W,1,08,1.6,32.9,M,48.5,M,,0000*7F
$GPGSA,A,3,03,01,23,09,11,31,22,18,,,,,2.4,1.6,1.7*34
$GPRMC,073003.000,A,4714.3223,N,00131.5484,W,0.15,79.32,271218,,,A*47
$GPGGA,073004.000,4714.3223,N,00131.5484,W,1,08,1.6,32.9,M,48.5,M,,0000*78
$GPGSA,A,3,03,01,23,09,11,31,22,18,,,,,2.4,1.6,1.7*34
$GPGSV,3,1,12,04,83,133,,03,80,023,46,24,70,302,,22,59,065,37*75
$GPGSV,3,2,12,01,52,117,44,17,51,276,32,23,46,180,44,19,35,306,*7B
$GPGSV,3,3,12,11,33,148,37,18,22,122,28,09,18,198,37,31,16,069,33*7F
$GPRMC,073004.000,A,4714.3223,N,00131.5484,W,0.13,85.74,271218,,,A*47
$GPGGA,073005.000,4714.3223,N,00131.5485,W,1,08,1.6,32.9,M,48.5,M,,0000*78
$GPGSA,A,3,03,01,23,09,11,31,22,18,,,,,2.4,1.6,1.7*34
$GPRMC,073005.000,A,4714.3223,N,00131.5485,W,0.12,77.04,271218,,,A*4C
$GPGGA,073006.000,4714.3223,N,00131.5486,W,1,08,1.6,32.9,M,48.5,M,,0000*78
$GPGSA,A,3,03,01,23,09,11,31,22,18,,,,,2.4,1.6,1.7*34
$GPRMC,073006.000,A,4714.3223,N,00131.5486,W,0.15,85.66,271218,,,A*42
$GPGGA,073007.000,4714.3223,N,00131.5486,W,1,08,1.6,32.9,M,48.5,M,,0000*79
$GPGSA,A,3,03,01,23,09,11,31,22,18,,,,,2.4,1.6,1.7*34
$GPRMC,073007.000,A,4714.3223,N,00131.5486,W,0.14,83.74,271218,,,A*47
$GPGGA,073008.000,4714.3223,N,00131.5487,W,1,08,1.6,32.9,M,48.5,M,,0000*77
$GPGSA,A,3,03,01,23,09,11,31,22,18,,,,,2.4,1.6,1.7*34
$GPRMC,073008.000,A,4714.3223,N,00131.5487,W,0.14,78.93,271218,,,A*44
$GPGGA,073009.000,4714.3223,N,00131.5487,W,1,08,1.6,32.9,M,48.5,M,,0000*76
$GPGSA,A,3,03,01,23,09,11,31,22,18,,,,,2.4,1.6,1.7*34
$GPGSV,3,1,12,04,83,133,,03,80,023,46,24,70,302,,22,59,065,37*75
$GPGSV,3,2,12,01,52,117,44,17,51,276,31,23,46,180,44,19,35,306,*78
$GPGSV,3,3,12,11,33,148,35,18,22,122,30,09,18,198,38,31,16,069,34*7C
$GPRMC,073009.000,A,4714.3223,N,00131.5487,W,0.13,82.94,271218,,,A*40
$GPGGA,073010.000,4714.3223,N,00131.5488,W,1,08,1.6,32.9,M,48.5,M,,0000*71
$GPGSA,A,3,03,01,23,09,11,31,22,18,,,,,2.4,1.6,1.7*34
$GPRMC,073010.000,A,4714.3223,N,00131.5488,W,0.13,81.24,271218,,,A*4F
$GPGGA,073011.000,4714.3223,N,00131.5488,W,1,08,1.6,32.9,M,48.5,M,,0000*70
$GPGSA,A,3,03,01,23,09,11,31,22,18,,,,,2.4,1.6,1.7*34
$GPRMC,073011.000,A,4714.3223,N,00131.5488,W,0.14,79.85,271218,,,A*45
$GPGGA,073012.000,4714.3224,N,00131.5489,W,1,08,1.6,32.9,M,48.5,M,,0000*75
$GPGSA,A,3,03,01,23,09,11,31,22,18,,,,,2.4,1.6,1.7*34
$GPRMC,073012.000,A,4714.3224,N,00131.5489,W,0.13,82.58,271218,,,A*43
$GPGGA,073013.000,4714.3224,N,00131.5489,W,1,08,1.6,32.9,M,48.5,M,,0000*74
$GPGSA,A,3,03,01,23,09,11,31,22,18,,,,,2.4,1.6,1.7*34
$GPRMC,073013.000,A,4714.3224,N,00131.5489,W,0.14,83.21,271218,,,A*4A
$GPGGA,073014.000,4714.3224,N,00131.5490,W,1,08,1.6,32.9,M,48.5,M,,0000*7B
$GPGSA,A,3,03,01,23,09,11,31,22,18,,,,,2.4,1.6,1.7*34
$GPGSV,3,1,12,04,83,134,,03,79,024,46,24,70,302,,22,59,065,37*73
$GPGSV,3,2,12,01,52,118,44,17,51,275,30,23,46,180,43,19,35,306,*72
$GPGSV,3,3,12,11,32,148,34,18,22,123,31,09,19,198,38,31,16,069,34*7D
$GPRMC,073014.000,A,4714.3224,N,00131.5490,W,0.13,80.80,271218,,,A*4A
$GPGGA,073015.000,4714.3224,N,00131.5490,W,1,08,1.6,32.9,M,48.5,M,,0000*7A
$GPGSA,A,3,03,01,23,09,11,31,22,18,,,,,2.4,1.6,1.7*34
$GPRMC,073015.000,A,4714.3224,N,00131.5490,W,0.13,81.77,271218,,,A*42
$GPGGA,073016.000,4714.3224,N,00131.5491,W,1,08,1.6,32.9,M,48.5,M,,0000*78
$GPGSA,A,3,03,01,23,09,11,31,22,18,,,,,2.4,1.6,1.7*34
$GPRMC,073016.000,A,4714.3224,N,00131.5491,W,0.13,84.35,271218,,,A*43
$GPGGA,073017.000,4714.3224,N,00131.5491,W,1,08,1.6,32.9,M,48.5,M,,0000*79
$GPGSA,A,3,03,01,23,09,11,31,22,18,,,,,2.4,1.6,1.7*34
$GPRMC,073017.000,A,4714.3224,N,00131.5491,W,0.13,83.12,271218,,,A*40
$GPGGA,073018.000,4714.3224,N,00131.5492,W,1,08,1.6,32.9,M,48.5,M,,0000*75
$GPGSA,A,3,03,01,23,09,11,31,22,18,,,,,2.4,1.6,1.7*34
$GPRMC,073018.000,A,4714.3224,N,00131.5492,W,0.13,83.81,271218,,,A*46
$GPGGA,073019.000,4714.3224,N,00131.5492,W,1,08,1.6,32.9,M,48.5,M,,0000*74
$GPGSA,A,3,03,01,23,09,11,31,22,18,,,,,2.4,1.6,1.7*34
$GPGSV,3,1,12,04,83,134,,03,79,024,46,24,70,302,,22,59,065,37*73
$GPGSV,3,2,12,01,52,118,44,17,51,275,25,23,46,180,43,19,35,306,*76
$GPGSV,3,3,12,11,32,148,33,18,22,123,33,09,19,198,38,31,16,069,34*78
$GPRMC,073019.000,A,4714.3224,N,00131.5492,W,0.13,81.62,271218,,,A*48
$GPGGA,073020.000,4714.3224,N,00131.5493,W,1,08,1.6,32.9,M,48.5,M,,0000*7F
$GPGSA,A,3,03,01,23,09,11,31,22,18,,,,,2.4,1.6,1.7*34
$GPRMC,073020.000,A,4714.3224,N,00131.5493,W,0.14,84.59,271218,,,A*49
$GPGGA,073021.000,4714.3224,N,00131.5493,W,1,08,1.6,32.8,M,48.5,M,,0000*7F
$GPGSA,A,3,03,01,23,09,11,31,22,18,,,,,2.4,1.6,1.7*34
$GPRMC,073021.000,A,4714.3224,N,00131.5493,W,0.13,80.19,271218,,,A*4F
$GPGGA,073022.000,4714.3224,N,00131.5493,W,1,08,1.6,32.8,M,48.5,M,,0000*7C
$GPGSA,A,3,03,01,23,09,11,31,22,18,,,,,2.4,1.6,1.7*34
$GPRMC,073022.000,A,4714.3224,N,00131.5493,W,0.13,77.99,271218,,,A*4C
$GPGGA,073023.000,4714.3224,N,00131.5494,W,1,08,1.6,32.8,M,48.5,M,,0000*7A
$GPGSA,A,3,03,01,23,09,11,31,22,18,,,,,2.4,1.6,1.7*34
$GPRMC,073023.000,A,4714.3224,N,00131.5494,W,0.13,76.47,271218,,,A*48
$GPGGA,073024.000,4714.3224,N,00131.5494,W,1,08,1.6,32.8,M,48.5,M,,0000*7D
$GPGSA,A,3,03,01,23,09,11,31,22,18,,,,,2.4,1.6,1.7*34
$GPGSV,3,1,12,04,83,134,,03,79,024,46,24,70,302,,22,59,065,37*73
$GPGSV,3,2,12,01,52,118,43,17,51,275,25,23,46,180,44,19,35,306,*76
$GPGSV,3,3,12,11,32,148,33,18,22,123,34,09,19,198,38,31,16,069,34*7F
$GPRMC,073024.000,A,4714.3224,N,00131.5494,W,0.13,83.97,271218,,,A*48
$GPGGA,073025.000,4714.3224,N,00131.5495,W,1,08,1.6,32.7,M,48.5,M,,0000*72
$GPGSA,A,3,03,01,23,09,11,31,22,18,,,,,2.4,1.6,1.7*34
$GPRMC,073025.000,A,4714.3224,N,00131.5495,W,0.13,80.69,271218,,,A*4A
$GPGGA,073026.000,4714.3224,N,00131.5495,W,1,08,1.6,32.7,M,48.5,M,,0000*71
$GPGSA,A,3,03,01,23,09,11,31,22,18,,,,,2.4,1.6,1.7*34
$GPRMC,073026.000,A,4714.3224,N,00131.5495,W,0.14,79.93,271218,,,A*4D
$GPGGA,073027.000,4714.3224,N,00131.5495,W,1,08,1.6,32.7,M,48.5,M,,0000*70
$GPGSA,A,3,03,01,23,09,11,31,22,18,,,,,2.4,1.6,1.7*34
$GPRMC,073027.000,A,4714.3224,N,00131.5495,W,0.11,73.09,271218,,,A*40
$GPGGA,073028.000,4714.3225,N,00131.5496,W,1,08,1.6,32.7,M,48.5,M,,0000*7D
$GPGSA,A,3,03,01,23,09,11,31,22,18,,,,,2.4,1.6,1.7*34
$GPRMC,073028.000,A,4714.3225,N,00131.5496,W,0.14,80.34,271218,,,A*4A
$GPGGA,073029.000,4714.3225,N,00131.5496,W,1,08,1.6,32.6,M,48.5,M,,0000*7D
$GPGSA,A,3,03,01,23,09,11,31,22,18,,,,,2.4,1.6,1.7*34
$GPGSV,3,1,12,04,83,134,,03,79,024,46,24,70,302,,22,59,065,36*72
$GPGSV,3,2,12,01,52,118,43,17,51,275,25,23,46,180,45,19,35,306,18*7E
$GPGSV,3,3,12,11,32,148,33,18,22,123,35,09,19,198,38,31,16,069,33*79
$GPRMC,073029.000,A,4714.3225,N,00131.5496,W,0.13,73.38,271218,,,A*4C
$GPGGA,073030.000,4714.3225,N,00131.5496,W,1,08,1.6,32.6,M,48.5,M,,0000*75
$GPGSA,A,3,03,01,23,09,11,31,22,18,,,,,2.4,1.6,1.7*34
$GPRMC,073030.000,A,4714.3225,N,00131.5496,W,0.14,82.61,271218,,,A*41
$GPGGA,073031.000,4714.3225,N,00131.5497,W,1,08,1.6,32.5,M,48.5,M,,0000*76
$GPGSA,A,3,03,01,23,09,11,31,22,18,,,,,2.4,1.6,1.7*34
$GPRMC,073031.000,A,4714.3225,N,00131.5497,W,0.12,71.67,271218,,,A*4D
$GPGGA,073032.000,4714.3225,N,00131.5497,W,1,08,1.6,32.5,M,48.5,M,,0000*75
$GPGSA,A,3,03,01,23,09,11,31,22,18,,,,,2.4,1.6,1.7*34
$GPRMC,073032.000,A,4714.3225,N,00131.5497,W,0.13,79.97,271218,,,A*48
$GPGGA,073033.000,4714.3225,N,00131.5497,W,1,08,1.6,32.4,M,48.5,M,,0000*75
$GPGSA,A,3,03,01,23,09,11,31,22,18,,,,,2.4,1.6,1.7*34
$GPRMC,073033.000,A,4714.3225,N,00131.5497,W,0.13,72.24,271218,,,A*4A
$GPGGA,073034.000,4714.3225,N,00131.5498,W,1,08,1.6,32.4,M,48.5,M,,0000*7D
$GPGSA,A,3,03,01,23,09,11,31,22,18,,,,,2.4,1.6,1.7*34
$GPGSV,3,1,12,04,83,134,,03,79,024,46,24,70,302,,22,59,065,36*72
$GPGSV,3,2,12,01,52,118,43,17,51,275,27,23,46,180,44,19,35,306,19*7C
$GPGSV,3,3,12,11,32,148,34,18,22,123,36,09,19,198,38,31,16,069,33*7D
$GPRMC,073034.000,A,4714.3225,N,00131.5498,W,0.13,75.67,271218,,,A*42
$GPGGA,073035.000,4714.3226,N,00131.5498,W,1,08,1.6,32.3,M,48.5,M,,0000*78
$GPGSA,A,3,03,01,23,09,11,31,22,18,,,,,2.4,1.6,1.7*34
$GPRMC,073035.000,A,4714.3226,N,00131.5498,W,0.12,75.17,271218,,,A*46
$GPGGA,073036.000,4714.3226,N,00131.5498,W,1,08,1.6,32.3,M,48.5,M,,0000*7B
$GPGSA,A,3,03,01,23,09,11,31,22,18,,,,,2.4,1.6,1.7*34
$GPRMC,073036.000,A,4714.3226,N,00131.5498,W,0.12,77.58,271218,,,A*4C
$GPGGA,073037.000,4714.3226,N,00131.5499,W,1,08,1.6,32.2,M,48.5,M,,0000*7A
$GPGSA,A,3,03,01,23,09,11,31,22,18,,,,,2.4,1.6,1.7*34
$GPRMC,073037.000,A,4714.3226,N,00131.5499,W,0.13,70.24,271218,,,A*41
$GPGGA,073038.000,4714.3226,N,00131.5499,W,1,08,1.6,32.1,M,48.5,M,,0000*76
$GPGSA,A,3,03,01,23,09,11,31,22,18,,,,,2.4,1.6,1.7*34
$GPRMC,073038.000,A,4714.3226,N,00131.5499,W,0.11,74.14,271218,,,A*4B
$GPGGA,073039.000,4714.3226,N,00131.5499,W,1,08,1.6,32.1,M,48.5,M,,0000*77
$GPGSA,A,3,03,01,23,09,11,31,22,18,,,,,2.4,1.6,1.7*34
$GPGSV,3,1,12,04,83,134,,03,79,024,46,24,70,302,,22,59,065,35*71
$GPGSV,3,2,12,01,52,118,43,17,51,275,29,23,46,180,43,19,35,306,*7D
$GPGSV,3,3,12,11,32,148,36,18,22,123,36,09,19,198,38,31,16,069,28*75
$GPRMC,073039.000,A,4714.3226,N,00131.5499,W,0.13,75.15,271218,,,A*48
$GPGGA,073040.000,4714.3228,N,00131.5500,W,1,08,1.6,31.5,M,48.5,M,,0000*71
$GPGSA,A,3,03,01,23,09,11,31,22,18,,,,,2.4,1.6,1.7*34
$GPRMC,073040.000,A,4714.3228,N,00131.5500,W,0.14,70.31,271218,,,A*4D
$GPGGA,073041.000,4714.3230,N,00131.5500,W,1,08,1.6,30.8,M,48.5,M,,0000*75
$GPGSA,A,3,03,01,23,09,11,31,22,18,,,,,2.4,1.6,1.7*34
$GPRMC,073041.000,A,4714.3230,N,00131.5500,W,0.13,64.92,271218,,,A*4E
$GPGGA,073042.000,4714.3231,N,00131.5501,W,1,08,1.6,30.1,M,48.5,M,,0000*7F
$GPGSA,A,3,03,01,23,09,11,31,22,18,,,,,2.4,1.6,1.7*34
$GPRMC,073042.000,A,4714.3231,N,00131.5501,W,0.13,57.83,271218,,,A*4D
$GPGGA,073043.000,4714.3233,N,00131.5501,W,1,08,1.6,29.5,M,48.5,M,,0000*70
$GPGSA,A,3,03,01,23,09,11,31,22,18,,,,,2.4,1.6,1.7*34
$GPRMC,073043.000,A,4714.3233,N,00131.5501,W,0.12,50.47,271218,,,A*40
$GPGGA,073044.000,4714.3235,N,00131.5502,W,1,08,1.6,28.9,M,48.5,M,,0000*7F
$GPGSA,A,3,03,01,23,09,11,31,22,18,,,,,2.4,1.6,1.7*34
$GPGSV,3,1,12,04,82,134,,03,79,025,46,24,70,302,,22,59,066,34*73
$GPGSV,3,2,12,01,52,118,43,17,51,275,30,23,46,179,43,19,35,306,*73
$GPGSV,3,3,12,11,32,148,38,18,22,123,36,09,19,198,38,31,16,068,28*7A
$GPRMC,073044.000,A,4714.3235,N,00131.5502,W,0.13,59.77,271218,,,A*49
$GPGGA,073045.000,4714.3236,N,00131.5502,W,1,08,1.6,28.4,M,48.5,M,,0000*70
$GPGSA,A,3,03,01,23,09,11,31,22,18,,,,,2.4,1.6,1.7*34
$GPRMC,073045.000,A,4714.3236,N,00131.5502,W,0.12,54.58,271218,,,A*4A
$GPGGA,073046.000,4714.3237,N,00131.5503,W,1,08,1.6,27.8,M,48.5,M,,0000*70
$GPGSA,A,3,03,01,23,09,11,31,22,18,,,,,2.4,1.6,1.7*34
$GPRMC,073046.000,A,4714.3237,N,00131.5503,W,0.13,47.65,271218,,,A*44
$GPGGA,073047.000,4714.3239,N,00131.5503,W,1,08,1.6,27.3,M,48.5,M,,0000*74
$GPGSA,A,3,03,01,23,09,11,31,22,18,,,,,2.4,1.6,1.7*34
$GPRMC,073047.000,A,4714.3239,N,00131.5503,W,0.13,51.30,271218,,,A*4C
$GPGGA,073048.000,4714.3240,N,00131.5504,W,1,08,1.6,26.9,M,48.5,M,,0000*79
$GPGSA,A,3,03,01,23,09,11,31,22,18,,,,,2.4,1.6,1.7*34
$GPRMC,073048.000,A,4714.3240,N,00131.5504,W,0.14,55.96,271218,,,A*45
$GPGGA,073049.000,4714.3241,N,00131.5504,W,1,08,1.6,26.4,M,48.5,M,,0000*74
$GPGSA,A,3,03,01,23,09,11,31,22,18,,,,,2.4,1.6,1.7*34
$GPGSV,3,1,12,04,82,134,,03,79,025,46,24,70,302,,22,59,066,33*74
$GPGSV,3,2,12,01,52,118,43,17,51,275,30,23,46,179,43,19,35,306,*73
$GPGSV,3,3,12,11,32,148,39,18,22,123,37,09,19,198,38,31,16,068,28*7A
$GPRMC,073049.000,A,4714.3241,N,00131.5504,W,0.13,49.71,271218,,,A*46
$GPGGA,073050.000,4714.3242,N,00131.5505,W,1,08,1.6,26.0,M,48.5,M,,0000*7A
$GPGSA,A,3,03,01,23,09,11,31,22,18,,,,,2.4,1.6,1.7*34
$GPRMC,073050.000,A,4714.3242,N,00131.5505,W,0.13,55.28,271218,,,A*4D
$GPGGA,073051.000,4714.3243,N,00131.5505,W,1,08,1.6,25.6,M,48.5,M,,0000*7F
$GPGSA,A,3,03,01,23,09,11,31,22,18,,,,,2.4,1.6,1.7*34
$GPRMC,073051.000,A,4714.3243,N,00131.5505,W,0.14,56.55,271218,,,A*43
$GPGGA,073052.000,4714.3245,N,00131.5505,W,1,08,1.6,25.3,M,48.5,M,,0000*7F
$GPGSA,A,3,03,01,23,09,11,31,22,18,,,,,2.4,1.6,1.7*34
$GPRMC,073052.000,A,4714.3245,N,00131.5505,W,0.14,59.03,271218,,,A*4A
$GPGGA,073053.000,4714.3245,N,00131.5506,W,1,08,1.6,24.9,M,48.5,M,,0000*76
$GPGSA,A,3,03,01,23,09,11,31,22,18,,,,,2.4,1.6,1.7*34
$GPRMC,073053.000,A,4714.3245,N,00131.5506,W,0.13,62.07,271218,,,A*43
$GPGGA,073054.000,4714.3246,N,00131.5506,W,1,08,1.6,24.6,M,48.5,M,,0000*7D
$GPGSA,A,3,03,01,23,09,11,31,22,18,,,,,2.4,1.6,1.7*34
$GPGSV,3,1,12,04,82,134,,03,79,025,46,24,70,302,,22,59,066,33*74
$GPGSV,3,2,12,01,52,118,43,17,51,275,31,23,46,179,44,19,35,306,*75
$GPGSV,3,3,12,11,32,148,39,18,22,123,37,09,19,198,38,31,16,068,28*7A
$GPRMC,073054.000,A,4714.3246,N,00131.5506,W,0.13,61.91,271218,,,A*4B
$GPGGA,073055.000,4714.3247,N,00131.5506,W,1,08,1.6,24.3,M,48.5,M,,0000*78
$GPGSA,A,3,03,01,23,09,11,31,22,18,,,,,2.4,1.6,1.7*34
$GPRMC,073055.000,A,4714.3247,N,00131.5506,W,0.09,73.55,271218,,,A*4B
$GPGGA,073056.000,4714.3248,N,00131.5507,W,1,08,1.6,24.2,M,48.5,M,,0000*74
$GPGSA,A,3,03,01,23,09,11,31,22,18,,,,,2.4,1.6,1.7*34
$GPRMC,073056.000,A,4714.3248,N,00131.5507,W,0.15,68.26,271218,,,A*45
$GPGGA,073057.000,4714.3248,N,00131.5507,W,1,08,1.6,24.3,M,48.5,M,,0000*74
$GPGSA,A,3,03,01,23,09,11,31,22,18,,,,,2.4,1.6,1.7*34
$GPRMC,073057.000,A,4714.3248,N,00131.5507,W,0.22,56.80,271218,,,A*41
$GPGGA,073058.000,4714.3246,N,00131.5507,W,1,08,1.6,24.9,M,48.5,M,,0000*7F
$GPGSA,A,3,03,01,23,09,11,31,22,18,,,,,2.4,1.6,1.7*34
$GPRMC,073058.000,A,4714.3246,N,00131.5507,W,0.19,59.16,271218,,,A*48
$GPGGA,073059.000,4714.3245,N,00131.5507,W,1,08,1.6,25.4,M,48.5,M,,0000*71
$GPGSA,A,3,03,01,23,09,11,31,22,18,,,,,2.4,1.6,1.7*34
$GPGSV,3,1,12,04,82,134,,03,79,025,46,24,70,302,,22,59,066,32*75
$GPGSV,3,2,12,01,52,118,43,17,51,275,31,23,46,179,43,19,35,306,*72
$GPGSV,3,3,12,11,32,148,40,18,22,123,38,09,19,198,37,31,16,068,22*7E
$GPRMC,073059.000,A,4714.3245,N,00131.5507,W,0.20,50.64,271218,,,A*4C
$GPGGA,073100.000,4714.3243,N,00131.5505,W,1,09,1.2,26.1,M,48.5,M,,0000*7B
$GPGSA,A,3,03,01,23,09,11,17,31,22,18,,,,2.0,1.2,1.6*33
$GPRMC,073100.000,A,4714.3243,N,00131.5505,W,0.18,48.36,271218,,,A*40
$GPGGA,073101.000,4714.3240,N,00131.5503,W,1,09,1.2,27.3,M,48.5,M,,0000*7C
$GPGSA,A,3,03,01,23,09,11,17,31,22,18,,,,2.0,1.2,1.6*33
$GPRMC,073101.000,A,4714.3240,N,00131.5503,W,0.15,49.35,271218,,,A*4B
$GPGGA,073102.000,4714.3236,N,00131.5502,W,1,09,1.2,28.9,M,48.5,M,,0000*7A
$GPGSA,A,3,03,01,23,09,11,17,31,22,18,,,,2.0,1.2,1.6*33
$GPRMC,073102.000,A,4714.3236,N,00131.5502,W,0.09,93.72,271218,,,A*41
$GPGGA,073103.000,4714.3233,N,00131.5501,W,1,09,1.2,30.2,M,48.5,M,,0000*7F
$GPGSA,A,3,03,01,23,09,11,17,31,22,18,,,,2.0,1.2,1.6*33
$GPRMC,073103.000,A,4714.3233,N,00131.5501,W,0.12,90.26,271218,,,A*4E
$GPGGA,073104.000,4714.3230,N,00131.5500,W,1,09,1.2,31.4,M,48.5,M,,0000*7D
$GPGSA,A,3,03,01,23,09,11,17,31,22,18,,,,2.0,1.2,1.6*33
$GPGSV,3,1,12,04,82,134,,03,79,026,46,24,70,302,,22,58,066,32*77
$GPGSV,3,2,12,01,52,118,44,17,51,275,32,23,46,179,43,19,35,305,*75
$GPGSV,3,3,12,11,32,148,40,18,22,123,39,09,19,198,37,31,16,068,31*7D
$GPRMC,073104.000,A,4714.3230,N,00131.5500,W,0.13,98.73,271218,,,A*42
$GPGGA,073105.000,4714.3227,N,00131.5500,W,1,09,1.2,32.5,M,48.5,M,,0000*78
$GPGSA,A,3,03,01,23,09,11,17,31,22,18,,,,2.0,1.2,1.6*33
$GPRMC,073105.000,A,4714.3227,N,00131.5500,W,0.15,100.82,271218,,,A*7D
$GPGGA,073106.000,4714.3227,N,00131.5499,W,1,08,1.7,32.8,M,48.5,M,,0000*73
$GPGSA,A,3,03,01,23,09,11,17,22,18,,,,,3.3,1.7,2.8*3B
$GPRMC,073106.000,A,4714.3227,N,00131.5499,W,0.13,98.44,271218,,,A*43
$GPGGA,073107.000,4714.3226,N,00131.5498,W,1,09,1.2,33.1,M,48.5,M,,0000*7E
$GPGSA,A,3,03,01,23,09,11,17,31,22,18,,,,2.0,1.2,1.6*33
$GPRMC,073107.000,A,4714.3226,N,00131.5498,W,0.14,85.09,271218,,,A*40
$GPGGA,073108.000,4714.3224,N,00131.5497,W,1,09,1.2,33.6,M,48.5,M,,0000*7B
$GPGSA,A,3,03,01,23,09,11,17,31,22,18,,,,2.0,1.2,1.6*33
$GPRMC,073108.000,A,4714.3224,N,00131.5497,W,0.14,89.44,271218,,,A*47
$GPGGA,073109.000,4714.3224,N,00131.5497,W,1,09,1.2,33.9,M,48.5,M,,0000*75
$GPGSA,A,3,03,01,23,09,11,17,31,22,18,,,,2.0,1.2,1.6*33
$GPGSV,3,1,12,04,82,134,,03,79,026,47,24,70,302,,22,58,066,32*76
$GPGSV,3,2,12,01,52,118,44,17,51,275,32,23,46,179,44,19,35,305,*72
$GPGSV,3,3,12,11,32,148,40,18,22,123,39,09,19,198,38,31,16,068,29*7B
$GPRMC,073109.000,A,4714.3224,N,00131.5497,W,0.13,86.47,271218,,,A*4D
$GPGGA,073110.000,4714.3223,N,00131.5496,W,1,09,1.2,34.2,M,48.5,M,,0000*77
$GPGSA,A,3,03,01,23,09,11,17,31,22,18,,,,2.0,1.2,1.6*33
$GPRMC,073110.000,A,4714.3223,N,00131.5496,W,0.12,88.38,271218,,,A*44
$GPGGA,073111.000,4714.3222,N,00131.5495,W,1,09,1.2,34.5,M,48.5,M,,0000*73
$GPGSA,A,3,03,01,23,09,11,17,31,22,18,,,,2.0,1.2,1.6*33
$GPRMC,073111.000,A,4714.3222,N,00131.5495,W,0.13,83.75,271218,,,A*44
$GPGGA,073112.000,4714.3222,N,00131.5494,W,1,09,1.2,34.8,M,48.5,M,,0000*7C
$GPGSA,A,3,03,01,23,09,11,17,31,22,18,,,,2.0,1.2,1.6*33
$GPRMC,073112.000,A,4714.3222,N,00131.5494,W,0.13,86.97,271218,,,A*4F
$GPGGA,073113.000,4714.3221,N,00131.5494,W,1,08,1.7,34.9,M,48.5,M,,0000*7B
$GPGSA,A,3,03,01,23,09,11,17,22,18,,,,,3.3,1.7,2.8*3B
$GPRMC,073113.000,A,4714.3221,N,00131.5494,W,0.13,80.21,271218,,,A*46
$GPGGA,073114.000,4714.3221,N,00131.5493,W,1,09,1.2,35.0,M,48.5,M,,0000*77
$GPGSA,A,3,03,01,23,09,11,17,31,22,18,,,,2.0,1.2,1.6*33
$GPGSV,3,1,12,04,82,134,,03,79,026,47,24,70,302,,22,58,066,38*7C
$GPGSV,3,2,12,01,52,118,43,17,51,274,33,23,47,179,45,19,35,305,*75
$GPGSV,3,3,12,11,32,148,41,18,21,123,39,09,19,198,40,31,16,068,25*7A
$GPRMC,073114.000,A,4714.3221,N,00131.5493,W,0.13,110.41,271218,,,A*78
$GPGGA,073115.000,4714.3221,N,00131.5492,W,1,09,1.2,34.9,M,48.5,M,,0000*7F
$GPGSA,A,3,03,01,23,09,11,17,31,22,18,,,,2.0,1.2,1.6*33
$GPRMC,073115.000,A,4714.3221,N,00131.5492,W,0.14,99.59,271218,,,A*46
$GPGGA,073116.000,4714.3222,N,00131.5491,W,1,09,1.2,34.8,M,48.5,M,,0000*7D
$GPGSA,A,3,03,01,23,09,11,17,31,22,18,,,,2.0,1.2,1.6*33
$GPRMC,073116.000,A,4714.3222,N,00131.5491,W,0.14,93.58,271218,,,A*4E
$GPGGA,073117.000,4714.3222,N,00131.5490,W,1,09,1.2,34.6,M,48.5,M,,0000*73
$GPGSA,A,3,03,01,23,09,11,17,31,22,18,,,,2.0,1.2,1.6*33
$GPRMC,073117.000,A,4714.3222,N,00131.5490,W,0.14,89.34,271218,,,A*4F
$GPGGA,073118.000,4714.3222,N,00131.5489,W,1,09,1.2,34.5,M,48.5,M,,0000*77
$GPGSA,A,3,03,01,23,09,11,17,31,22,18,,,,2.0,1.2,1.6*33
$GPRMC,073118.000,A,4714.3222,N,00131.5489,W,0.15,88.52,271218,,,A*48
$GPGGA,073119.000,4714.3223,N,00131.5488,W,1,09,1.2,34.3,M,48.5,M,,0000*70
$GPGSA,A,3,03,01,23,09,11,17,31,22,18,,,,2.0,1.2,1.6*33
$GPGSV,3,1,12,04,82,134,,03,79,026,47,24,70,302,,22,58,066,36*72
$GPGSV,3,2,12,01,52,118,44,17,51,274,34,23,47,179,45,19,35,305,*75
$GPGSV,3,3,12,11,32,148,41,18,21,123,39,09,19,198,41,31,16,068,30*7F
$GPRMC,073119.000,A,4714.3223,N,00131.5488,W,0.15,85.68,271218,,,A*4D
$GPGGA,073120.000,4714.3223,N,00131.5488,W,1,09,1.2,34.1,M,48.5,M,,0000*78
$GPGSA,A,3,03,01,23,09,11,17,31,22,18,,,,2.0,1.2,1.6*33
$GPRMC,073120.000,A,4714.3223,N,00131.5488,W,0.14,74.52,271218,,,A*41
$GPGGA,073121.000,4714.3224,N,00131.5487,W,1,09,1.2,33.9,M,48.5,M,,0000*7E
$GPGSA,A,3,03,01,23,09,11,17,31,22,18,,,,2.0,1.2,1.6*33
$GPRMC,073121.000,A,4714.3224,N,00131.5487,W,0.11,75.25,271218,,,A*4C
$GPGGA,073122.000,4714.3224,N,00131.5486,W,1,09,1.2,33.7,M,48.5,M,,0000*72
$GPGSA,A,3,03,01,23,09,11,17,31,22,18,,,,2.0,1.2,1.6*33
$GPRMC,073122.000,A,4714.3224,N,00131.5486,W,0.14,73.03,271218,,,A*49
$GPGGA,073123.000,4714.3225,N,00131.5485,W,1,09,1.2,33.5,M,48.5,M,,0000*73
$GPGSA,A,3,03,01,23,09,11,17,31,22,18,,,,2.0,1.2,1.6*33
$GPRMC,073123.000,A,4714.3225,N,00131.5485,W,0.13,70.37,271218,,,A*49
$GPGGA,073124.000,4714.3226,N,00131.5485,W,1,09,1.2,33.4,M,48.5,M,,0000*76
$GPGSA,A,3,03,01,23,09,11,17,31,22,18,,,,2.0,1.2,1.6*33
$GPGSV,3,1,12,04,82,134,,03,79,026,47,24,70,302,,22,58,066,35*71
$GPGSV,3,2,12,01,52,118,45,17,51,274,34,23,47,179,44,19,35,305,*75
$GPGSV,3,3,12,11,32,148,40,18,21,123,39,09,19,198,41,31,16,068,30*7E
$GPRMC,073124.000,A,4714.3226,N,00131.5485,W,0.13,72.81,271218,,,A*42
$GPGGA,073125.000,4714.3226,N,00131.5484,W,1,09,1.2,33.2,M,48.5,M,,0000*70
$GPGSA,A,3,03,01,23,09,11,17,31,22,18,,,,2.0,1.2,1.6*33
$GPRMC,073125.000,A,4714.3226,N,00131.5484,W,0.13,74.63,271218,,,A*48
$GPGGA,073126.000,4714.3225,N,00131.5483,W,1,09,1.2,33.1,M,48.5,M,,0000*74
$GPGSA,A,3,03,01,23,09,11,17,31,22,18,,,,2.0,1.2,1.6*33
$GPRMC,073126.000,A,4714.3225,N,00131.5483,W,0.33,180.67,271218,,,A*73
$GPGGA,073127.000,4714.3224,N,00131.5484,W,1,09,1.2,32.9,M,48.5,M,,0000*7A
$GPGSA,A,3,03,01,23,09,11,17,31,22,18,,,,2.0,1.2,1.6*33
$GPRMC,073127.000,A,4714.3224,N,00131.5484,W,0.77,212.52,271218,,,A*7A
$GPGGA,073128.000,4714.3221,N,00131.5488,W,1,09,1.2,32.8,M,48.5,M,,0000*7D
$GPGSA,A,3,03,01,23,09,11,17,31,22,18,,,,2.0,1.2,1.6*33
$GPRMC,073128.000,A,4714.3221,N,00131.5488,W,2.16,225.59,271218,,,A*76
$GPGGA,073129.000,4714.3216,N,00131.5496,W,1,09,1.2,32.9,M,48.5,M,,0000*76
$GPGSA,A,3,03,01,23,09,11,17,31,22,18,,,,2.0,1.2,1.6*33
$GPGSV,3,1,12,04,82,134,,03,79,026,48,24,70,302,,22,58,066,36*7D
$GPGSV,3,2,12,01,52,118,44,17,51,274,25,23,47,179,45,19,35,305,*75
$GPGSV,3,3,12,11,32,148,39,18,21,123,36,09,19,198,42,31,16,068,30*7C
$GPRMC,073129.000,A,4714.3216,N,00131.5496,W,2.87,225.82,271218,,,A*72
$GPGGA,073130.000,4714.3209,N,00131.5505,W,1,09,1.2,32.9,M,48.5,M,,0000*7B
$GPGSA,A,3,03,01,23,09,11,17,31,22,18,,,,2.0,1.2,1.6*33
$GPRMC,073130.000,A,4714.3209,N,00131.5505,W,3.03,222.35,271218,,,A*79
$GPGGA,073131.000,4714.3203,N,00131.5514,W,1,09,1.2,32.6,M,48.5,M,,0000*7F
$GPGSA,A,3,03,01,23,09,11,17,31,22,18,,,,2.0,1.2,1.6*33
$GPRMC,073131.000,A,4714.3203,N,00131.5514,W,3.27,233.86,271218,,,A*7C
$GPGGA,073132.000,4714.3198,N,00131.5526,W,1,09,1.2,32.5,M,48.5,M,,0000*7F
$GPGSA,A,3,03,01,23,09,11,17,31,22,18,,,,2.0,1.2,1.6*33
$GPRMC,073132.000,A,4714.3198,N,00131.5526,W,3.64,255.18,271218,,,A*7F
$GPGGA,073133.000,4714.3196,N,00131.5543,W,1,09,1.2,32.1,M,48.5,M,,0000*77
$GPGSA,A,3,03,01,23,09,11,17,31,22,18,,,,2.0,1.2,1.6*33
$GPRMC,073133.000,A,4714.3196,N,00131.5543,W,4.00,273.97,271218,,,A*75
$GPGGA,073134.000,4714.3195,N,00131.5556,W,1,09,1.2,31.8,M,48.5,M,,0000*7D
$GPGSA,A,3,03,01,23,09,11,17,31,22,18,,,,2.0,1.2,1.6*33
$GPGSV,3,1,12,04,82,134,,03,79,026,48,24,70,302,,22,58,066,37*7C
$GPGSV,3,2,12,01,52,118,37,17,51,274,26,23,47,179,45,19,35,305,*72
$GPGSV,3,3,12,11,32,148,41,18,21,123,40,09,19,198,32,31,16,068,31*74
$GPRMC,073134.000,A,4714.3195,N,00131.5556,W,2.67,257.16,271218,,,A*7D
$GPGGA,073135.000,4714.3192,N,00131.5564,W,1,09,1.2,31.4,M,48.5,M,,0000*76
$GPGSA,A,3,03,01,23,09,11,17,31,22,18,,,,2.0,1.2,1.6*33
$GPRMC,073135.000,A,4714.3192,N,00131.5564,W,2.28,226.60,271218,,,A*76
$GPGGA,073136.000,4714.3187,N,00131.5574,W,1,09,1.2,30.7,M,48.5,M,,0000*72
$GPGSA,A,3,03,01,23,09,11,17,31,22,18,,,,2.0,1.2,1.6*33
$GPRMC,073136.000,A,4714.3187,N,00131.5574,W,3.46,235.22,271218,,,A*7D
$GPGGA,073137.000,4714.3178,N,00131.5584,W,1,09,1.2,30.4,M,48.5,M,,0000*7F
$GPGSA,A,3,03,01,23,09,11,17,31,22,18,,,,2.0,1.2,1.6*33
$GPRMC,073137.000,A,4714.3178,N,00131.5584,W,4.22,224.95,271218,,,A*7A
$GPGGA,073138.000,4714.3167,N,00131.5592,W,1,09,1.2,30.4,M,48.5,M,,0000*79
$GPGSA,A,3,03,01,23,09,11,17,31,22,18,,,,2.0,1.2,1.7*32
$GPRMC,073138.000,A,4714.3167,N,00131.5592,W,4.12,209.10,271218,,,A*7D
$GPGGA,073139.000,4714.3154,N,00131.5596,W,1,09,1.2,30.5,M,48.5,M,,0000*7D
$GPGSA,A,3,03,01,23,09,11,17,31,22,18,,,,2.0,1.2,1.7*32
$GPGSV,3,1,12,04,82,134,,03,79,026,48,24,70,302,,22,58,066,37*7C
$GPGSV,3,2,12,01,52,118,43,17,51,274,22,23,47,179,45,19,35,305,*75
$GPGSV,3,3,12,11,32,148,42,18,21,123,37,09,19,198,42,31,16,068,34*75
$GPRMC,073139.000,A,4714.3154,N,00131.5596,W,4.55,188.14,271218,,,A*75
$GPGGA,073140.000,4714.3139,N,00131.5592,W,1,09,1.2,30.8,M,48.5,M,,0000*71
$GPGSA,A,3,03,01,23,09,11,17,31,22,18,,,,2.0,1.2,1.7*32
$GPRMC,073140.000,A,4714.3139,N,00131.5592,W,4.77,162.13,271218,,,A*77
$GPGGA,073141.000,4714.3124,N,00131.5577,W,1,09,1.2,31.6,M,48.5,M,,0000*78
$GPGSA,A,3,03,01,23,09,11,17,31,22,18,,,,2.0,1.2,1.7*32
$GPRMC,073141.000,A,4714.3124,N,00131.5577,W,5.85,134.84,271218,,,A*70
$GPGGA,073142.000,4714.3112,N,00131.5558,W,1,09,1.2,32.1,M,48.5,M,,0000*77
$GPGSA,A,3,03,01,23,09,11,17,31,22,18,,,,2.0,1.2,1.7*32
$GPRMC,073142.000,A,4714.3112,N,00131.5558,W,5.44,125.14,271218,,,A*7F
$GPGGA,073143.000,4714.3102,N,00131.5541,W,1,09,1.2,32.7,M,48.5,M,,0000*79
$GPGSA,A,3,03,01,23,09,11,17,31,22,18,,,,2.0,1.2,1.7*32
$GPRMC,073143.000,A,4714.3102,N,00131.5541,W,4.65,124.45,271218,,,A*70
$GPGGA,073144.000,4714.3094,N,00131.5526,W,1,09,1.2,33.2,M,48.5,M,,0000*75
$GPGSA,A,3,03,01,23,09,11,17,31,22,18,,,,2.0,1.2,1.7*32
$GPGSV,3,1,12,04,82,134,,03,79,027,48,22,58,066,43,01,51,118,46*71
$GPGSV,3,2,12,17,51,274,27,23,47,179,44,19,35,305,,11,32,148,43*73
$GPGSV,3,3,12,18,21,123,32,09,19,198,41,31,16,068,35,29,14,169,*78
$GPRMC,073144.000,A,4714.3094,N,00131.5526,W,4.44,122.43,271218,,,A*7B
$GPGGA,073145.000,4714.3088,N,00131.5512,W,1,09,1.2,33.5,M,48.5,M,,0000*79
$GPGSA,A,3,03,01,23,09,11,17,31,22,18,,,,2.0,1.2,1.7*32
$GPRMC,073145.000,A,4714.3088,N,00131.5512,W,4.28,121.94,271218,,,A*73
$GPGGA,073146.000,4714.3081,N,00131.5497,W,1,08,1.2,33.8,M,48.5,M,,0000*73
$GPGSA,A,3,03,01,23,09,11,17,31,22,,,,,2.1,1.2,1.7*3A
$GPRMC,073146.000,A,4714.3081,N,00131.5497,W,4.24,122.13,271218,,,A*75
$GPGGA,073147.000,4714.3073,N,00131.5484,W,1,08,1.2,34.4,M,48.5,M,,0000*76
$GPGSA,A,3,03,01,23,09,11,17,31,22,,,,,2.1,1.2,1.7*3A
$GPRMC,073147.000,A,4714.3073,N,00131.5484,W,4.12,127.34,271218,,,A*7E
$GPGGA,073148.000,4714.3065,N,00131.5473,W,1,08,1.2,34.9,M,48.5,M,,0000*7B
$GPGSA,A,3,03,01,23,09,11,17,31,22,,,,,2.1,1.2,1.7*3A
$GPRMC,073148.000,A,4714.3065,N,00131.5473,W,3.72,139.73,271218,,,A*73
$GPGGA,073149.000,4714.3055,N,00131.5467,W,1,08,1.2,35.2,M,48.5,M,,0000*76
$GPGSA,A,3,03,01,23,09,11,17,31,22,,,,,2.1,1.2,1.7*3A
$GPGSV,3,1,12,04,82,134,,03,79,027,48,22,58,066,43,01,51,118,48*7F
$GPGSV,3,2,12,17,51,274,38,23,47,179,43,19,35,305,30,11,32,148,43*79
$GPGSV,3,3,12,18,21,123,,09,19,198,42,31,16,068,35,29,14,169,*7A
$GPRMC,073149.000,A,4714.3055,N,00131.5467,W,4.31,161.20,271218,,,A*7F
$GPGGA,073150.000,4714.3042,N,00131.5466,W,1,09,1.2,35.3,M,48.5,M,,0000*79
$GPGSA,A,3,03,01,23,09,11,17,31,22,18,,,,2.0,1.2,1.7*32
$GPRMC,073150.000,A,4714.3042,N,00131.5466,W,5.11,183.01,271218,,,A*7C
$GPGGA,073151.000,4714.3028,N,00131.5473,W,1,09,1.2,35.4,M,48.5,M,,0000*77
$GPGSA,A,3,03,01,23,09,11,17,31,22,18,,,,2.0,1.2,1.7*32
$GPRMC,073151.000,A,4714.3028,N,00131.5473,W,6.07,203.06,271218,,,A*7D
$GPGGA,073152.000,4714.3012,N,00131.5488,W,1,09,1.2,35.4,M,48.5,M,,0000*79
$GPGSA,A,3,03,01,23,09,11,17,31,22,18,,,,2.0,1.2,1.7*32
$GPRMC,073152.000,A,4714.3012,N,00131.5488,W,7.18,209.85,271218,,,A*7D
$GPGGA,073153.000,4714.2995,N,00131.5507,W,1,09,1.2,35.6,M,48.5,M,,0000*7B
$GPGSA,A,3,03,01,23,09,11,17,31,22,18,,,,2.0,1.2,1.7*32
$GPRMC,073153.000,A,4714.2995,N,00131.5507,W,7.86,212.65,271218,,,A*7E
$GPGGA,073154.000,4714.2977,N,00131.5527,W,1,09,1.2,35.5,M,48.5,M,,0000*71
$GPGSA,A,3,03,01,23,09,11,17,31,22,18,,,,2.0,1.2,1.7*32
$GPGSV,3,1,12,04,82,134,,03,79,027,48,22,58,066,36,01,51,118,36*74
$GPGSV,3,2,12,17,51,274,45,23,47,179,45,19,35,305,23,11,32,148,29*7B
$GPGSV,3,3,12,18,21,123,34,09,19,198,42,31,16,068,35,29,14,169,*7D
$GPRMC,073154.000,A,4714.2977,N,00131.5527,W,7.92,215.19,271218,,,A*7E
$GPGGA,073155.000,4714.2958,N,00131.5549,W,1,08,1.2,35.7,M,48.5,M,,0000*76
$GPGSA,A,3,03,01,23,09,11,17,31,22,,,,,2.1,1.2,1.7*3A
$GPRMC,073155.000,A,4714.2958,N,00131.5549,W,8.40,218.58,271218,,,A*72
$GPGGA,073156.000,4714.2938,N,00131.5571,W,1,08,1.2,35.7,M,48.5,M,,0000*78
$GPGSA,A,3,03,01,23,09,11,17,31,22,,,,,2.1,1.2,1.7*3A
$GPRMC,073156.000,A,4714.2938,N,00131.5571,W,8.37,217.79,271218,,,A*70
$GPGGA,073157.000,4714.2920,N,00131.5592,W,1,08,1.2,35.5,M,48.5,M,,0000*7F
$GPGSA,A,3,03,01,23,09,11,17,31,22,,,,,2.1,1.2,1.7*3A
$GPRMC,073157.000,A,4714.2920,N,00131.5592,W,7.81,217.15,271218,,,A*7D
$GPGGA,073158.000,4714.2905,N,00131.5610,W,1,08,1.2,35.4,M,48.5,M,,0000*7F
$GPGSA,A,3,03,01,23,09,11,17,31,22,,,,,2.1,1.2,1.7*3A
$GPRMC,073158.000,A,4714.2905,N,00131.5610,W,5.71,216.70,271218,,,A*73
$GPGGA,073159.000,4714.2893,N,00131.5623,W,1,08,1.2,35.6,M,48.5,M,,0000*72
$GPGSA,A,3,03,01,23,09,11,17,31,22,,,,,2.1,1.2,1.7*3A
$GPGSV,3,1,12,04,82,134,,03,79,027,48,22,58,066,34,01,51,118,38*78
$GPGSV,3,2,12,17,51,274,45,23,47,179,46,19,35,305,25,11,32,148,41*70
$GPGSV,3,3,12,18,21,123,24,09,19,198,43,31,16,068,28,29,14,169,*71
$GPRMC,073159.000,A,4714.2893,N,00131.5623,W,3.63,217.17,271218,,,A*79
$GPGGA,073200.000,4714.2885,N,00131.5631,W,1,09,1.2,35.7,M,48.5,M,,0000*79
$GPGSA,A,3,03,01,23,09,11,17,31,22,18,,,,2.0,1.2,1.7*32
$GPRMC,073200.000,A,4714.2885,N,00131.5631,W,2.58,218.42,271218,,,A*74
$GPGGA,073201.000,4714.2880,N,00131.5637,W,1,09,1.2,36.0,M,48.5,M,,0000*7F
$GPGSA,A,3,03,01,23,09,11,17,31,22,18,,,,2.0,1.2,1.7*32
$GPRMC,073201.000,A,4714.2880,N,00131.5637,W,0.83,217.63,271218,,,A*7E
$GPGGA,073202.000,4714.2878,N,00131.5639,W,1,09,1.2,36.2,M,48.5,M,,0000*77
$GPGSA,A,3,03,01,23,09,11,17,31,22,18,,,,2.0,1.2,1.7*32
$GPRMC,073202.000,A,4714.2878,N,00131.5639,W,0.14,7.55,271218,,,A*7C
$GPGGA,073203.000,4714.2877,N,00131.5640,W,1,09,1.2,36.5,M,48.5,M,,0000*70
$GPGSA,A,3,03,01,23,09,11,17,31,22,18,,,,2.0,1.2,1.7*32
$GPRMC,073203.000,A,4714.2877,N,00131.5640,W,0.10,356.49,271218,,,A*72
$GPGGA,073204.000,4714.2876,N,00131.5641,W,1,09,1.2,36.8,M,48.5,M,,0000*7A
$GPGSA,A,3,03,01,23,09,11,17,31,22,18,,,,2.0,1.2,1.7*32
$GPGSV,3,1,12,04,82,134,,03,79,027,48,22,58,066,35,01,51,118,38*79
$GPGSV,3,2,12,17,51,274,47,23,47,179,46,19,35,305,29,11,32,148,42*7D
$GPGSV,3,3,12,18,21,123,37,09,19,198,35,31,16,068,26,29,14,169,*7C
$GPRMC,073204.000,A,4714.2876,N,00131.5641,W,0.20,229.79,271218,,,A*7C
$GPGGA,073205.000,4714.2872,N,00131.5645,W,1,09,1.2,36.9,M,48.5,M,,0000*7A
$GPGSA,A,3,03,01,23,09,11,17,31,22,18,,,,2.0,1.2,1.7*32
$GPRMC,073205.000,A,4714.2872,N,00131.5645,W,2.20,218.57,271218,,,A*71
$GPGGA,073206.000,4714.2867,N,00131.5651,W,1,09,1.2,36.8,M,48.5,M,,0000*79
$GPGSA,A,3,03,01,23,09,11,17,31,22,18,,,,2.0,1.2,1.7*32
$GPRMC,073206.000,A,4714.2867,N,00131.5651,W,1.55,218.59,271218,,,A*7C
$GPGGA,073207.000,4714.2861,N,00131.5655,W,1,09,1.2,36.8,M,48.5,M,,0000*7A
$GPGSA,A,3,03,01,23,09,11,17,31,22,18,,,,2.0,1.2,1.7*32
$GPRMC,073207.000,A,4714.2861,N,00131.5655,W,2.52,201.56,271218,,,A*7C
$GPGGA,073208.000,4714.2853,N,00131.5657,W,1,08,1.3,36.5,M,48.5,M,,0000*7B
$GPGSA,A,3,03,01,23,11,17,31,22,18,,,,,2.4,1.3,2.0*3A
$GPRMC,073208.000,A,4714.2853,N,00131.5657,W,3.96,178.18,271218,,,A*7E
$GPGGA,073209.000,4714.2839,N,00131.5653,W,1,08,1.3,36.5,M,48.5,M,,0000*72
$GPGSA,A,3,03,01,23,11,17,31,22,18,,,,,2.4,1.3,2.0*3A
$GPGSV,3,1,12,04,82,134,,03,79,027,49,22,58,066,36,01,51,118,46*72
$GPGSV,3,2,12,17,51,274,43,23,47,179,46,19,35,305,32,11,32,148,41*70
$GPGSV,3,3,12,18,21,123,36,09,19,198,,31,16,068,28,29,14,169,*75
$GPRMC,073209.000,A,4714.2839,N,00131.5653,W,5.90,158.63,271218,,,A*79
$GPGGA,073210.000,4714.2821,N,00131.5639,W,1,08,1.3,36.5,M,48.5,M,,0000*7F
$GPGSA,A,3,03,01,23,11,17,31,22,18,,,,,2.4,1.3,2.0*3A
$GPRMC,073210.000,A,4714.2821,N,00131.5639,W,7.86,144.20,271218,,,A*7B
$GPGGA,073211.000,4714.2801,N,00131.5617,W,1,08,1.3,37.0,M,48.5,M,,0000*74
$GPGSA,A,3,03,01,23,11,17,31,22,18,,,,,2.4,1.3,2.0*3A
$GPRMC,073211.000,A,4714.2801,N,00131.5617,W,8.98,136.39,271218,,,A*79
$GPGGA,073212.000,4714.2782,N,00131.5591,W,1,08,1.3,37.7,M,48.5,M,,0000*79
$GPGSA,A,3,03,01,23,11,17,31,22,18,,,,,2.4,1.3,2.0*3A
$GPRMC,073212.000,A,4714.2782,N,00131.5591,W,8.98,130.85,271218,,,A*72
$GPGGA,073213.000,4714.2762,N,00131.5563,W,1,09,1.2,38.6,M,48.5,M,,0000*75
$GPGSA,A,3,03,01,23,09,11,17,31,22,18,,,,2.0,1.2,1.7*32
$GPRMC,073213.000,A,4714.2762,N,00131.5563,W,9.64,129.02,271218,,,A*75
$GPGGA,073214.000,4714.2741,N,00131.5529,W,1,09,1.2,39.3,M,48.5,M,,0000*79
$GPGSA,A,3,03,01,23,09,11,17,31,22,18,,,,2.0,1.2,1.7*32
$GPGSV,3,1,12,04,82,134,,03,79,027,48,22,58,066,39,01,51,118,47*7D
$GPGSV,3,2,12,17,51,274,34,23,47,179,45,19,35,305,32,11,32,148,43*71
$GPGSV,3,3,12,18,21,123,44,09,19,198,34,31,16,068,27,29,14,169,*78
$GPRMC,073214.000,A,4714.2741,N,00131.5529,W,11.73,130.66,271218,,,A*48
$GPGGA,073215.000,4714.2717,N,00131.5489,W,1,09,1.2,39.7,M,48.5,M,,0000*74
$GPGSA,A,3,03,01,23,09,11,17,31,22,18,,,,2.0,1.2,1.7*32
$GPRMC,073215.000,A,4714.2717,N,00131.5489,W,13.60,131.79,271218,,,A*4E
$GPGGA,073216.000,4714.2690,N,00131.5445,W,1,09,1.2,39.6,M,48.5,M,,0000*78
$GPGSA,A,3,03,01,23,09,11,17,31,22,18,,,,2.0,1.2,1.7*32
$GPRMC,073216.000,A,4714.2690,N,00131.5445,W,14.92,132.29,271218,,,A*4F
$GPGGA,073217.000,4714.2662,N,00131.5397,W,1,09,1.2,39.4,M,48.5,M,,0000*7E
$GPGSA,A,3,03,01,23,09,11,17,31,22,18,,,,2.0,1.2,1.7*32
$GPRMC,073217.000,A,4714.2662,N,00131.5397,W,15.92,130.11,271218,,,A*43
$GPGGA,073218.000,4714.2633,N,00131.5345,W,1,09,1.2,39.3,M,48.5,M,,0000*7D
$GPGSA,A,3,03,01,23,09,11,17,31,22,18,,,,2.0,1.2,1.7*32
$GPRMC,073218.000,A,4714.2633,N,00131.5345,W,16.75,129.04,271218,,,A*41
$GPGGA,073219.000,4714.2602,N,00131.5292,W,1,09,1.2,39.2,M,48.5,M,,0000*74
$GPGSA,A,3,03,01,23,09,11,17,31,22,18,,,,2.0,1.2,1.7*32
$GPGSV,3,1,12,04,82,134,,03,79,027,47,22,58,066,37,01,51,118,48*73
$GPGSV,3,2,12,17,51,274,35,23,47,179,43,19,35,305,32,11,32,148,41*74
$GPGSV,3,3,12,18,21,123,43,09,19,198,27,31,16,068,25,29,14,169,*7F
$GPRMC,073219.000,A,4714.2602,N,00131.5292,W,16.77,132.33,271218,,,A*45
$GPGGA,073220.000,4714.2570,N,00131.5245,W,1,09,1.2,39.3,M,48.5,M,,0000*73
$GPGSA,A,3,03,01,23,09,11,17,31,22,18,,,,2.0,1.2,1.7*32
$GPRMC,073220.000,A,4714.2570,N,00131.5245,W,15.49,136.06,271218,,,A*4F
$GPGGA,073221.000,4714.2542,N,00131.5202,W,1,09,1.2,38.8,M,48.5,M,,0000*7A
$GPGSA,A,3,03,01,23,09,11,17,31,22,18,,,,2.0,1.2,1.7*32
$GPRMC,073221.000,A,4714.2542,N,00131.5202,W,13.80,131.17,271218,,,A*48
$GPGGA,073222.000,4714.2518,N,00131.5164,W,1,09,1.2,38.4,M,48.5,M,,0000*79
$GPGSA,A,3,03,01,23,09,11,17,31,22,18,,,,2.0,1.2,1.7*32
$GPRMC,073222.000,A,4714.2518,N,00131.5164,W,12.19,137.84,271218,,,A*4A
$GPGGA,073223.000,4714.2492,N,00131.5138,W,1,09,1.2,38.1,M,48.5,M,,0000*77
$GPGSA,A,3,03,01,23,09,11,17,31,22,18,,,,2.0,1.2,1.7*32
$GPRMC,073223.000,A,4714.2492,N,00131.5138,W,10.81,153.20,271218,,,A*4E
$GPGGA,073224.000,4714.2466,N,00131.5122,W,1,09,1.2,37.8,M,48.5,M,,0000*76
$GPGSA,A,3,03,01,23,09,11,17,31,22,18,,,,2.0,1.2,1.7*32
$GPGSV,3,1,12,04,82,134,,03,79,027,48,22,58,066,43,01,51,118,48*7F
$GPGSV,3,2,12,17,51,274,43,23,47,179,43,19,35,305,31,11,32,148,43*74
$GPGSV,3,3,12,18,21,123,38,09,19,198,39,31,16,068,31,29,14,169,*79
$GPRMC,073224.000,A,4714.2466,N,00131.5122,W,10.02,159.31,271218,,,A*48
$GPGGA,073225.000,4714.2443,N,00131.5103,W,1,09,1.2,37.5,M,48.5,M,,0000*7E
$GPGSA,A,3,03,01,23,09,11,17,31,22,18,,,,2.0,1.2,1.7*32
$GPRMC,073225.000,A,4714.2443,N,00131.5103,W,9.48,141.07,271218,,,A*77
$GPGGA,073226.000,4714.2428,N,00131.5074,W,1,09,1.2,36.8,M,48.5,M,,0000*7D
$GPGSA,A,3,03,01,23,09,11,17,31,22,18,,,,2.0,1.2,1.7*32
$GPRMC,073226.000,A,4714.2428,N,00131.5074,W,9.61,115.84,271218,,,A*79
$GPGGA,073227.000,4714.2419,N,00131.5036,W,1,09,1.2,36.6,M,48.5,M,,0000*76
$GPGSA,A,3,03,01,23,09,11,17,31,22,18,,,,2.0,1.2,1.7*32
$GPRMC,073227.000,A,4714.2419,N,00131.5036,W,9.84,107.05,271218,,,A*7D
$GPGGA,073228.000,4714.2410,N,00131.4998,W,1,08,1.3,36.1,M,48.5,M,,0000*7B
$GPGSA,A,3,03,01,23,11,17,31,22,18,,,,,2.4,1.3,2.0*3A
$GPRMC,073228.000,A,4714.2410,N,00131.4998,W,10.07,112.08,271218,,,A*4D
$GPGGA,073229.000,4714.2399,N,00131.4961,W,1,08,1.3,35.7,M,48.5,M,,0000*7F
$GPGSA,A,3,03,01,23,11,17,31,22,18,,,,,2.4,1.3,2.0*3A
$GPGSV,3,1,12,04,82,134,,03,79,027,48,22,58,066,43,01,51,118,48*7F
$GPGSV,3,2,12,17,51,274,41,23,47,179,37,19,35,305,32,11,32,148,29*7A
$GPGSV,3,3,12,18,21,123,41,09,19,198,,31,16,068,40,29,14,169,*7B
$GPRMC,073229.000,A,4714.2399,N,00131.4961,W,10.00,115.60,271218,,,A*42
$GPGGA,073230.000,4714.2390,N,00131.4923,W,1,08,1.3,35.3,M,48.5,M,,0000*7C
$GPGSA,A,3,03,01,23,11,17,31,22,18,,,,,2.4,1.3,2.0*3A
$GPRMC,073230.000,A,4714.2390,N,00131.4923,W,9.83,103.89,271218,,,A*76
$GPGGA,073231.000,4714.2391,N,00131.4885,W,1,08,1.3,35.0,M,48.5,M,,0000*72
$GPGSA,A,3,03,01,23,11,17,31,22,18,,,,,2.4,1.3,2.0*3A
$GPRMC,073231.000,A,4714.2391,N,00131.4885,W,9.57,73.56,271218,,,A*46
$GPGGA,073232.000,4714.2406,N,00131.4852,W,1,08,1.3,34.7,M,48.5,M,,0000*74
$GPGSA,A,3,03,01,23,11,17,31,22,18,,,,,2.4,1.3,2.0*3A
$GPRMC,073232.000,A,4714.2406,N,00131.4852,W,9.79,45.71,271218,,,A*4A
$GPGGA,073233.000,4714.2428,N,00131.4824,W,1,09,1.2,34.1,M,48.5,M,,0000*7E
$GPGSA,A,3,03,01,23,09,11,17,31,22,18,,,,2.0,1.2,1.7*32
$GPRMC,073233.000,A,4714.2428,N,00131.4824,W,10.75,40.10,271218,,,A*70
$GPGGA,073234.000,4714.2451,N,00131.4793,W,1,08,1.2,33.7,M,48.5,M,,0000*74
$GPGSA,A,3,03,01,23,09,11,17,31,22,,,,,2.1,1.2,1.7*3A
$GPGSV,3,1,12,04,82,134,,03,79,027,48,22,58,066,45,01,51,118,47*76
$GPGSV,3,2,12,17,51,274,40,23,47,179,33,19,35,305,43,11,32,148,32*73
$GPGSV,3,3,12,18,21,123,26,09,19,198,33,31,16,068,43,29,14,169,*79
$GPRMC,073234.000,A,4714.2451,N,00131.4793,W,11.57,48.69,271218,,,A*7D
$GPGGA,073235.000,4714.2472,N,00131.4751,W,1,08,1.2,33.6,M,48.5,M,,0000*7B
$GPGSA,A,3,03,01,23,09,11,17,31,22,,,,,2.1,1.2,1.7*3A
$GPRMC,073235.000,A,4714.2472,N,00131.4751,W,13.31,60.98,271218,,,A*75
$GPGGA,073236.000,4714.2487,N,00131.4697,W,1,08,1.2,33.3,M,48.5,M,,0000*7C
$GPGSA,A,3,03,01,23,09,11,17,31,22,,,,,2.1,1.2,1.7*3A
$GPRMC,073236.000,A,4714.2487,N,00131.4697,W,15.18,75.66,271218,,,A*7F
$GPGGA,073237.000,4714.2498,N,00131.4634,W,1,08,1.2,32.9,M,48.5,M,,0000*71
$GPGSA,A,3,03,01,23,09,11,17,31,22,,,,,2.1,1.2,1.7*3A
$GPRMC,073237.000,A,4714.2498,N,00131.4634,W,16.99,75.98,271218,,,A*72
$GPGGA,073238.000,4714.2511,N,00131.4564,W,1,08,1.2,32.6,M,48.5,M,,0000*77
$GPGSA,A,3,03,01,23,09,11,17,31,22,,,,,2.1,1.2,1.7*3A
$GPRMC,073238.000,A,4714.2511,N,00131.4564,W,17.89,74.49,271218,,,A*76
$GPGGA,073239.000,4714.2525,N,00131.4494,W,1,08,1.2,32.3,M,48.5,M,,0000*7A
$GPGSA,A,3,03,01,23,09,11,17,31,22,,,,,2.1,1.2,1.7*3A
$GPGSV,3,1,12,04,82,134,,03,79,027,49,22,58,066,45,01,51,118,43*73
$GPGSV,3,2,12,17,51,274,40,23,47,179,38,19,35,305,26,11,32,148,35*7C
$GPGSV,3,3,12,18,21,123,,09,19,198,27,31,16,068,44,29,14,169,*7F
$GPRMC,073239.000,A,4714.2525,N,00131.4494,W,17.62,74.28,271218,,,A*7C
$GPGGA,073240.000,4714.2539,N,00131.4423,W,1,07,1.4,32.0,M,48.5,M,,0000*7F
$GPGSA,A,3,03,01,23,09,17,31,22,,,,,,2.2,1.4,1.7*3F
$GPRMC,073240.000,A,4714.2539,N,00131.4423,W,18.43,74.59,271218,,,A*79
$GPGGA,073241.000,4714.2554,N,00131.4348,W,1,06,1.6,31.7,M,48.5,M,,0000*78
$GPGSA,A,3,03,01,23,17,31,22,,,,,,,2.7,1.6,2.2*37
$GPRMC,073241.000,A,4714.2554,N,00131.4348,W,19.50,74.59,271218,,,A*7A
$GPGGA,073242.000,4714.2569,N,00131.4269,W,1,07,1.4,31.3,M,48.5,M,,0000*70
$GPGSA,A,3,03,01,23,09,17,31,22,,,,,,2.2,1.4,1.7*3F
$GPRMC,073242.000,A,4714.2569,N,00131.4269,W,20.81,74.26,271218,,,A*7B
$GPGGA,073243.000,4714.2586,N,00131.4184,W,1,09,1.2,30.8,M,48.5,M,,0000*72
$GPGSA,A,3,03,01,23,09,18,17,31,22,11,,,,2.0,1.2,1.7*32
$GPRMC,073243.000,A,4714.2586,N,00131.4184,W,22.07,74.29,271218,,,A*78
$GPGGA,073244.000,4714.2605,N,00131.4094,W,1,09,1.2,30.4,M,48.5,M,,0000*71
$GPGSA,A,3,03,01,23,09,18,17,31,22,11,,,,2.0,1.2,1.7*32
$GPGSV,3,1,12,04,81,134,,03,78,028,49,22,58,066,45,01,51,119,43*7F
$GPGSV,3,2,12,17,51,273,40,23,47,179,39,19,36,305,25,11,31,149,38*75
$GPGSV,3,3,12,18,21,123,33,09,20,198,18,31,16,068,44,29,14,169,*79
$GPRMC,073244.000,A,4714.2605,N,00131.4094,W,23.19,73.45,271218,,,A*74
$GPGGA,073245.000,4714.2624,N,00131.4003,W,1,08,1.3,30.1,M,48.5,M,,0000*78
$GPGSA,A,3,03,01,23,09,18,17,31,22,,,,,2.1,1.3,1.7*32
$GPRMC,073245.000,A,4714.2624,N,00131.4003,W,23.33,72.80,271218,,,A*78
$GPGGA,073246.000,4714.2642,N,00131.3911,W,1,08,1.2,29.8,M,48.5,M,,0000*76
$GPGSA,A,3,03,01,23,09,17,31,22,11,,,,,2.1,1.2,1.7*3A
$GPRMC,073246.000,A,4714.2642,N,00131.3911,W,23.32,75.97,271218,,,A*76
$GPGGA,073247.000,4714.2659,N,00131.3819,W,1,08,1.2,29.5,M,48.5,M,,0000*79
$GPGSA,A,3,03,01,23,09,17,31,22,11,,,,,2.1,1.2,1.7*3A
$GPRMC,073247.000,A,4714.2659,N,00131.3819,W,22.98,75.12,271218,,,A*78
$GPGGA,073248.000,4714.2676,N,00131.3729,W,1,09,1.2,29.3,M,48.5,M,,0000*70
$GPGSA,A,3,03,01,23,09,18,17,31,22,11,,,,2.0,1.2,1.7*32
$GPRMC,073248.000,A,4714.2676,N,00131.3729,W,22.25,73.95,271218,,,A*79
$GPGGA,073249.000,4714.2693,N,00131.3644,W,1,09,1.2,29.1,M,48.5,M,,0000*72
$GPGSA,A,3,03,01,23,09,18,17,31,22,11,,,,2.0,1.2,1.7*32
$GPGSV,3,1,12,04,81,134,,03,78,028,49,22,58,066,45,01,51,119,44*78
$GPGSV,3,2,12,17,51,273,40,23,47,179,41,19,36,305,23,11,31,149,35*71
$GPGSV,3,3,12,18,21,123,38,09,20,198,30,31,16,068,44,29,14,169,*78
$GPRMC,073249.000,A,4714.2693,N,00131.3644,W,21.10,74.55,271218,,,A*77
$GPGGA,073250.000,4714.2710,N,00131.3564,W,1,09,1.2,28.8,M,48.5,M,,0000*79
$GPGSA,A,3,03,01,23,09,18,17,31,22,11,,,,2.0,1.2,1.7*32
$GPRMC,073250.000,A,4714.2710,N,00131.3564,W,19.67,72.22,271218,,,A*79
