20171026
Calibration du loch NKE suivant la procedure.
? Comment régler l'offset ?

$IIMTW,19.0,C*1B
$IIVWT,015.,L,01.0,N,00.5,M,001.9,K*69
$IIHDG,040.,,,,*7D
$IIHDM,040.,M*16
$IIGLL,4730.158,N,00221.940,W,135658,A,A*4E
$IIZDA,135658,26,10,2017,,*52
$IIVTG,038.,T,,M,01.9,N,03.5,K,A*2F
$IIDPT,0008.2,,*78
$IIDBT,0026.9,f,0008.2,M,,*7E
$IIVLW,0129.0,N,030.10,N*45
$IIVHW,,,040.,M,01.27,N,02.36,K*18
$IIMWV,353,R,02.3,N,A*17
$IIVWR,007.,L,02.3,N,01.2,M,004.3,K*65
$IIMWD,,,025.,M,01.0,N,00.5,M*0D
$IIMTW,19.1,C*1A
$IIVWT,015.,L,01.0,N,00.5,M,001.9,K*69
$IIHDG,040.,,,,*7D
$IIHDM,040.,M*16
$IIGLL,4730.158,N,00221.939,W,135658,A,A*40
$IIZDA,135658,26,10,2017,,*52
$IIVTG,037.,T,,M,01.8,N,03.3,K,A*27
$IIDPT,0008.3,,*79
$IIDBT,0027.2,f,0008.3,M,,*75
$IIVLW,0129.0,N,030.10,N*45
$IIVHW,,,040.,M,01.29,N,02.38,K*18
$IIMWV,354,R,02.3,N,A*10
$IIVWR,006.,L,02.3,N,01.2,M,004.3,K*64
$IIMWD,,,027.,M,01.0,N,00.5,M*0F
$IIMTW,19.1,C*1A
$IIVWT,013.,L,01.0,N,00.5,M,001.9,K*6F
$IIHDG,040.,,,,*7D
$IIHDM,040.,M*16
$IIGLL,4730.159,N,00221.938,W,135700,A,A*4C
$IIZDA,135700,26,10,2017,,*5E
$IIVTG,037.,T,,M,01.8,N,03.3,K,A*27
$IIDPT,0008.3,,*79
$IIDBT,0027.2,f,0008.3,M,,*75
$IIVLW,0129.0,N,030.10,N*45
$IIVHW,,,040.,M,01.29,N,02.39,K*19
$IIMWV,354,R,02.3,N,A*10
$IIVWR,006.,L,02.3,N,01.2,M,004.3,K*64
$IIMWD,,,027.,M,01.0,N,00.5,M*0F
$IIMTW,19.1,C*1A
$IIVWT,013.,L,01.0,N,00.5,M,001.9,K*6F
$IIHDG,041.,,,,*7C
$IIHDM,041.,M*17
$IIGLL,4730.159,N,00221.938,W,135700,A,A*4C
$IIZDA,135700,26,10,2017,,*5E
$IIVTG,039.,T,,M,01.8,N,03.3,K,A*29
$IIDPT,0008.4,,*7E
$IIDBT,0027.5,f,0008.4,M,,*75
$IIVLW,0129.0,N,030.10,N*45
$IIVHW,,,041.,M,01.30,N,02.41,K*1F
$IIMWV,354,R,02.3,N,A*10
$IIVWR,006.,L,02.3,N,01.2,M,004.3,K*64
$IIMWD,,,026.,M,01.0,N,00.5,M*0E
$IIMTW,19.1,C*1A
$IIVWT,014.,L,01.0,N,00.5,M,001.9,K*68
$IIHDG,041.,,,,*7C
$IIHDM,041.,M*17
$IIGLL,4730.160,N,00221.937,W,135702,A,A*4B
$IIZDA,135702,26,10,2017,,*5C
$IIVTG,039.,T,,M,01.8,N,03.3,K,A*29
$IIDPT,0008.4,,*7E
$IIDBT,0027.5,f,0008.4,M,,*75
$IIVLW,0129.0,N,030.10,N*45
$IIVHW,,,041.,M,01.31,N,02.43,K*1C
$IIMWV,354,R,02.3,N,A*10
$IIVWR,006.,L,02.3,N,01.2,M,004.3,K*64
$IIMWD,,,027.,M,01.0,N,00.5,M*0F
$IIMTW,19.1,C*1A
$IIVWT,012.,L,01.0,N,00.5,M,001.9,K*6E
$IIHDG,041.,,,,*7C
$IIHDM,041.,M*17
$IIGLL,4730.160,N,00221.937,W,135702,A,A*4B
$IIZDA,135702,26,10,2017,,*5C
$IIVTG,040.,T,,M,01.8,N,03.3,K,A*27
$IIDPT,0008.4,,*7E
$IIDBT,0027.5,f,0008.4,M,,*75
$IIVLW,0129.0,N,030.10,N*45
$IIVHW,,,041.,M,01.33,N,02.46,K*1B
$IIMWV,355,R,02.3,N,A*11
$IIVWR,005.,L,02.3,N,01.2,M,004.3,K*67
$IIMWD,,,029.,M,01.0,N,00.5,M*01
$IIMTW,19.1,C*1A
$IIVWT,012.,L,00.9,N,00.5,M,001.7,K*68
$IIHDG,041.,,,,*7C
$IIHDM,041.,M*17
$IIGLL,4730.161,N,00221.936,W,135704,A,A*4D
$IIZDA,135704,26,10,2017,,*5A
$IIVTG,040.,T,,M,01.8,N,03.3,K,A*27
$IIDPT,0008.4,,*7E
$IIDBT,0027.5,f,0008.4,M,,*75
$IIVLW,0129.0,N,030.10,N*45
$IIVHW,,,041.,M,01.32,N,02.45,K*19
$IIMWV,355,R,02.3,N,A*11
$IIVWR,005.,L,02.3,N,01.2,M,004.3,K*67
$IIMWD,,,029.,M,00.9,N,00.5,M*09
$IIMTW,19.1,C*1A
$IIVWT,012.,L,00.9,N,00.5,M,001.7,K*68
$IIHDG,041.,,,,*7C
$IIHDM,041.,M*17
$IIGLL,4730.161,N,00221.936,W,135704,A,A*4D
$IIZDA,135704,26,10,2017,,*5A
$IIVTG,036.,T,,M,01.8,N,03.3,K,A*26
$IIDPT,0008.4,,*7E
$IIDBT,0027.5,f,0008.4,M,,*75
$IIVLW,0129.0,N,030.10,N*45
$IIVHW,,,041.,M,01.32,N,02.45,K*19
$IIMWV,355,R,02.3,N,A*11
$IIVWR,005.,L,02.3,N,01.2,M,004.3,K*67
$IIMWD,,,029.,M,00.9,N,00.5,M*09
$IIMTW,19.1,C*1A
$IIVWT,012.,L,00.9,N,00.5,M,001.7,K*68
$IIHDG,041.,,,,*7C
$IIHDM,041.,M*17
$IIGLL,4730.162,N,00221.935,W,135706,A,A*4F
$IIZDA,135706,26,10,2017,,*58
$IIVTG,037.,T,,M,01.8,N,03.3,K,A*27
$IIDPT,0008.4,,*7E
$IIDBT,0027.5,f,0008.4,M,,*75
$IIVLW,0129.0,N,030.10,N*45
$IIVHW,,,041.,M,01.32,N,02.44,K*18
$IIMWV,355,R,02.3,N,A*11
$IIVWR,005.,L,02.3,N,01.2,M,004.3,K*67
$IIMWD,,,029.,M,01.0,N,00.5,M*01
$IIMTW,19.1,C*1A
$IIVWT,012.,L,01.0,N,00.5,M,001.9,K*6E
$IIHDG,041.,,,,*7C
$IIHDM,041.,M*17
$IIGLL,4730.162,N,00221.935,W,135708,A,A*41
$IIZDA,135708,26,10,2017,,*56
$IIVTG,037.,T,,M,01.8,N,03.3,K,A*27
$IIDPT,0008.4,,*7E
$IIDBT,0027.5,f,0008.4,M,,*75
$IIVLW,0129.0,N,030.10,N*45
$IIVHW,,,041.,M,01.31,N,02.43,K*1C
$IIMWV,356,R,02.3,N,A*12
$IIVWR,004.,L,02.3,N,01.2,M,004.3,K*66
$IIMWD,,,029.,M,01.0,N,00.5,M*01
$IIMTW,19.1,C*1A
$IIVWT,012.,L,01.0,N,00.5,M,001.9,K*6E
$IIHDG,041.,,,,*7C
$IIHDM,041.,M*17
$IIGLL,4730.162,N,00221.934,W,135708,A,A*40
$IIZDA,135708,26,10,2017,,*56
$IIVTG,037.,T,,M,01.8,N,03.3,K,A*27
$IIDPT,0008.4,,*7E
$IIDBT,0027.5,f,0008.4,M,,*75
$IIVLW,0129.0,N,030.10,N*45
$IIVHW,,,041.,M,01.31,N,02.42,K*1D
$IIMWV,356,R,02.3,N,A*12
$IIVWR,004.,L,02.3,N,01.2,M,004.3,K*66
$IIMWD,,,032.,M,01.0,N,00.5,M*0B
$IIMTW,19.1,C*1A
$IIVWT,009.,L,01.0,N,00.5,M,001.9,K*64
$IIHDG,041.,,,,*7C
$IIHDM,041.,M*17
$IIGLL,4730.162,N,00221.934,W,135710,A,A*49
$IIZDA,135710,26,10,2017,,*5F
$IIVTG,037.,T,,M,01.8,N,03.3,K,A*27
$IIDPT,0008.4,,*7E
$IIDBT,0027.5,f,0008.4,M,,*75
$IIVLW,0129.0,N,030.10,N*45
$IIVHW,,,041.,M,01.31,N,02.43,K*1C
$IIMWV,356,R,02.3,N,A*12
$IIVWR,004.,L,02.3,N,01.2,M,004.3,K*66
$IIMWD,,,032.,M,01.0,N,00.5,M*0B
$IIMTW,19.1,C*1A
$IIVWT,009.,L,01.0,N,00.5,M,001.9,K*64
$IIHDG,041.,,,,*7C
$IIHDM,041.,M*17
$IIGLL,4730.163,N,00221.934,W,135710,A,A*48
$IIZDA,135710,26,10,2017,,*5F
$IIVTG,036.,T,,M,01.8,N,03.3,K,A*26
$IIDPT,0008.4,,*7E
$IIDBT,0027.5,f,0008.4,M,,*75
$IIVLW,0129.0,N,030.10,N*45
$IIVHW,,,041.,M,01.32,N,02.44,K*18
$IIMWV,356,R,02.3,N,A*12
$IIVWR,004.,L,02.3,N,01.2,M,004.3,K*66
$IIMWD,,,032.,M,00.9,N,00.5,M*03
$IIMTW,19.1,C*1A
$IIVWT,009.,L,00.9,N,00.5,M,001.7,K*62
$IIHDG,041.,,,,*7C
$IIHDM,041.,M*17
$IIGLL,4730.164,N,00221.933,W,135712,A,A*4A
$IIZDA,135712,26,10,2017,,*5D
$IIVTG,036.,T,,M,01.8,N,03.3,K,A*26
$IIDPT,0008.4,,*7E
$IIDBT,0027.5,f,0008.4,M,,*75
$IIVLW,0129.0,N,030.10,N*45
$IIVHW,,,041.,M,01.32,N,02.44,K*18
$IIMWV,356,R,02.3,N,A*12
$IIVWR,004.,L,02.3,N,01.2,M,004.3,K*66
$IIMWD,,,032.,M,00.9,N,00.5,M*03
$IIMTW,19.0,C*1B
$IIVWT,009.,L,00.9,N,00.5,M,001.7,K*62
$IIHDG,041.,,,,*7C
$IIHDM,041.,M*17
$IIGLL,4730.164,N,00221.933,W,135712,A,A*4A
$IIZDA,135712,26,10,2017,,*5D
$IIVTG,037.,T,,M,01.8,N,03.3,K,A*27
$IIDPT,0008.4,,*7E
$IIDBT,0027.5,f,0008.4,M,,*75
$IIVLW,0129.0,N,030.10,N*45
$IIVHW,,,041.,M,01.31,N,02.43,K*1C
$IIMWV,356,R,02.3,N,A*12
$IIVWR,004.,L,02.3,N,01.2,M,004.3,K*66
$IIMWD,,,032.,M,00.9,N,00.5,M*03
$IIMTW,19.0,C*1B
$IIVWT,009.,L,00.9,N,00.5,M,001.7,K*62
$IIHDG,041.,,,,*7C
$IIHDM,041.,M*17
$IIGLL,4730.165,N,00221.932,W,135714,A,A*4C
$IIZDA,135714,26,10,2017,,*5B
$IIVTG,037.,T,,M,01.8,N,03.3,K,A*27
$IIDPT,0008.4,,*7E
$IIDBT,0027.5,f,0008.4,M,,*75
$IIVLW,0129.0,N,030.10,N*45
$IIVHW,,,041.,M,01.31,N,02.43,K*1C
$IIMWV,355,R,02.3,N,A*11
$IIVWR,005.,L,02.3,N,01.2,M,004.3,K*67
$IIMWD,,,032.,M,00.9,N,00.5,M*03
$IIMTW,19.1,C*1A
$IIVWT,009.,L,01.0,N,00.5,M,001.9,K*64
$IIHDG,041.,,,,*7C
$IIHDM,041.,M*17
$IIGLL,4730.165,N,00221.932,W,135714,A,A*4C
$IIZDA,135714,26,10,2017,,*5B
$IIVTG,037.,T,,M,01.8,N,03.3,K,A*27
$IIDPT,0008.5,,*7F
$IIDBT,0027.9,f,0008.5,M,,*78
$IIVLW,0129.0,N,030.10,N*45
$IIVHW,,,041.,M,01.32,N,02.44,K*18
$IIMWV,355,R,02.3,N,A*11
$IIVWR,005.,L,02.3,N,01.2,M,004.3,K*67
$IIMWD,,,029.,M,01.0,N,00.5,M*01
$IIMTW,19.1,C*1A
$IIVWT,012.,L,01.0,N,00.5,M,001.9,K*6E
$IIHDG,041.,,,,*7C
$IIHDM,041.,M*17
$IIGLL,4730.166,N,00221.931,W,135716,A,A*4E
$IIZDA,135716,26,10,2017,,*59
$IIVTG,038.,T,,M,01.8,N,03.3,K,A*28
$IIDPT,0008.5,,*7F
$IIDBT,0028.2,f,0008.6,M,,*7F
$IIVLW,0129.0,N,030.10,N*45
$IIVHW,,,041.,M,01.32,N,02.44,K*18
$IIMWV,355,R,02.3,N,A*11
$IIVWR,005.,L,02.3,N,01.2,M,004.3,K*67
$IIMWD,,,029.,M,01.0,N,00.5,M*01
$IIMTW,19.1,C*1A
$IIVWT,012.,L,01.0,N,00.5,M,001.9,K*6E
$IIHDG,041.,,,,*7C
$IIHDM,041.,M*17
$IIGLL,4730.166,N,00221.931,W,135718,A,A*40
$IIZDA,135718,26,10,2017,,*57
$IIVTG,038.,T,,M,01.8,N,03.3,K,A*28
$IIDPT,0008.6,,*7C
$IIDBT,0028.2,f,0008.6,M,,*7F
$IIVLW,0129.0,N,030.10,N*45
$IIVHW,,,041.,M,01.32,N,02.45,K*19
$IIMWV,355,R,02.3,N,A*11
$IIVWR,005.,L,02.3,N,01.2,M,004.3,K*67
$IIMWD,,,029.,M,00.9,N,00.5,M*09
$IIMTW,19.1,C*1A
$IIVWT,012.,L,00.9,N,00.5,M,001.7,K*68
$IIHDG,041.,,,,*7C
$IIHDM,041.,M*17
$IIGLL,4730.166,N,00221.930,W,135718,A,A*41
$IIZDA,135718,26,10,2017,,*57
$IIVTG,037.,T,,M,01.9,N,03.5,K,A*20
$IIDPT,0008.6,,*7C
$IIDBT,0028.2,f,0008.6,M,,*7F
$IIVLW,0129.0,N,030.10,N*45
$IIVHW,,,041.,M,01.32,N,02.44,K*18
$IIMWV,355,R,02.3,N,A*11
$IIVWR,005.,L,02.3,N,01.2,M,004.3,K*67
$IIMWD,,,029.,M,01.0,N,00.5,M*01
$IIMTW,19.1,C*1A
$IIVWT,012.,L,01.0,N,00.5,M,001.9,K*6E
$IIHDG,041.,,,,*7C
$IIHDM,041.,M*17
$IIGLL,4730.166,N,00221.930,W,135720,A,A*4A
$IIZDA,135720,26,10,2017,,*5C
$IIVTG,037.,T,,M,01.9,N,03.5,K,A*20
$IIDPT,0008.6,,*7C
$IIDBT,0028.2,f,0008.6,M,,*7F
$IIVLW,0129.0,N,030.10,N*45
$IIVHW,,,041.,M,01.31,N,02.43,K*1C
$IIMWV,355,R,02.3,N,A*11
$IIVWR,005.,L,02.3,N,01.2,M,004.3,K*67
$IIMWD,,,029.,M,01.0,N,00.5,M*01
$IIMTW,19.1,C*1A
$IIVWT,012.,L,01.0,N,00.5,M,001.9,K*6E
$IIHDG,041.,,,,*7C
$IIHDM,041.,M*17
$IIGLL,4730.167,N,00221.929,W,135720,A,A*43
$IIZDA,135720,26,10,2017,,*5C
$IIVTG,039.,T,,M,01.8,N,03.3,K,A*29
$IIDPT,0008.6,,*7C
$IIDBT,0028.2,f,0008.6,M,,*7F
$IIVLW,0129.0,N,030.10,N*45
$IIVHW,,,041.,M,01.30,N,02.41,K*1F
$IIMWV,355,R,02.3,N,A*11
$IIVWR,005.,L,02.3,N,01.2,M,004.3,K*67
$IIMWD,,,029.,M,01.0,N,00.5,M*01
$IIMTW,19.0,C*1B
$IIVWT,012.,L,01.0,N,00.5,M,001.9,K*6E
$IIHDG,041.,,,,*7C
$IIHDM,041.,M*17
$IIGLL,4730.167,N,00221.929,W,135722,A,A*41
$IIZDA,135722,26,10,2017,,*5E
$IIVTG,039.,T,,M,01.8,N,03.3,K,A*29
$IIDPT,0008.6,,*7C
$IIDBT,0028.2,f,0008.6,M,,*7F
$IIVLW,0129.0,N,030.10,N*45
$IIVHW,,,041.,M,01.31,N,02.42,K*1D
$IIMWV,355,R,02.3,N,A*11
$IIVWR,005.,L,02.3,N,01.2,M,004.3,K*67
$IIMWD,,,030.,M,01.0,N,00.5,M*09
$IIMTW,19.1,C*1A
$IIVWT,011.,L,01.0,N,00.5,M,001.9,K*6D
$IIHDG,041.,,,,*7C
$IIHDM,041.,M*17
$IIGLL,4730.168,N,00221.928,W,135722,A,A*4F
$IIZDA,135722,26,10,2017,,*5E
$IIVTG,038.,T,,M,01.8,N,03.3,K,A*28
$IIDPT,0008.6,,*7C
$IIDBT,0028.2,f,0008.6,M,,*7F
$IIVLW,0129.0,N,030.11,N*44
$IIVHW,,,041.,M,01.31,N,02.43,K*1C
$IIMWV,355,R,02.3,N,A*11
$IIVWR,005.,L,02.3,N,01.2,M,004.3,K*67
$IIMWD,,,029.,M,01.0,N,00.5,M*01
$IIMTW,19.0,C*1B
$IIVWT,012.,L,01.0,N,00.5,M,001.9,K*6E
$IIHDG,041.,,,,*7C
$IIHDM,041.,M*17
$IIGLL,4730.169,N,00221.927,W,135724,A,A*47
$IIZDA,135724,26,10,2017,,*58
$IIVTG,038.,T,,M,01.8,N,03.3,K,A*28
$IIDPT,0008.6,,*7C
$IIDBT,0028.2,f,0008.6,M,,*7F
$IIVLW,0129.0,N,030.11,N*44
$IIVHW,,,041.,M,01.31,N,02.42,K*1D
$IIMWV,355,R,02.3,N,A*11
$IIVWR,005.,L,02.3,N,01.2,M,004.3,K*67
$IIMWD,,,030.,M,01.0,N,00.5,M*09
$IIMTW,19.0,C*1B
$IIVWT,011.,L,01.0,N,00.5,M,001.9,K*6D
$IIHDG,041.,,,,*7C
$IIHDM,041.,M*17
$IIGLL,4730.169,N,00221.927,W,135724,A,A*47
$IIZDA,135724,26,10,2017,,*58
$IIVTG,039.,T,,M,01.8,N,03.3,K,A*29
$IIDPT,0008.6,,*7C
$IIDBT,0028.2,f,0008.6,M,,*7F
$IIVLW,0129.0,N,030.11,N*44
$IIVHW,,,041.,M,01.32,N,02.44,K*18
$IIMWV,355,R,02.3,N,A*11
$IIVWR,005.,L,02.3,N,01.2,M,004.3,K*67
$IIMWD,,,029.,M,01.0,N,00.5,M*01
$IIMTW,19.0,C*1B
$IIVWT,011.,L,01.0,N,00.5,M,001.9,K*6D
$IIHDG,041.,,,,*7C
$IIHDM,041.,M*17
$IIGLL,4730.170,N,00221.926,W,135726,A,A*4C
$IIZDA,135726,26,10,2017,,*5A
$IIVTG,039.,T,,M,01.8,N,03.3,K,A*29
$IIDPT,0008.3,,*79
$IIDBT,0027.2,f,0008.3,M,,*75
$IIVLW,0129.0,N,030.11,N*44
$IIVHW,,,041.,M,01.32,N,02.44,K*18
$IIMWV,355,R,02.3,N,A*11
$IIVWR,005.,L,02.3,N,01.2,M,004.3,K*67
$IIMWD,,,029.,M,01.0,N,00.5,M*01
$IIMTW,19.1,C*1A
$IIVWT,012.,L,01.0,N,00.5,M,001.9,K*6E
$IIHDG,041.,,,,*7C
$IIHDM,041.,M*17
$IIGLL,4730.170,N,00221.926,W,135726,A,A*4C
$IIZDA,135726,26,10,2017,,*5A
$IIVTG,038.,T,,M,01.8,N,03.3,K,A*28
$IIDPT,0008.6,,*7C
$IIDBT,0028.2,f,0008.6,M,,*7F
$IIVLW,0129.0,N,030.11,N*44
$IIVHW,,,041.,M,01.32,N,02.44,K*18
$IIMWV,355,R,02.3,N,A*11
$IIVWR,005.,L,02.3,N,01.2,M,004.3,K*67
$IIMWD,,,029.,M,01.0,N,00.5,M*01
$IIMTW,19.0,C*1B
$IIVWT,012.,L,01.0,N,00.5,M,001.9,K*6E
$IIHDG,041.,,,,*7C
$IIHDM,041.,M*17
$IIGLL,4730.170,N,00221.926,W,135728,A,A*42
$IIZDA,135728,26,10,2017,,*54
$IIVTG,038.,T,,M,01.7,N,03.2,K,A*26
$IIDPT,0008.6,,*7C
$IIDBT,0028.2,f,0008.6,M,,*7F
$IIVLW,0129.0,N,030.11,N*44
$IIVHW,,,041.,M,01.33,N,02.47,K*1A
$IIMWV,355,R,02.3,N,A*11
$IIVWR,005.,L,02.3,N,01.2,M,004.3,K*67
$IIMWD,,,029.,M,00.9,N,00.5,M*09
$IIMTW,19.0,C*1B
$IIVWT,012.,L,00.9,N,00.5,M,001.7,K*68
$IIHDG,041.,,,,*7C
$IIHDM,041.,M*17
$IIGLL,4730.170,N,00221.925,W,135730,A,A*48
$IIZDA,135730,26,10,2017,,*5D
$IIVTG,038.,T,,M,01.7,N,03.2,K,A*26
$IIDPT,0008.7,,*7D
$IIDBT,0028.5,f,0008.7,M,,*79
$IIVLW,0129.0,N,030.11,N*44
$IIVHW,,,041.,M,01.35,N,02.50,K*1A
$IIMWV,355,R,02.3,N,A*11
$IIVWR,005.,L,02.3,N,01.2,M,004.3,K*67
$IIMWD,,,029.,M,00.9,N,00.5,M*09
$IIMTW,19.1,C*1A
$IIVWT,012.,L,00.9,N,00.5,M,001.7,K*68
$IIHDG,041.,,,,*7C
$IIHDM,041.,M*17
$IIGLL,4730.171,N,00221.925,W,135730,A,A*49
$IIZDA,135730,26,10,2017,,*5D
$IIVTG,036.,T,,M,01.8,N,03.3,K,A*26
$IIDPT,0008.8,,*72
$IIDBT,0028.8,f,0008.8,M,,*7B
$IIVLW,0129.0,N,030.11,N*44
$IIVHW,,,041.,M,01.36,N,02.51,K*18
$IIMWV,355,R,02.3,N,A*11
$IIVWR,005.,L,02.3,N,01.2,M,004.3,K*67
$IIMWD,,,029.,M,00.9,N,00.5,M*09
$IIMTW,19.1,C*1A
$IIVWT,012.,L,00.9,N,00.5,M,001.7,K*68
$IIHDG,041.,,,,*7C
$IIHDM,041.,M*17
$IIGLL,4730.172,N,00221.924,W,135732,A,A*49
$IIZDA,135732,26,10,2017,,*5F
$IIVTG,036.,T,,M,01.8,N,03.3,K,A*26
$IIDPT,0008.8,,*72
$IIDBT,0028.8,f,0008.8,M,,*7B
$IIVLW,0129.0,N,030.11,N*44
$IIVHW,,,041.,M,01.35,N,02.50,K*1A
$IIMWV,355,R,02.3,N,A*11
$IIVWR,005.,L,02.3,N,01.2,M,004.3,K*67
$IIMWD,,,029.,M,00.9,N,00.5,M*09
$IIMTW,19.0,C*1B
$IIVWT,012.,L,00.9,N,00.5,M,001.7,K*68
$IIHDG,041.,,,,*7C
$IIHDM,041.,M*17
$IIGLL,4730.172,N,00221.924,W,135732,A,A*49
$IIZDA,135732,26,10,2017,,*5F
$IIVTG,039.,T,,M,01.8,N,03.3,K,A*29
$IIDPT,0008.8,,*72
$IIDBT,0028.8,f,0008.8,M,,*7B
$IIVLW,0129.0,N,030.11,N*44
$IIVHW,,,041.,M,01.36,N,02.52,K*1B
$IIMWV,354,R,02.3,N,A*10
$IIVWR,006.,L,02.3,N,01.2,M,004.3,K*64
$IIMWD,,,027.,M,00.9,N,00.5,M*07
$IIMTW,19.1,C*1A
$IIVWT,014.,L,00.9,N,00.5,M,001.7,K*6E
$IIHDG,041.,,,,*7C
$IIHDM,041.,M*17
$IIGLL,4730.172,N,00221.924,W,135734,A,A*4F
$IIZDA,135734,26,10,2017,,*59
$IIVTG,039.,T,,M,01.8,N,03.3,K,A*29
$IIDPT,0008.8,,*72
$IIDBT,0028.8,f,0008.8,M,,*7B
$IIVLW,0129.0,N,030.11,N*44
$IIVHW,,,041.,M,01.36,N,02.51,K*18
$IIMWV,354,R,02.3,N,A*10
$IIVWR,006.,L,02.3,N,01.2,M,004.3,K*64
$IIMWD,,,026.,M,00.9,N,00.5,M*06
$IIMTW,19.0,C*1B
$IIVWT,015.,L,00.9,N,00.5,M,001.7,K*6F
$IIHDG,041.,,,,*7C
$IIHDM,041.,M*17
$IIGLL,4730.173,N,00221.923,W,135734,A,A*49
$IIZDA,135734,26,10,2017,,*59
$IIVTG,040.,T,,M,01.7,N,03.2,K,A*29
$IIDPT,0008.8,,*72
$IIDBT,0028.8,f,0008.8,M,,*7B
$IIVLW,0129.0,N,030.11,N*44
$IIVHW,,,042.,M,01.34,N,02.48,K*11
$IIMWV,354,R,02.3,N,A*10
$IIVWR,006.,L,02.3,N,01.2,M,004.3,K*64
$IIMWD,,,027.,M,00.9,N,00.5,M*07
$IIMTW,19.1,C*1A
$IIVWT,014.,L,00.9,N,00.5,M,001.7,K*6E
$IIHDG,042.,,,,*7F
$IIHDM,042.,M*14
$IIGLL,4730.173,N,00221.922,W,135736,A,A*4A
$IIZDA,135736,26,10,2017,,*5B
$IIVTG,041.,T,,M,01.7,N,03.2,K,A*28
$IIDPT,0008.8,,*72
$IIDBT,0028.8,f,0008.8,M,,*7B
$IIVLW,0129.0,N,030.11,N*44
$IIVHW,,,042.,M,01.33,N,02.46,K*18
$IIMWV,354,R,02.3,N,A*10
$IIVWR,006.,L,02.3,N,01.2,M,004.3,K*64
$IIMWD,,,028.,M,00.9,N,00.5,M*08
$IIMTW,19.1,C*1A
$IIVWT,014.,L,00.9,N,00.5,M,001.7,K*6E
$IIHDG,042.,,,,*7F
$IIHDM,042.,M*14
$IIGLL,4730.173,N,00221.922,W,135736,A,A*4A
$IIZDA,135736,26,10,2017,,*5B
$IIVTG,041.,T,,M,01.7,N,03.2,K,A*28
$IIDPT,0008.8,,*72
$IIDBT,0028.8,f,0008.8,M,,*7B
$IIVLW,0129.0,N,030.11,N*44
$IIVHW,,,042.,M,01.33,N,02.47,K*19
$IIMWV,354,R,02.3,N,A*10
$IIVWR,006.,L,02.3,N,01.2,M,004.3,K*64
$IIMWD,,,028.,M,00.9,N,00.5,M*08
$IIMTW,19.1,C*1A
$IIVWT,014.,L,00.9,N,00.5,M,001.7,K*6E
$IIHDG,042.,,,,*7F
$IIHDM,042.,M*14
$IIGLL,4730.174,N,00221.921,W,135738,A,A*40
$IIZDA,135738,26,10,2017,,*55
$IIVTG,041.,T,,M,01.8,N,03.3,K,A*26
$IIDPT,0008.8,,*72
$IIDBT,0028.8,f,0008.8,M,,*7B
$IIVLW,0129.0,N,030.11,N*44
$IIVHW,,,042.,M,01.34,N,02.49,K*10
$IIMWV,354,R,02.3,N,A*10
$IIVWR,006.,L,02.3,N,01.2,M,004.3,K*64
$IIMWD,,,028.,M,00.9,N,00.5,M*08
$IIMTW,19.0,C*1B
$IIVWT,014.,L,00.9,N,00.5,M,001.7,K*6E
$IIHDG,042.,,,,*7F
$IIHDM,042.,M*14
$IIGLL,4730.174,N,00221.921,W,135738,A,A*40
$IIZDA,135738,26,10,2017,,*55
$IIVTG,038.,T,,M,01.8,N,03.3,K,A*28
$IIDPT,0008.8,,*72
$IIDBT,0028.8,f,0008.8,M,,*7B
$IIVLW,0129.0,N,030.11,N*44
$IIVHW,,,042.,M,01.32,N,02.45,K*1A
$IIMWV,355,R,02.3,N,A*11
$IIVWR,005.,L,02.3,N,01.2,M,004.3,K*67
$IIMWD,,,028.,M,00.9,N,00.5,M*08
$IIMTW,19.0,C*1B
$IIVWT,012.,L,00.9,N,00.5,M,001.7,K*68
$IIHDG,042.,,,,*7F
$IIHDM,042.,M*14
$IIGLL,4730.174,N,00221.921,W,135740,A,A*4F
$IIZDA,135740,26,10,2017,,*5A
$IIVTG,041.,T,,M,01.8,N,03.3,K,A*26
$IIDPT,0008.8,,*72
$IIDBT,0028.8,f,0008.8,M,,*7B
$IIVLW,0129.0,N,030.11,N*44
$IIVHW,,,042.,M,01.32,N,02.45,K*1A
$IIMWV,355,R,02.3,N,A*11
$IIVWR,005.,L,02.3,N,01.2,M,004.3,K*67
$IIMWD,,,030.,M,00.9,N,00.5,M*01
$IIMTW,18.9,C*13
$IIVWT,012.,L,00.9,N,00.5,M,001.7,K*68
$IIHDG,042.,,,,*7F
$IIHDM,042.,M*14
$IIGLL,4730.175,N,00221.920,W,135742,A,A*4D
$IIZDA,135742,26,10,2017,,*58
$IIVTG,041.,T,,M,01.8,N,03.3,K,A*26
$IIDPT,0008.8,,*72
$IIDBT,0028.8,f,0008.8,M,,*7B
$IIVLW,0129.0,N,030.11,N*44
$IIVHW,,,042.,M,01.32,N,02.45,K*1A
$IIMWV,354,R,02.3,N,A*10
$IIVWR,006.,L,02.3,N,01.2,M,004.3,K*64
$IIMWD,,,028.,M,00.9,N,00.5,M*08
$IIMTW,19.0,C*1B
$IIVWT,014.,L,00.9,N,00.5,M,001.7,K*6E
$IIHDG,042.,,,,*7F
$IIHDM,042.,M*14
$IIGLL,4730.176,N,00221.919,W,135742,A,A*44
$IIZDA,135742,26,10,2017,,*58
$IIVTG,039.,T,,M,01.8,N,03.3,K,A*29
$IIDPT,0008.9,,*73
$IIDBT,0029.2,f,0008.9,M,,*71
$IIVLW,0129.0,N,030.11,N*44
$IIVHW,,,042.,M,01.33,N,02.47,K*19
$IIMWV,355,R,02.3,N,A*11
$IIVWR,005.,L,02.3,N,01.2,M,004.3,K*67
$IIMWD,,,030.,M,00.9,N,00.5,M*01
$IIMTW,19.0,C*1B
$IIVWT,012.,L,00.9,N,00.5,M,001.7,K*68
$IIHDG,042.,,,,*7F
$IIHDM,042.,M*14
$IIGLL,4730.176,N,00221.918,W,135744,A,A*43
$IIZDA,135744,26,10,2017,,*5E
$IIVTG,039.,T,,M,01.8,N,03.3,K,A*29
$IIDPT,0008.9,,*73
$IIDBT,0029.2,f,0008.9,M,,*71
$IIVLW,0129.0,N,030.11,N*44
$IIVHW,,,042.,M,01.34,N,02.48,K*11
$IIMWV,356,R,02.3,N,A*12
$IIVWR,004.,L,02.3,N,01.2,M,004.3,K*66
$IIMWD,,,030.,M,00.9,N,00.5,M*01
$IIMTW,19.0,C*1B
$IIVWT,012.,L,00.9,N,00.5,M,001.7,K*68
$IIHDG,042.,,,,*7F
$IIHDM,042.,M*14
$IIGLL,4730.176,N,00221.918,W,135744,A,A*43
$IIZDA,135744,26,10,2017,,*5E
$IIVTG,040.,T,,M,01.8,N,03.3,K,A*27
$IIDPT,0008.9,,*73
$IIDBT,0029.2,f,0008.9,M,,*71
$IIVLW,0129.0,N,030.11,N*44
$IIVHW,,,042.,M,01.34,N,02.49,K*10
$IIMWV,355,R,02.3,N,A*11
$IIVWR,005.,L,02.3,N,01.2,M,004.3,K*67
$IIMWD,,,032.,M,00.9,N,00.5,M*03
$IIMTW,18.9,C*13
$IIVWT,010.,L,00.9,N,00.5,M,001.7,K*6A
$IIHDG,042.,,,,*7F
$IIHDM,042.,M*14
$IIGLL,4730.176,N,00221.918,W,135746,A,A*41
$IIZDA,135746,26,10,2017,,*5C
$IIVTG,040.,T,,M,01.8,N,03.3,K,A*27
$IIDPT,0008.9,,*73
$IIDBT,0029.2,f,0008.9,M,,*71
$IIVLW,0129.0,N,030.11,N*44
$IIVHW,,,042.,M,01.33,N,02.46,K*18
$IIMWV,354,R,02.3,N,A*10
$IIVWR,006.,L,02.3,N,01.2,M,004.3,K*64
$IIMWD,,,030.,M,00.9,N,00.5,M*01
$IIMTW,18.9,C*13
$IIVWT,012.,L,00.9,N,00.5,M,001.7,K*68
$IIHDG,042.,,,,*7F
$IIHDM,042.,M*14
$IIGLL,4730.177,N,00221.917,W,135746,A,A*4F
$IIZDA,135746,26,10,2017,,*5C
$IIVTG,037.,T,,M,01.7,N,03.2,K,A*29
$IIDPT,0008.9,,*73
$IIDBT,0029.2,f,0008.9,M,,*71
$IIVLW,0129.0,N,030.11,N*44
$IIVHW,,,042.,M,01.31,N,02.42,K*1E
$IIMWV,355,R,02.3,N,A*11
$IIVWR,005.,L,02.3,N,01.2,M,004.3,K*67
$IIMWD,,,028.,M,00.9,N,00.5,M*08
$IIMTW,18.9,C*13
$IIVWT,014.,L,00.9,N,00.5,M,001.7,K*6E
$IIHDG,042.,,,,*7F
$IIHDM,042.,M*14
$IIGLL,4730.178,N,00221.916,W,135748,A,A*4F
$IIZDA,135748,26,10,2017,,*52
$IIVTG,042.,T,,M,01.7,N,03.2,K,A*2B
$IIDPT,0009.0,,*7B
$IIDBT,0029.5,f,0009.0,M,,*7E
$IIVLW,0129.0,N,030.11,N*44
$IIVHW,,,042.,M,01.31,N,02.42,K*1E
$IIMWV,356,R,02.3,N,A*12
$IIVWR,004.,L,02.3,N,01.2,M,004.3,K*66
$IIMWD,,,031.,M,01.0,N,00.5,M*08
$IIMTW,18.9,C*13
$IIVWT,009.,L,01.0,N,00.5,M,001.9,K*64
$IIHDG,042.,,,,*7F
$IIHDM,042.,M*14
$IIGLL,4730.178,N,00221.916,W,135748,A,A*4F
$IIZDA,135748,26,10,2017,,*52
$IIVTG,042.,T,,M,01.7,N,03.2,K,A*2B
$IIDPT,0009.0,,*7B
$IIDBT,0029.5,f,0009.0,M,,*7E
$IIVLW,0129.0,N,030.11,N*44
$IIVHW,,,042.,M,01.31,N,02.43,K*1F
$IIMWV,355,R,02.3,N,A*11
$IIVWR,005.,L,02.3,N,01.2,M,004.3,K*67
$IIMWD,,,030.,M,01.0,N,00.5,M*09
$IIMTW,18.9,C*13
$IIVWT,012.,L,01.0,N,00.5,M,001.9,K*6E
$IIHDG,042.,,,,*7F
$IIHDM,042.,M*14
$IIGLL,4730.179,N,00221.915,W,135750,A,A*44
$IIZDA,135750,26,10,2017,,*5B
$IIVTG,042.,T,,M,01.9,N,03.5,K,A*22
$IIDPT,0009.0,,*7B
$IIDBT,0029.5,f,0009.0,M,,*7E
$IIVLW,0129.0,N,030.12,N*47
$IIVHW,,,042.,M,01.33,N,02.47,K*19
$IIMWV,355,R,02.3,N,A*11
$IIVWR,005.,L,02.3,N,01.2,M,004.3,K*67
$IIMWD,,,030.,M,00.9,N,00.5,M*01
$IIMTW,19.0,C*1B
$IIVWT,012.,L,00.9,N,00.5,M,001.7,K*68
$IIHDG,042.,,,,*7F
$IIHDM,042.,M*14
$IIGLL,4730.179,N,00221.915,W,135752,A,A*46
$IIZDA,135752,26,10,2017,,*59
$IIVTG,038.,T,,M,01.9,N,03.5,K,A*2F
$IIDPT,0009.0,,*7B
$IIDBT,0029.5,f,0009.0,M,,*7E
$IIVLW,0129.0,N,030.12,N*47
$IIVHW,,,041.,M,01.37,N,02.53,K*1B
$IIMWV,356,R,02.3,N,A*12
$IIVWR,004.,L,02.3,N,01.2,M,004.3,K*66
$IIMWD,,,032.,M,00.9,N,00.5,M*03
$IIMTW,19.0,C*1B
$IIVWT,010.,L,00.9,N,00.5,M,001.7,K*6A
$IIHDG,041.,,,,*7C
$IIHDM,041.,M*17
$IIGLL,4730.179,N,00221.914,W,135752,A,A*47
$IIZDA,135752,26,10,2017,,*59
$IIVTG,039.,T,,M,01.9,N,03.5,K,A*2E
$IIDPT,0009.0,,*7B
$IIDBT,0029.5,f,0009.0,M,,*7E
$IIVLW,0129.0,N,030.12,N*47
$IIVHW,,,042.,M,01.39,N,02.57,K*12
$IIMWV,356,R,02.3,N,A*12
$IIVWR,004.,L,02.3,N,01.2,M,004.3,K*66
$IIMTW,19.0,C*1B
$IIVWT,010.,L,00.9,N,00.5,M,001.7,K*6A
$IIHDG,042.,,,,*7F
$IIHDM,042.,M*14
$IIGLL,4730.179,N,00221.914,W,135754,A,A*41
$IIZDA,135754,26,10,2017,,*5F
$IIVTG,039.,T,,M,01.9,N,03.5,K,A*2E
$IIDPT,0009.0,,*7B
$IIDBT,0029.5,f,0009.0,M,,*7E
$IIVLW,0129.0,N,030.12,N*47
$IIVHW,,,042.,M,01.43,N,02.64,K*1F
$IIMWV,355,R,02.3,N,A*11
$IIVWR,005.,L,02.3,N,01.2,M,004.3,K*67
$IIMWD,,,029.,M,00.8,N,00.4,M*09
$IIMTW,19.0,C*1B
$IIVWT,013.,L,00.8,N,00.4,M,001.5,K*6B
$IIHDG,042.,,,,*7F
$IIHDM,042.,M*14
$IIGLL,4730.180,N,00221.913,W,135754,A,A*40
$IIZDA,135754,26,10,2017,,*5F
$IIVTG,037.,T,,M,02.1,N,03.9,K,A*27
$IIDPT,0009.0,,*7B
$IIDBT,0029.5,f,0009.0,M,,*7E
$IIVLW,0129.0,N,030.12,N*47
$IIVHW,,,042.,M,01.50,N,02.78,K*10
$IIMWV,356,R,02.4,N,A*15
$IIVWR,004.,L,02.4,N,01.2,M,004.4,K*66
$IIMWD,,,032.,M,00.9,N,00.5,M*03
$IIMTW,19.0,C*1B
$IIVWT,010.,L,00.9,N,00.5,M,001.7,K*6A
$IIHDG,042.,,,,*7F
$IIHDM,042.,M*14
$IIGLL,4730.180,N,00221.913,W,135756,A,A*42
$IIZDA,135756,26,10,2017,,*5D
$IIVTG,037.,T,,M,02.1,N,03.9,K,A*27
$IIDPT,0009.0,,*7B
$IIDBT,0029.5,f,0009.0,M,,*7E
$IIVLW,0129.0,N,030.12,N*47
$IIVHW,,,042.,M,01.54,N,02.86,K*15
$IIMWV,356,R,02.4,N,A*15
$IIVWR,004.,L,02.4,N,01.2,M,004.4,K*66
$IIMTW,19.0,C*1B
$IIVWT,011.,L,00.9,N,00.5,M,001.7,K*6B
$IIHDG,042.,,,,*7F
$IIHDM,042.,M*14
$IIGLL,4730.181,N,00221.912,W,135756,A,A*42
$IIZDA,135756,26,10,2017,,*5D
$IIVTG,040.,T,,M,02.2,N,04.1,K,A*2B
$IIDPT,0009.0,,*7B
$IIDBT,0029.5,f,0009.0,M,,*7E
$IIVLW,0129.0,N,030.12,N*47
$IIVHW,,,042.,M,01.58,N,02.93,K*1D
$IIMWV,356,R,02.4,N,A*15
$IIVWR,004.,L,02.4,N,01.2,M,004.4,K*66
$IIMTW,19.0,C*1B
$IIVWT,012.,L,00.8,N,00.4,M,001.5,K*6A
$IIHDG,042.,,,,*7F
$IIHDM,042.,M*14
$IIGLL,4730.182,N,00221.911,W,135758,A,A*4C
$IIZDA,135758,26,10,2017,,*53
$IIVTG,040.,T,,M,02.2,N,04.1,K,A*2B
$IIDPT,0009.0,,*7B
$IIDBT,0029.5,f,0009.0,M,,*7E
$IIVLW,0129.0,N,030.12,N*47
$IIVHW,,,042.,M,01.64,N,03.03,K*1A
$IIMWV,356,R,02.4,N,A*15
$IIVWR,004.,L,02.4,N,01.2,M,004.4,K*66
$IIMWD,,,030.,M,00.8,N,00.4,M*01
$IIMTW,19.0,C*1B
$IIVWT,012.,L,00.8,N,00.4,M,001.5,K*6A
$IIHDG,042.,,,,*7F
$IIHDM,042.,M*14
$IIGLL,4730.182,N,00221.911,W,135758,A,A*4C
$IIZDA,135758,26,10,2017,,*53
$IIVTG,038.,T,,M,02.3,N,04.3,K,A*27
$IIDPT,0009.1,,*7A
$IIDBT,0029.8,f,0009.1,M,,*72
$IIVLW,0129.0,N,030.12,N*47
$IIVHW,,,042.,M,01.67,N,03.10,K*1B
$IIMWV,357,R,02.4,N,A*14
$IIVWR,003.,L,02.4,N,01.2,M,004.4,K*61
$IIMWD,,,030.,M,00.7,N,00.4,M*0E
$IIMTW,19.0,C*1B
$IIVWT,012.,L,00.7,N,00.4,M,001.3,K*63
$IIHDG,042.,,,,*7F
$IIHDM,042.,M*14
$IIGLL,4730.183,N,00221.910,W,135800,A,A*4E
$IIZDA,135800,26,10,2017,,*51
$IIVTG,041.,T,,M,02.3,N,04.3,K,A*29
$IIDPT,0009.1,,*7A
$IIDBT,0029.8,f,0009.1,M,,*72
$IIVLW,0129.0,N,030.12,N*47
$IIVHW,,,042.,M,01.72,N,03.18,K*17
$IIMWV,356,R,02.4,N,A*15
$IIVWR,004.,L,02.4,N,01.2,M,004.4,K*66
$IIMWD,,,032.,M,00.7,N,00.4,M*0C
$IIMTW,19.0,C*1B
$IIVWT,010.,L,00.6,N,00.3,M,001.1,K*65
$IIHDG,042.,,,,*7F
$IIHDM,042.,M*14
$IIGLL,4730.183,N,00221.910,W,135800,A,A*4E
$IIZDA,135800,26,10,2017,,*51
$IIVTG,041.,T,,M,02.3,N,04.3,K,A*29
$IIDPT,0009.1,,*7A
$IIDBT,0029.8,f,0009.1,M,,*72
$IIVLW,0129.0,N,030.12,N*47
$IIVHW,,,043.,M,01.84,N,03.40,K*12
$IIMWV,356,R,02.4,N,A*15
$IIVWR,004.,L,02.4,N,01.2,M,004.4,K*66
$IIMWD,,,026.,M,00.5,N,00.3,M*0C
$IIMTW,19.1,C*1A
$IIVWT,017.,L,00.5,N,00.3,M,000.9,K*68
$IIHDG,042.,,,,*7F
$IIHDM,042.,M*14
$IIGLL,4730.184,N,00221.909,W,135802,A,A*43
$IIZDA,135802,26,10,2017,,*53
$IIVTG,041.,T,,M,02.3,N,04.3,K,A*29
$IIDPT,0009.1,,*7A
$IIDBT,0030.2,f,0009.2,M,,*73
$IIVLW,0129.0,N,030.12,N*47
$IIVHW,,,042.,M,01.84,N,03.40,K*13
$IIMWV,357,R,02.4,N,A*14
$IIVWR,003.,L,02.4,N,01.2,M,004.4,K*61
$IIMWD,,,030.,M,00.5,N,00.3,M*0B
$IIMTW,19.1,C*1A
$IIVWT,012.,L,00.5,N,00.3,M,000.9,K*6D
$IIHDG,043.,,,,*7E
$IIHDM,043.,M*15
$IIGLL,4730.184,N,00221.909,W,135804,A,A*45
$IIZDA,135804,26,10,2017,,*55
$IIVTG,039.,T,,M,02.4,N,04.4,K,A*26
$IIDPT,0009.2,,*79
$IIDBT,0030.2,f,0009.2,M,,*73
$IIVLW,0129.0,N,030.12,N*47
$IIVHW,,,043.,M,01.92,N,03.55,K*11
$IIMWV,357,R,02.5,N,A*15
$IIVWR,003.,L,02.5,N,01.3,M,004.6,K*63
$IIMWD,,,030.,M,00.5,N,00.3,M*0B
$IIMTW,19.1,C*1A
$IIVWT,013.,L,00.5,N,00.3,M,000.9,K*6C
$IIHDG,042.,,,,*7F
$IIHDM,042.,M*14
$IIGLL,4730.185,N,00221.908,W,135804,A,A*45
$IIZDA,135804,26,10,2017,,*55
$IIVTG,040.,T,,M,02.4,N,04.4,K,A*28
$IIDPT,0009.2,,*79
$IIDBT,0030.2,f,0009.2,M,,*73
$IIVLW,0129.0,N,030.12,N*47
$IIVHW,,,043.,M,01.95,N,03.61,K*11
$IIMWV,356,R,02.5,N,A*14
$IIVWR,004.,L,02.5,N,01.3,M,004.6,K*64
$IIMTA,26.2,C*03
$IIMTW,19.1,C*1A
$IIVWT,013.,L,00.6,N,00.3,M,001.1,K*66
$IIHDG,043.,,,,*7E
$IIHDM,043.,M*15
$IIGLL,4730.185,N,00221.908,W,135806,A,A*47
$IIZDA,135806,26,10,2017,,*57
$IIVTG,040.,T,,M,02.4,N,04.4,K,A*28
$IIDPT,0009.2,,*79
$IIDBT,0030.2,f,0009.2,M,,*73
$IIVLW,0129.0,N,030.12,N*47
$IIVHW,,,043.,M,02.00,N,03.70,K*1E
$IIMWV,356,R,02.5,N,A*14
$IIVWR,004.,L,02.5,N,01.3,M,004.6,K*64
$IIMWD,,,026.,M,00.5,N,00.3,M*0C
$IIMTA,26.2,C*03
$IIMTW,19.1,C*1A
$IIVWT,017.,L,00.5,N,00.3,M,000.9,K*68
$IIHDG,043.,,,,*7E
$IIHDM,043.,M*15
$IIGLL,4730.186,N,00221.906,W,135806,A,A*4A
$IIZDA,135806,26,10,2017,,*57
$IIVTG,039.,T,,M,02.5,N,04.6,K,A*25
$IIDPT,0009.2,,*79
$IIDBT,0030.2,f,0009.2,M,,*73
$IIVLW,0129.0,N,030.12,N*47
$IIVHW,,,043.,M,02.04,N,03.77,K*1D
$IIMWV,357,R,02.5,N,A*15
$IIVWR,003.,L,02.5,N,01.3,M,004.6,K*63
$IIMWD,,,029.,M,00.5,N,00.3,M*03
$IIMTA,26.2,C*03
$IIMTW,19.1,C*1A
$IIVWT,014.,L,00.5,N,00.3,M,000.9,K*6B
$IIHDG,043.,,,,*7E
$IIHDM,043.,M*15
$IIGLL,4730.186,N,00221.906,W,135808,A,A*44
$IIZDA,135808,26,10,2017,,*59
$IIVTG,039.,T,,M,02.5,N,04.6,K,A*25
$IIDPT,0009.2,,*79
$IIDBT,0030.2,f,0009.2,M,,*73
$IIVLW,0129.0,N,030.12,N*47
$IIVHW,,,043.,M,02.06,N,03.82,K*15
$IIMWV,357,R,02.5,N,A*15
$IIVWR,003.,L,02.5,N,01.3,M,004.6,K*63
$IIMWD,,,026.,M,00.4,N,00.2,M*0C
$IIMTA,26.2,C*03
$IIMTW,19.1,C*1A
$IIVWT,017.,L,00.4,N,00.2,M,000.7,K*66
$IIHDG,043.,,,,*7E
$IIHDM,043.,M*15
$IIGLL,4730.187,N,00221.905,W,135808,A,A*46
$IIZDA,135808,26,10,2017,,*59
$IIVTG,041.,T,,M,02.5,N,04.6,K,A*2A
$IIDPT,0009.2,,*79
$IIDBT,0030.2,f,0009.2,M,,*73
$IIVLW,0129.0,N,030.12,N*47
$IIVHW,,,043.,M,02.10,N,03.88,K*18
$IIMWV,357,R,02.5,N,A*15
$IIVWR,003.,L,02.5,N,01.3,M,004.6,K*63
$IIMWD,,,025.,M,00.4,N,00.2,M*0F
$IIMTA,26.2,C*03
$IIMTW,19.1,C*1A
$IIVWT,020.,L,00.3,N,00.2,M,000.6,K*64
$IIHDG,043.,,,,*7E
$IIHDM,043.,M*15
$IIGLL,4730.188,N,00221.904,W,135810,A,A*41
$IIZDA,135810,26,10,2017,,*50
$IIVTG,041.,T,,M,02.5,N,04.6,K,A*2A
$IIDPT,0009.2,,*79
$IIDBT,0030.2,f,0009.2,M,,*73
$IIVLW,0129.0,N,030.12,N*47
$IIVHW,,,043.,M,02.18,N,04.03,K*14
$IIMWV,357,R,02.6,N,A*16
$IIVWR,003.,L,02.6,N,01.3,M,004.8,K*6E
$IIMWD,,,025.,M,00.4,N,00.2,M*0F
$IIMTA,26.2,C*03
$IIMTW,19.1,C*1A
$IIVWT,018.,L,00.4,N,00.2,M,000.7,K*69
$IIHDG,043.,,,,*7E
$IIHDM,043.,M*15
$IIGLL,4730.188,N,00221.904,W,135810,A,A*41
$IIZDA,135810,26,10,2017,,*50
$IIVTG,041.,T,,M,02.5,N,04.6,K,A*2A
$IIDPT,0009.2,,*79
$IIDBT,0030.2,f,0009.2,M,,*73
$IIVLW,0129.0,N,030.13,N*46
$IIVHW,,,043.,M,02.21,N,04.10,K*1C
$IIMWV,357,R,02.6,N,A*16
$IIVWR,003.,L,02.6,N,01.3,M,004.8,K*6E
$IIMWD,,,025.,M,00.4,N,00.2,M*0F
$IIMTA,26.2,C*03
$IIMTW,19.1,C*1A
$IIVWT,018.,L,00.4,N,00.2,M,000.7,K*69
$IIHDG,043.,,,,*7E
$IIHDM,043.,M*15
$IIGLL,4730.189,N,00221.902,W,135812,A,A*44
$IIZDA,135812,26,10,2017,,*52
$IIVTG,040.,T,,M,02.5,N,04.6,K,A*2B
$IIDPT,0009.2,,*79
$IIDBT,0030.2,f,0009.2,M,,*73
$IIVLW,0129.0,N,030.13,N*46
$IIVHW,,,043.,M,02.23,N,04.13,K*1D
$IIMWV,356,R,02.6,N,A*17
$IIVWR,004.,L,02.6,N,01.3,M,004.8,K*69
$IIMWD,,,024.,M,00.4,N,00.2,M*0E
$IIMTA,26.2,C*03
$IIMTW,19.1,C*1A
$IIVWT,027.,L,00.4,N,00.2,M,000.7,K*65
$IIHDG,043.,,,,*7E
$IIHDM,043.,M*15
$IIGLL,4730.189,N,00221.902,W,135812,A,A*44
$IIZDA,135812,26,10,2017,,*52
$IIVTG,040.,T,,M,02.5,N,04.6,K,A*2B
$IIDPT,0009.2,,*79
$IIDBT,0030.2,f,0009.2,M,,*73
$IIVLW,0129.0,N,030.13,N*46
$IIVHW,,,042.,M,02.26,N,04.18,K*12
$IIMWV,356,R,02.6,N,A*17
$IIVWR,004.,L,02.6,N,01.3,M,004.8,K*69
$IIMWD,,,015.,M,00.3,N,00.2,M*0B
$IIMTA,26.2,C*03
$IIMTW,19.1,C*1A
$IIVWT,028.,L,00.3,N,00.2,M,000.6,K*6C
$IIHDG,042.,,,,*7F
$IIHDM,042.,M*14
$IIGLL,4730.190,N,00221.901,W,135814,A,A*49
$IIZDA,135814,26,10,2017,,*54
$IIVTG,040.,T,,M,02.6,N,04.8,K,A*26
$IIDPT,0009.2,,*79
$IIDBT,0030.2,f,0009.2,M,,*73
$IIVLW,0129.0,N,030.13,N*46
$IIVHW,,,042.,M,02.28,N,04.22,K*15
$IIMWV,356,R,02.6,N,A*17
$IIVWR,004.,L,02.6,N,01.3,M,004.8,K*69
$IIMWD,,,013.,M,00.3,N,00.2,M*0D
$IIMTA,26.2,C*03
$IIMTW,19.1,C*1A
$IIVWT,029.,L,00.3,N,00.2,M,000.6,K*6D
$IIHDG,042.,,,,*7F
$IIHDM,042.,M*14
$IIGLL,4730.190,N,00221.901,W,135816,A,A*4B
$IIZDA,135816,26,10,2017,,*56
$IIVTG,040.,T,,M,02.6,N,04.8,K,A*26
$IIDPT,0009.2,,*79
$IIDBT,0030.2,f,0009.2,M,,*73
$IIVLW,0129.0,N,030.13,N*46
$IIVHW,,,042.,M,02.30,N,04.26,K*18
$IIMWV,356,R,02.6,N,A*17
$IIVWR,004.,L,02.6,N,01.3,M,004.8,K*69
$IIMWD,,,010.,M,00.3,N,00.2,M*0E
$IIMTA,26.2,C*03
$IIMTW,19.1,C*1A
$IIVWT,032.,L,00.3,N,00.2,M,000.6,K*67
$IIHDG,042.,,,,*7F
$IIHDM,042.,M*14
$IIGLL,4730.190,N,00221.901,W,135816,A,A*4B
$IIZDA,135816,26,10,2017,,*56
$IIVTG,040.,T,,M,02.7,N,05.0,K,A*2E
$IIDPT,0009.2,,*79
$IIDBT,0030.2,f,0009.2,M,,*73
$IIVLW,0129.0,N,030.13,N*46
$IIVHW,,,042.,M,02.33,N,04.31,K*1D
$IIMWV,356,R,02.6,N,A*17
$IIVWR,004.,L,02.6,N,01.3,M,004.8,K*69
$IIMWD,,,008.,M,00.3,N,00.2,M*07
$IIMTA,26.2,C*03
$IIMTW,19.1,C*1A
$IIVWT,034.,L,00.3,N,00.2,M,000.6,K*61
$IIHDG,042.,,,,*7F
$IIHDM,042.,M*14
$IIGLL,4730.192,N,00221.898,W,135818,A,A*46
$IIZDA,135818,26,10,2017,,*58
$IIVTG,040.,T,,M,02.7,N,05.0,K,A*2E
$IIDPT,0009.2,,*79
$IIDBT,0030.2,f,0009.2,M,,*73
$IIVLW,0129.0,N,030.13,N*46
$IIVHW,,,042.,M,02.38,N,04.40,K*10
$IIMWV,356,R,02.6,N,A*17
$IIVWR,004.,L,02.6,N,01.3,M,004.8,K*69
$IIMWD,,,003.,M,00.2,N,00.1,M*0E
$IIMTA,26.2,C*03
$IIMTW,19.1,C*1A
$IIVWT,039.,L,00.2,N,00.1,M,000.4,K*6C
$IIHDG,042.,,,,*7F
$IIHDM,042.,M*14
$IIGLL,4730.193,N,00221.898,W,135818,A,A*47
$IIZDA,135818,26,10,2017,,*58
$IIVTG,041.,T,,M,02.8,N,05.2,K,A*22
$IIDPT,0009.2,,*79
$IIDBT,0030.2,f,0009.2,M,,*73
$IIVLW,0129.0,N,030.13,N*46
$IIVHW,,,042.,M,02.47,N,04.58,K*11
$IIMWV,356,R,02.7,N,A*16
$IIVWR,004.,L,02.7,N,01.4,M,005.0,K*66
$IIMWD,,,356.,M,00.2,N,00.1,M*0D
$IIMTW,19.1,C*1A
$IIVWT,046.,L,00.2,N,00.1,M,000.4,K*64
$IIHDG,042.,,,,*7F
$IIHDM,042.,M*14
$IIGLL,4730.194,N,00221.898,W,135820,A,A*4B
$IIZDA,135820,26,10,2017,,*53
$IIVTG,041.,T,,M,02.8,N,05.2,K,A*22
$IIDPT,0009.1,,*7A
$IIDBT,0029.8,f,0009.1,M,,*72
$IIVLW,0129.0,N,030.13,N*46
$IIVHW,,,042.,M,02.52,N,04.66,K*18
$IIMWV,356,R,02.7,N,A*16
$IIVWR,004.,L,02.7,N,01.4,M,005.0,K*66
$IIMWD,,,002.,M,00.2,N,00.1,M*0F
$IIMTA,26.2,C*03
$IIMTW,19.1,C*1A
$IIVWT,040.,L,00.2,N,00.1,M,000.4,K*62
$IIHDG,042.,,,,*7F
$IIHDM,042.,M*14
$IIGLL,4730.194,N,00221.896,W,135820,A,A*45
$IIZDA,135820,26,10,2017,,*53
$IIVTG,040.,T,,M,02.9,N,05.4,K,A*24
$IIDPT,0009.1,,*7A
$IIDBT,0029.8,f,0009.1,M,,*72
$IIVLW,0129.0,N,030.13,N*46
$IIVHW,,,042.,M,02.57,N,04.75,K*1F
$IIMWV,356,R,02.7,N,A*16
$IIVWR,004.,L,02.7,N,01.4,M,005.0,K*66
$IIMWD,,,356.,M,00.2,N,00.1,M*0D
$IIMTA,26.2,C*03
$IIMTW,19.1,C*1A
$IIVWT,055.,L,00.2,N,00.1,M,000.4,K*66
$IIHDG,042.,,,,*7F
$IIHDM,042.,M*14
$IIGLL,4730.195,N,00221.895,W,135822,A,A*45
$IIZDA,135822,26,10,2017,,*51
$IIVTG,040.,T,,M,02.9,N,05.4,K,A*24
$IIDPT,0009.0,,*7B
$IIDBT,0029.5,f,0009.0,M,,*7E
$IIVLW,0129.0,N,030.13,N*46
$IIVHW,,,042.,M,02.61,N,04.83,K*13
$IIMWV,356,R,02.7,N,A*16
$IIVWR,004.,L,02.7,N,01.4,M,005.0,K*66
$IIMWD,,,338.,M,00.2,N,00.1,M*05
$IIMTA,26.2,C*03
$IIMTW,19.1,C*1A
$IIVWT,064.,L,00.2,N,00.1,M,000.4,K*64
$IIHDG,042.,,,,*7F
$IIHDM,042.,M*14
$IIGLL,4730.195,N,00221.895,W,135822,A,A*45
$IIZDA,135822,26,10,2017,,*51
$IIVTG,039.,T,,M,02.9,N,05.4,K,A*2A
$IIDPT,0009.0,,*7B
$IIDBT,0029.5,f,0009.0,M,,*7E
$IIVLW,0129.0,N,030.13,N*46
$IIVHW,,,042.,M,02.64,N,04.88,K*1D
$IIMWV,356,R,02.7,N,A*16
$IIVWR,004.,L,02.7,N,01.4,M,005.0,K*66
$IIMWD,,,331.,M,00.1,N,00.1,M*0F
$IIMTW,19.1,C*1A
$IIVWT,071.,L,00.1,N,00.1,M,000.2,K*65
$IIHDG,042.,,,,*7F
$IIHDM,042.,M*14
$IIGLL,4730.196,N,00221.893,W,135824,A,A*46
$IIZDA,135824,26,10,2017,,*57
$IIVTG,040.,T,,M,03.0,N,05.6,K,A*2E
$IIDPT,0009.0,,*7B
$IIDBT,0029.5,f,0009.0,M,,*7E
$IIVLW,0129.0,N,030.13,N*46
$IIVHW,,,043.,M,02.68,N,04.96,K*1F
$IIMWV,356,R,02.8,N,A*19
$IIVWR,004.,L,02.8,N,01.4,M,005.2,K*6B
$IIMWD,,,331.,M,00.1,N,00.1,M*0F
$IIMTW,19.1,C*1A
$IIVWT,058.,L,00.2,N,00.1,M,000.4,K*6B
$IIHDG,043.,,,,*7E
$IIHDM,043.,M*15
$IIGLL,4730.196,N,00221.893,W,135826,A,A*44
$IIZDA,135826,26,10,2017,,*55
$IIVTG,040.,T,,M,03.0,N,05.6,K,A*2E
$IIDPT,0009.0,,*7B
$IIDBT,0029.5,f,0009.0,M,,*7E
$IIVLW,0129.0,N,030.14,N*41
$IIVHW,,,043.,M,02.74,N,05.07,K*1B
$IIMWV,356,R,02.8,N,A*19
$IIVWR,004.,L,02.8,N,01.4,M,005.2,K*6B
$IIMWD,,,336.,M,00.2,N,00.1,M*0B
$IIMTW,19.1,C*1A
$IIVWT,067.,L,00.2,N,00.1,M,000.4,K*67
$IIHDG,043.,,,,*7E
$IIHDM,043.,M*15
$IIGLL,4730.198,N,00221.892,W,135826,A,A*4B
$IIZDA,135826,26,10,2017,,*55
$IIVTG,041.,T,,M,02.9,N,05.4,K,A*25
$IIDPT,0009.0,,*7B
$IIDBT,0029.5,f,0009.0,M,,*7E
$IIVLW,0129.0,N,030.14,N*41
$IIVHW,,,043.,M,02.76,N,05.11,K*1E
$IIMWV,355,R,02.8,N,A*1A
$IIVWR,005.,L,02.8,N,01.4,M,005.2,K*6A
$IIMWD,,,325.,M,00.2,N,00.1,M*09
$IIMTW,19.1,C*1A
$IIVWT,078.,L,00.2,N,00.1,M,000.4,K*69
$IIHDG,043.,,,,*7E
$IIHDM,043.,M*15
$IIGLL,4730.198,N,00221.892,W,135828,A,A*45
$IIZDA,135828,26,10,2017,,*5B
$IIVTG,041.,T,,M,02.9,N,05.4,K,A*25
$IIDPT,0009.0,,*7B
$IIDBT,0029.5,f,0009.0,M,,*7E
$IIVLW,0129.0,N,030.14,N*41
$IIVHW,,,043.,M,02.79,N,05.16,K*16
$IIMWV,355,R,02.8,N,A*1A
$IIVWR,005.,L,02.8,N,01.4,M,005.2,K*6A
$IIMWD,,,315.,M,00.2,N,00.1,M*0A
$IIMTW,19.1,C*1A
$IIVWT,088.,L,00.2,N,00.1,M,000.4,K*66
$IIHDG,043.,,,,*7E
$IIHDM,043.,M*15
$IIGLL,4730.198,N,00221.892,W,135828,A,A*45
$IIZDA,135828,26,10,2017,,*5B
$IIVTG,041.,T,,M,03.1,N,05.8,K,A*20
$IIDPT,0009.0,,*7B
$IIDBT,0029.5,f,0009.0,M,,*7E
$IIVLW,0129.0,N,030.14,N*41
$IIVHW,,,043.,M,02.84,N,05.25,K*14
$IIMWV,355,R,02.8,N,A*1A
$IIVWR,005.,L,02.8,N,01.4,M,005.2,K*6A
$IIMWD,,,304.,M,00.2,N,00.1,M*0A
$IIMTW,19.1,C*1A
$IIVWT,099.,L,00.2,N,00.1,M,000.4,K*66
$IIHDG,043.,,,,*7E
$IIHDM,043.,M*15
$IIGLL,4730.200,N,00221.888,W,135830,A,A*45
$IIZDA,135830,26,10,2017,,*52
$IIVTG,041.,T,,M,03.1,N,05.8,K,A*20
$IIDPT,0009.0,,*7B
$IIDBT,0029.5,f,0009.0,M,,*7E
$IIVLW,0129.0,N,030.14,N*41
$IIVHW,,,043.,M,02.87,N,05.31,K*12
$IIMWV,355,R,02.9,N,A*1B
$IIVWR,005.,L,02.9,N,01.5,M,005.4,K*6C
$IIMWD,,,320.,M,00.2,N,00.1,M*0C
$IIMTW,19.1,C*1A
$IIVWT,083.,L,00.2,N,00.1,M,000.4,K*6D
$IIHDG,043.,,,,*7E
$IIHDM,043.,M*15
$IIGLL,4730.200,N,00221.888,W,135830,A,A*45
$IIZDA,135830,26,10,2017,,*52
$IIVTG,041.,T,,M,03.0,N,05.6,K,A*2F
$IIDPT,0008.9,,*73
$IIDBT,0029.2,f,0008.9,M,,*71
$IIVLW,0129.0,N,030.14,N*41
$IIVHW,,,044.,M,02.87,N,05.31,K*15
$IIMWV,355,R,02.9,N,A*1B
$IIVWR,005.,L,02.9,N,01.5,M,005.4,K*6C
$IIMWD,,,320.,M,00.2,N,00.1,M*0C
$IIMTW,19.1,C*1A
$IIVWT,083.,L,00.2,N,00.1,M,000.4,K*6D
$IIHDG,044.,,,,*79
$IIHDM,044.,M*12
$IIGLL,4730.201,N,00221.887,W,135832,A,A*49
$IIZDA,135832,26,10,2017,,*50
$IIVTG,041.,T,,M,03.0,N,05.6,K,A*2F
$IIDPT,0009.0,,*7B
$IIDBT,0029.5,f,0009.0,M,,*7E
$IIVLW,0129.0,N,030.14,N*41
$IIVHW,,,044.,M,02.89,N,05.36,K*1C
$IIMWV,355,R,02.9,N,A*1B
$IIVWR,005.,L,02.9,N,01.5,M,005.4,K*6C
$IIMWD,,,321.,M,00.2,N,00.1,M*0D
$IIMTW,19.1,C*1A
$IIVWT,083.,L,00.2,N,00.1,M,000.4,K*6D
$IIHDG,044.,,,,*79
$IIHDM,044.,M*12
$IIGLL,4730.201,N,00221.887,W,135832,A,A*49
$IIZDA,135832,26,10,2017,,*50
$IIVTG,042.,T,,M,03.0,N,05.6,K,A*2C
$IIDPT,0009.0,,*7B
$IIDBT,0029.5,f,0009.0,M,,*7E
$IIVLW,0129.0,N,030.14,N*41
$IIVHW,,,044.,M,02.93,N,05.42,K*14
$IIMWV,354,R,02.9,N,A*1A
$IIVWR,006.,L,02.9,N,01.5,M,005.4,K*6F
$IIMWD,,,314.,M,00.2,N,00.1,M*0B
$IIMTW,19.1,C*1A
$IIVWT,102.,L,00.3,N,00.2,M,000.6,K*65
$IIHDG,044.,,,,*79
$IIHDM,044.,M*12
$IIGLL,4730.203,N,00221.885,W,135834,A,A*4F
$IIZDA,135834,26,10,2017,,*56
$IIVTG,043.,T,,M,03.1,N,05.8,K,A*22
$IIDPT,0008.9,,*73
$IIDBT,0029.2,f,0008.9,M,,*71
$IIVLW,0129.0,N,030.14,N*41
$IIVHW,,,044.,M,02.98,N,05.52,K*1E
$IIMWV,354,R,02.9,N,A*1A
$IIVWR,006.,L,02.9,N,01.5,M,005.4,K*6F
$IIMWD,,,296.,M,00.3,N,00.2,M*02
$IIMTW,19.1,C*1A
$IIVWT,108.,L,00.3,N,00.2,M,000.6,K*6F
$IIHDG,044.,,,,*79
$IIHDM,044.,M*12
$IIGLL,4730.203,N,00221.885,W,135834,A,A*4F
$IIZDA,135834,26,10,2017,,*56
$IIVTG,043.,T,,M,03.1,N,05.8,K,A*22
$IIDPT,0008.9,,*73
$IIDBT,0029.2,f,0008.9,M,,*71
$IIVLW,0129.0,N,030.14,N*41
$IIVHW,,,044.,M,03.00,N,05.56,K*1A
$IIMWV,354,R,02.9,N,A*1A
$IIVWR,006.,L,02.9,N,01.5,M,005.4,K*6F
$IIMWD,,,293.,M,00.3,N,00.2,M*07
$IIMTW,19.1,C*1A
$IIVWT,111.,L,00.3,N,00.2,M,000.6,K*67
$IIHDG,045.,,,,*78
$IIHDM,045.,M*13
$IIGLL,4730.204,N,00221.883,W,135836,A,A*4C
$IIZDA,135836,26,10,2017,,*54
$IIVTG,044.,T,,M,03.1,N,05.8,K,A*25
$IIDPT,0008.9,,*73
$IIDBT,0029.2,f,0008.9,M,,*71
$IIVLW,0129.0,N,030.14,N*41
$IIVHW,,,045.,M,03.01,N,05.58,K*14
$IIMWV,354,R,03.0,N,A*12
$IIVWR,006.,L,03.0,N,01.5,M,005.6,K*65
$IIMWD,,,310.,M,00.3,N,00.2,M*0D
$IIMTW,19.1,C*1A
$IIVWT,095.,L,00.3,N,00.2,M,000.6,K*6A
$IIHDG,045.,,,,*78
$IIHDM,045.,M*13
$IIGLL,4730.204,N,00221.883,W,135838,A,A*42
$IIZDA,135838,26,10,2017,,*5A
$IIVTG,044.,T,,M,03.1,N,05.8,K,A*25
$IIDPT,0008.8,,*72
$IIDBT,0028.8,f,0008.8,M,,*7B
$IIVLW,0129.0,N,030.15,N*40
$IIVHW,,,045.,M,03.03,N,05.62,K*1F
$IIMWV,354,R,03.0,N,A*12
$IIVWR,006.,L,03.0,N,01.5,M,005.6,K*65
$IIMWD,,,307.,M,00.3,N,00.2,M*0B
$IIMTW,19.2,C*19
$IIVWT,098.,L,00.3,N,00.2,M,000.6,K*67
$IIHDG,045.,,,,*78
$IIHDM,045.,M*13
$IIGLL,4730.205,N,00221.882,W,135838,A,A*42
$IIZDA,135838,26,10,2017,,*5A
$IIVTG,044.,T,,M,03.2,N,05.9,K,A*27
$IIDPT,0008.9,,*73
$IIDBT,0029.2,f,0008.9,M,,*71
$IIVLW,0129.0,N,030.15,N*40
$IIVHW,,,045.,M,03.06,N,05.67,K*1F
$IIMWV,354,R,03.0,N,A*12
$IIVWR,006.,L,03.0,N,01.5,M,005.6,K*65
$IIMWD,,,301.,M,00.3,N,00.2,M*0D
$IIMTW,19.2,C*19
$IIVWT,104.,L,00.3,N,00.2,M,000.6,K*63
$IIHDG,045.,,,,*78
$IIHDM,045.,M*13
$IIGLL,4730.205,N,00221.882,W,135840,A,A*4D
$IIZDA,135840,26,10,2017,,*55
$IIVTG,044.,T,,M,03.2,N,05.9,K,A*27
$IIDPT,0008.8,,*72
$IIDBT,0028.8,f,0008.8,M,,*7B
$IIVLW,0129.0,N,030.15,N*40
$IIVHW,,,045.,M,03.08,N,05.70,K*17
$IIMWV,354,R,03.0,N,A*12
$IIVWR,006.,L,03.0,N,01.5,M,005.6,K*65
$IIMWD,,,301.,M,00.3,N,00.2,M*0D
$IIMTW,19.2,C*19
$IIVWT,104.,L,00.3,N,00.2,M,000.6,K*63
$IIHDG,045.,,,,*78
$IIHDM,045.,M*13
$IIGLL,4730.205,N,00221.882,W,135840,A,A*4D
$IIZDA,135840,26,10,2017,,*55
$IIVTG,043.,T,,M,03.1,N,05.8,K,A*22
$IIDPT,0008.8,,*72
$IIDBT,0028.8,f,0008.8,M,,*7B
$IIVLW,0129.0,N,030.15,N*40
$IIVHW,,,045.,M,03.08,N,05.70,K*17
$IIMWV,354,R,03.0,N,A*12
$IIVWR,006.,L,03.0,N,01.5,M,005.6,K*65
$IIMWD,,,300.,M,00.3,N,00.2,M*0C
$IIMTW,19.2,C*19
$IIVWT,105.,L,00.3,N,00.2,M,000.6,K*62
$IIHDG,045.,,,,*78
$IIHDM,045.,M*13
$IIGLL,4730.208,N,00221.878,W,135842,A,A*47
$IIZDA,135842,26,10,2017,,*57
$IIVTG,043.,T,,M,03.1,N,05.8,K,A*22
$IIDPT,0008.8,,*72
$IIDBT,0028.8,f,0008.8,M,,*7B
$IIVLW,0129.0,N,030.15,N*40
$IIVHW,,,045.,M,03.08,N,05.71,K*16
$IIMWV,354,R,03.1,N,A*13
$IIVWR,006.,L,03.1,N,01.6,M,005.7,K*66
$IIMWD,,,317.,M,00.3,N,00.2,M*0A
$IIMTW,19.2,C*19
$IIVWT,089.,L,00.3,N,00.2,M,000.6,K*67
$IIHDG,045.,,,,*78
$IIHDM,046.,M*10
$IIGLL,4730.208,N,00221.878,W,135842,A,A*47
$IIZDA,135842,26,10,2017,,*57
$IIVTG,044.,T,,M,03.1,N,05.8,K,A*25
$IIDPT,0008.8,,*72
$IIDBT,0028.8,f,0008.8,M,,*7B
$IIVLW,0129.0,N,030.15,N*40
$IIVHW,,,046.,M,03.09,N,05.72,K*17
$IIMWV,354,R,03.1,N,A*13
$IIVWR,006.,L,03.1,N,01.6,M,005.7,K*66
$IIMWD,,,317.,M,00.3,N,00.2,M*0A
$IIMTW,19.2,C*19
$IIVWT,089.,L,00.3,N,00.2,M,000.6,K*67
$IIHDG,046.,,,,*7B
$IIHDM,046.,M*10
$IIGLL,4730.209,N,00221.876,W,135844,A,A*4E
$IIZDA,135844,26,10,2017,,*51
$IIVTG,044.,T,,M,03.1,N,05.8,K,A*25
$IIDPT,0008.8,,*72
$IIDBT,0028.8,f,0008.8,M,,*7B
$IIVLW,0129.0,N,030.15,N*40
$IIVHW,,,046.,M,03.08,N,05.71,K*15
$IIMWV,353,R,03.1,N,A*14
$IIVWR,007.,L,03.1,N,01.6,M,005.7,K*67
$IIMWD,,,317.,M,00.3,N,00.2,M*0A
$IIMTW,19.2,C*19
$IIVWT,089.,L,00.3,N,00.2,M,000.6,K*67
$IIHDG,046.,,,,*7B
$IIHDM,046.,M*10
$IIGLL,4730.209,N,00221.876,W,135844,A,A*4E
$IIZDA,135844,26,10,2017,,*51
$IIVTG,044.,T,,M,03.1,N,05.8,K,A*25
$IIDPT,0008.8,,*72
$IIDBT,0028.8,f,0008.8,M,,*7B
$IIVLW,0129.0,N,030.15,N*40
$IIVHW,,,046.,M,03.08,N,05.70,K*14
$IIMWV,353,R,03.1,N,A*14
$IIVWR,007.,L,03.1,N,01.6,M,005.7,K*67
$IIMWD,,,316.,M,00.3,N,00.2,M*0B
$IIMTW,19.2,C*19
$IIVWT,089.,L,00.3,N,00.2,M,000.6,K*67
$IIHDG,046.,,,,*7B
$IIHDM,046.,M*10
$IIGLL,4730.210,N,00221.874,W,135846,A,A*46
$IIZDA,135846,26,10,2017,,*53
$IIVTG,044.,T,,M,03.2,N,05.9,K,A*27
$IIDPT,0008.8,,*72
$IIDBT,0028.8,f,0008.8,M,,*7B
$IIVLW,0129.0,N,030.15,N*40
$IIVHW,,,045.,M,03.06,N,05.66,K*1E
$IIMWV,354,R,03.1,N,A*13
$IIVWR,006.,L,03.1,N,01.6,M,005.7,K*66
$IIMWD,,,321.,M,00.3,N,00.2,M*0F
$IIMTW,19.2,C*19
$IIVWT,084.,L,00.3,N,00.2,M,000.6,K*6A
$IIHDG,045.,,,,*78
$IIHDM,045.,M*13
$IIGLL,4730.210,N,00221.874,W,135846,A,A*46
$IIZDA,135846,26,10,2017,,*53
$IIVTG,044.,T,,M,03.2,N,05.9,K,A*27
$IIDPT,0008.8,,*72
$IIDBT,0028.8,f,0008.8,M,,*7B
$IIVLW,0129.0,N,030.15,N*40
$IIVHW,,,046.,M,03.06,N,05.67,K*1C
$IIMWV,354,R,03.1,N,A*13
$IIVWR,006.,L,03.1,N,01.6,M,005.7,K*66
$IIMWD,,,320.,M,00.3,N,00.2,M*0E
$IIMTW,19.2,C*19
$IIVWT,086.,L,00.3,N,00.2,M,000.6,K*68
$IIHDG,045.,,,,*78
$IIHDM,045.,M*13
$IIGLL,4730.212,N,00221.872,W,135848,A,A*4C
$IIZDA,135848,26,10,2017,,*5D
$IIVTG,044.,T,,M,03.1,N,05.8,K,A*25
$IIDPT,0008.8,,*72
$IIDBT,0028.8,f,0008.8,M,,*7B
$IIVLW,0129.0,N,030.15,N*40
$IIVHW,,,045.,M,03.08,N,05.70,K*17
$IIMWV,354,R,03.1,N,A*13
$IIVWR,006.,L,03.1,N,01.6,M,005.7,K*66
$IIMWD,,,321.,M,00.3,N,00.2,M*0F
$IIMTW,19.2,C*19
$IIVWT,084.,L,00.3,N,00.2,M,000.6,K*6A
$IIHDG,046.,,,,*7B
$IIHDM,046.,M*10
$IIGLL,4730.212,N,00221.872,W,135850,A,A*45
$IIZDA,135850,26,10,2017,,*54
$IIVTG,044.,T,,M,03.1,N,05.8,K,A*25
$IIDPT,0008.8,,*72
$IIDBT,0028.8,f,0008.8,M,,*7B
$IIVLW,0129.0,N,030.16,N*43
$IIVHW,,,045.,M,03.07,N,05.69,K*10
$IIMWV,354,R,03.1,N,A*13
$IIVWR,006.,L,03.1,N,01.6,M,005.7,K*66
$IIMWD,,,318.,M,00.3,N,00.2,M*05
$IIMTW,19.2,C*19
$IIVWT,088.,L,00.3,N,00.2,M,000.6,K*66
$IIHDG,045.,,,,*78
$IIHDM,045.,M*13
$IIGLL,4730.213,N,00221.871,W,135850,A,A*47
$IIZDA,135850,26,10,2017,,*54
$IIVTG,043.,T,,M,03.1,N,05.8,K,A*22
$IIDPT,0008.8,,*72
$IIDBT,0028.8,f,0008.8,M,,*7B
$IIVLW,0129.0,N,030.16,N*43
$IIVHW,,,045.,M,03.08,N,05.71,K*16
$IIMWV,354,R,03.2,N,A*10
$IIVWR,006.,L,03.2,N,01.6,M,005.9,K*6B
$IIMWD,,,334.,M,00.3,N,00.2,M*0B
$IIMTW,19.2,C*19
$IIVWT,071.,L,00.3,N,00.2,M,000.6,K*60
$IIHDG,045.,,,,*78
$IIHDM,045.,M*13
$IIGLL,4730.213,N,00221.871,W,135852,A,A*45
$IIZDA,135852,26,10,2017,,*56
$IIVTG,043.,T,,M,03.1,N,05.8,K,A*22
$IIDPT,0008.8,,*72
$IIDBT,0028.8,f,0008.8,M,,*7B
$IIVLW,0129.0,N,030.16,N*43
$IIVHW,,,045.,M,03.08,N,05.71,K*16
$IIMWV,354,R,03.2,N,A*10
$IIVWR,006.,L,03.2,N,01.6,M,005.9,K*6B
$IIMWD,,,332.,M,00.3,N,00.2,M*0D
$IIMTW,19.2,C*19
$IIVWT,073.,L,00.3,N,00.2,M,000.6,K*62
$IIHDG,045.,,,,*78
$IIHDM,045.,M*13
$IIGLL,4730.214,N,00221.869,W,135852,A,A*4B
$IIZDA,135852,26,10,2017,,*56
$IIVTG,045.,T,,M,03.2,N,05.9,K,A*26
$IIDPT,0008.8,,*72
$IIDBT,0028.8,f,0008.8,M,,*7B
$IIVLW,0129.0,N,030.16,N*43
$IIVHW,,,045.,M,03.08,N,05.71,K*16
$IIMWV,355,R,03.2,N,A*11
$IIVWR,005.,L,03.2,N,01.6,M,005.9,K*68
$IIMWD,,,336.,M,00.2,N,00.1,M*0B
$IIMTW,19.2,C*19
$IIVWT,069.,L,00.2,N,00.1,M,000.4,K*69
$IIHDG,045.,,,,*78
$IIHDM,045.,M*13
$IIGLL,4730.216,N,00221.867,W,135854,A,A*41
$IIZDA,135854,26,10,2017,,*50
$IIVTG,045.,T,,M,03.2,N,05.9,K,A*26
$IIDPT,0008.8,,*72
$IIDBT,0028.8,f,0008.8,M,,*7B
$IIVLW,0129.0,N,030.16,N*43
$IIVHW,,,045.,M,03.09,N,05.72,K*14
$IIMWV,355,R,03.2,N,A*11
$IIVWR,005.,L,03.2,N,01.6,M,005.9,K*68
$IIMWD,,,336.,M,00.2,N,00.1,M*0B
$IIMTW,19.2,C*19
$IIVWT,071.,L,00.2,N,00.1,M,000.4,K*60
$IIHDG,045.,,,,*78
$IIHDM,045.,M*13
$IIGLL,4730.216,N,00221.867,W,135854,A,A*41
$IIZDA,135854,26,10,2017,,*50
$IIVTG,044.,T,,M,03.1,N,05.8,K,A*25
$IIDPT,0008.8,,*72
$IIDBT,0028.8,f,0008.8,M,,*7B
$IIVLW,0129.0,N,030.16,N*43
$IIVHW,,,045.,M,03.10,N,05.74,K*1A
$IIMWV,355,R,03.2,N,A*11
$IIVWR,005.,L,03.2,N,01.6,M,005.9,K*68
$IIMWD,,,334.,M,00.2,N,00.1,M*09
$IIMTW,19.2,C*19
$IIVWT,071.,L,00.2,N,00.1,M,000.4,K*60
$IIHDG,045.,,,,*78
$IIHDM,045.,M*13
$IIGLL,4730.217,N,00221.865,W,135856,A,A*40
$IIZDA,135856,26,10,2017,,*52
$IIVTG,044.,T,,M,03.1,N,05.8,K,A*25
$IIDPT,0008.8,,*72
$IIDBT,0028.8,f,0008.8,M,,*7B
$IIVLW,0129.0,N,030.16,N*43
$IIVHW,,,045.,M,03.10,N,05.74,K*1A
$IIMWV,355,R,03.2,N,A*11
$IIVWR,005.,L,03.2,N,01.6,M,005.9,K*68
$IIMWD,,,334.,M,00.2,N,00.1,M*09
$IIMTW,19.2,C*19
$IIVWT,071.,L,00.2,N,00.1,M,000.4,K*60
$IIHDG,045.,,,,*78
$IIHDM,045.,M*13
$IIGLL,4730.217,N,00221.865,W,135856,A,A*40
$IIZDA,135856,26,10,2017,,*52
$IIVTG,044.,T,,M,03.3,N,06.1,K,A*2D
$IIDPT,0008.8,,*72
$IIDBT,0028.8,f,0008.8,M,,*7B
$IIVLW,0129.0,N,030.16,N*43
$IIVHW,,,045.,M,03.09,N,05.72,K*14
$IIMWV,356,R,03.2,N,A*12
$IIVWR,004.,L,03.2,N,01.6,M,005.9,K*69
$IIMWD,,,334.,M,00.2,N,00.1,M*09
$IIMTW,19.2,C*19
$IIVWT,063.,L,00.2,N,00.1,M,000.4,K*63
$IIHDG,045.,,,,*78
$IIHDM,045.,M*13
$IIGLL,4730.218,N,00221.863,W,135858,A,A*47
$IIZDA,135858,26,10,2017,,*5C
$IIVTG,043.,T,,M,03.1,N,05.8,K,A*22
$IIDPT,0008.8,,*72
$IIDBT,0028.8,f,0008.8,M,,*7B
$IIVLW,0129.0,N,030.16,N*43
$IIVHW,,,045.,M,03.07,N,05.69,K*10
$IIMWV,356,R,03.2,N,A*12
$IIVWR,004.,L,03.2,N,01.6,M,005.9,K*69
$IIMWD,,,342.,M,00.2,N,00.1,M*08
$IIMTW,19.2,C*19
$IIVWT,063.,L,00.2,N,00.1,M,000.4,K*63
$IIHDG,045.,,,,*78
$IIHDM,045.,M*13
$IIGLL,4730.218,N,00221.863,W,135900,A,A*4B
$IIZDA,135900,26,10,2017,,*50
$IIVTG,043.,T,,M,03.1,N,05.8,K,A*22
$IIDPT,0008.8,,*72
$IIDBT,0028.8,f,0008.8,M,,*7B
$IIVLW,0129.0,N,030.16,N*43
$IIVHW,,,046.,M,03.07,N,05.69,K*13
$IIMWV,356,R,03.2,N,A*12
$IIVWR,004.,L,03.2,N,01.6,M,005.9,K*69
$IIMWD,,,345.,M,00.2,N,00.1,M*0F
$IIMTW,19.2,C*19
$IIVWT,061.,L,00.2,N,00.1,M,000.4,K*61
$IIHDG,046.,,,,*7B
$IIHDM,046.,M*10
$IIGLL,4730.219,N,00221.862,W,135900,A,A*4B
$IIZDA,135900,26,10,2017,,*50
$IIVTG,043.,T,,M,03.1,N,05.8,K,A*22
$IIDPT,0008.8,,*72
$IIDBT,0028.8,f,0008.8,M,,*7B
$IIVLW,0129.0,N,030.16,N*43
$IIVHW,,,045.,M,03.07,N,05.69,K*10
$IIMWV,356,R,03.3,N,A*13
$IIVWR,004.,L,03.3,N,01.7,M,006.1,K*62
$IIMWD,,,352.,M,00.3,N,00.2,M*0B
$IIMTW,19.2,C*19
$IIVWT,053.,L,00.3,N,00.2,M,000.6,K*60
$IIHDG,046.,,,,*7B
$IIHDM,046.,M*10
$IIGLL,4730.219,N,00221.862,W,135900,A,A*4B
$IIZDA,135900,26,10,2017,,*50
$IIVTG,043.,T,,M,03.1,N,05.8,K,A*22
$IIDPT,0008.8,,*72
$IIDBT,0028.8,f,0008.8,M,,*7B
$IIVLW,0129.0,N,030.17,N*42
$IIVHW,,,046.,M,03.09,N,05.72,K*17
$IIMWV,355,R,03.3,N,A*10
$IIVWR,005.,L,03.3,N,01.7,M,006.1,K*63
$IIMTW,19.2,C*19
$IIVWT,047.,L,00.3,N,00.2,M,000.6,K*65
$IIHDG,046.,,,,*7B
$IIHDM,046.,M*10
$IIGLL,4730.221,N,00221.860,W,135902,A,A*40
$IIZDA,135902,26,10,2017,,*52
$IIVTG,042.,T,,M,03.1,N,05.8,K,A*23
$IIDPT,0008.8,,*72
$IIDBT,0028.8,f,0008.8,M,,*7B
$IIVLW,0129.0,N,030.17,N*42
$IIVHW,,,045.,M,03.08,N,05.71,K*16
$IIMWV,355,R,03.3,N,A*10
$IIVWR,005.,L,03.3,N,01.7,M,006.1,K*63
$IIMWD,,,352.,M,00.3,N,00.2,M*0B
$IIMTW,19.2,C*19
$IIVWT,054.,L,00.3,N,00.2,M,000.6,K*67
$IIHDG,046.,,,,*7B
$IIHDM,046.,M*10
$IIGLL,4730.221,N,00221.860,W,135904,A,A*46
$IIZDA,135904,26,10,2017,,*54
$IIVTG,042.,T,,M,03.1,N,05.8,K,A*23
$IIDPT,0008.7,,*7D
$IIDBT,0028.5,f,0008.7,M,,*79
$IIVLW,0129.0,N,030.17,N*42
$IIVHW,,,046.,M,03.09,N,05.72,K*17
$IIMWV,355,R,03.3,N,A*10
$IIVWR,005.,L,03.3,N,01.7,M,006.1,K*63
$IIMTW,19.2,C*19
$IIVWT,047.,L,00.3,N,00.2,M,000.6,K*65
$IIHDG,046.,,,,*7B
$IIHDM,046.,M*10
$IIGLL,4730.222,N,00221.858,W,135904,A,A*4E
$IIZDA,135904,26,10,2017,,*54
$IIVTG,044.,T,,M,03.1,N,05.8,K,A*25
$IIDPT,0008.7,,*7D
$IIDBT,0028.5,f,0008.7,M,,*79
$IIVLW,0129.0,N,030.17,N*42
$IIVHW,,,045.,M,03.08,N,05.71,K*16
$IIMWV,356,R,03.3,N,A*13
$IIVWR,004.,L,03.3,N,01.7,M,006.1,K*62
$IIMWD,,,352.,M,00.3,N,00.2,M*0B
$IIMTW,19.2,C*19
$IIVWT,054.,L,00.3,N,00.2,M,000.6,K*67
$IIHDG,046.,,,,*7B
$IIHDM,046.,M*10
$IIGLL,4730.223,N,00221.856,W,135906,A,A*43
$IIZDA,135906,26,10,2017,,*56
$IIVTG,044.,T,,M,03.2,N,05.9,K,A*27
$IIDPT,0008.7,,*7D
$IIDBT,0028.5,f,0008.7,M,,*79
$IIVLW,0129.0,N,030.17,N*42
$IIVHW,,,046.,M,03.09,N,05.72,K*17
$IIMWV,356,R,03.3,N,A*13
$IIVWR,004.,L,03.3,N,01.7,M,006.1,K*62
$IIMWD,,,358.,M,00.3,N,00.2,M*01
$IIMTW,19.2,C*19
$IIVWT,047.,L,00.3,N,00.2,M,000.6,K*65
$IIHDG,045.,,,,*78
$IIHDM,045.,M*13
$IIGLL,4730.223,N,00221.856,W,135906,A,A*43
$IIZDA,135906,26,10,2017,,*56
$IIVTG,044.,T,,M,03.2,N,05.9,K,A*27
$IIDPT,0008.6,,*7C
$IIDBT,0028.2,f,0008.6,M,,*7F
$IIVLW,0129.0,N,030.17,N*42
$IIVHW,,,045.,M,03.09,N,05.73,K*15
$IIMWV,356,R,03.3,N,A*13
$IIVWR,004.,L,03.3,N,01.7,M,006.1,K*62
$IIMWD,,,358.,M,00.3,N,00.2,M*01
$IIMTW,19.2,C*19
$IIVWT,049.,L,00.3,N,00.2,M,000.6,K*6B
$IIHDG,045.,,,,*78
$IIHDM,045.,M*13
$IIGLL,4730.225,N,00221.854,W,135908,A,A*49
$IIZDA,135908,26,10,2017,,*58
$IIVTG,044.,T,,M,03.2,N,05.9,K,A*27
$IIDPT,0008.7,,*7D
$IIDBT,0028.5,f,0008.7,M,,*79
$IIVLW,0129.0,N,030.17,N*42
$IIVHW,,,045.,M,03.10,N,05.74,K*1A
$IIMWV,356,R,03.3,N,A*13
$IIVWR,004.,L,03.3,N,01.7,M,006.1,K*62
$IIMWD,,,356.,M,00.3,N,00.2,M*0F
$IIMTA,26.0,C*01
$IIMTW,19.2,C*19
$IIVWT,049.,L,00.3,N,00.2,M,000.6,K*6B
$IIHDG,044.,,,,*79
$IIHDM,044.,M*12
$IIGLL,4730.225,N,00221.854,W,135908,A,A*49
$IIZDA,135908,26,10,2017,,*58
$IIVTG,043.,T,,M,03.2,N,05.9,K,A*20
$IIDPT,0008.6,,*7C
$IIDBT,0028.2,f,0008.6,M,,*7F
$IIVLW,0129.0,N,030.17,N*42
$IIVHW,,,044.,M,03.11,N,05.76,K*18
$IIMWV,356,R,03.3,N,A*13
$IIVWR,004.,L,03.3,N,01.7,M,006.1,K*62
$IIMWD,,,352.,M,00.3,N,00.2,M*0B
$IIMTA,26.0,C*01
$IIMTW,19.2,C*19
$IIVWT,052.,L,00.2,N,00.1,M,000.4,K*61
$IIHDG,044.,,,,*79
$IIHDM,044.,M*12
$IIGLL,4730.226,N,00221.853,W,135910,A,A*44
$IIZDA,135910,26,10,2017,,*51
$IIVTG,043.,T,,M,03.2,N,05.9,K,A*20
$IIDPT,0008.7,,*7D
$IIDBT,0028.5,f,0008.7,M,,*79
$IIVLW,0129.0,N,030.17,N*42
$IIVHW,,,044.,M,03.16,N,05.85,K*13
$IIMWV,357,R,03.3,N,A*12
$IIVWR,003.,L,03.3,N,01.7,M,006.1,K*65
$IIMWD,,,347.,M,00.2,N,00.1,M*0D
$IIMTA,26.0,C*01
$IIMTW,19.2,C*19
$IIVWT,057.,L,00.2,N,00.1,M,000.4,K*64
$IIHDG,044.,,,,*79
$IIHDM,044.,M*12
$IIGLL,4730.226,N,00221.853,W,135910,A,A*44
$IIZDA,135910,26,10,2017,,*51
$IIVTG,043.,T,,M,03.2,N,05.9,K,A*20
$IIDPT,0008.6,,*7C
$IIDBT,0028.2,f,0008.6,M,,*7F
$IIVLW,0129.0,N,030.17,N*42
$IIVHW,,,043.,M,03.16,N,05.85,K*14
$IIMWV,357,R,03.3,N,A*12
$IIVWR,003.,L,03.3,N,01.7,M,006.1,K*65
$IIMWD,,,354.,M,00.2,N,00.1,M*0F
$IIMTA,26.0,C*01
$IIMTW,19.2,C*19
$IIVWT,050.,L,00.2,N,00.1,M,000.4,K*63
$IIHDG,043.,,,,*7E
$IIHDM,043.,M*15
$IIGLL,4730.227,N,00221.851,W,135912,A,A*45
$IIZDA,135912,26,10,2017,,*53
$IIVTG,042.,T,,M,03.3,N,06.1,K,A*2B
$IIDPT,0008.6,,*7C
$IIDBT,0028.2,f,0008.6,M,,*7F
$IIVLW,0129.0,N,030.18,N*4D
$IIVHW,,,044.,M,03.18,N,05.89,K*11
$IIMWV,357,R,03.4,N,A*15
$IIVWR,003.,L,03.4,N,01.7,M,006.3,K*60
$IIMWD,,,004.,M,00.2,N,00.1,M*09
$IIMTA,26.0,C*01
$IIMTW,19.2,C*19
$IIVWT,040.,L,00.2,N,00.1,M,000.4,K*62
$IIHDG,043.,,,,*7E
$IIHDM,043.,M*15
$IIGLL,4730.227,N,00221.851,W,135914,A,A*43
$IIZDA,135914,26,10,2017,,*55
$IIVTG,042.,T,,M,03.3,N,06.1,K,A*2B
$IIDPT,0008.6,,*7C
$IIDBT,0028.2,f,0008.6,M,,*7F
$IIVLW,0129.0,N,030.18,N*4D
$IIVHW,,,043.,M,03.23,N,05.99,K*1F
$IIMWV,357,R,03.4,N,A*15
$IIVWR,003.,L,03.4,N,01.7,M,006.3,K*60
$IIMWD,,,359.,M,00.2,N,00.1,M*02
$IIMTA,26.0,C*01
$IIMTW,19.2,C*19
$IIVWT,044.,L,00.2,N,00.1,M,000.4,K*66
$IIHDG,043.,,,,*7E
$IIHDM,043.,M*15
$IIGLL,4730.229,N,00221.849,W,135914,A,A*44
$IIZDA,135914,26,10,2017,,*55
$IIVTG,040.,T,,M,03.4,N,06.3,K,A*2C
$IIDPT,0008.6,,*7C
$IIDBT,0028.2,f,0008.6,M,,*7F
$IIVLW,0129.0,N,030.18,N*4D
$IIVHW,,,043.,M,03.25,N,06.02,K*18
$IIMWV,357,R,03.4,N,A*15
$IIVWR,003.,L,03.4,N,01.7,M,006.3,K*60
$IIMWD,,,356.,M,00.2,N,00.1,M*0D
$IIMTA,26.0,C*01
$IIMTW,19.2,C*19
$IIVWT,047.,L,00.2,N,00.1,M,000.4,K*65
$IIHDG,043.,,,,*7E
$IIHDM,043.,M*15
$IIGLL,4730.229,N,00221.847,W,135916,A,A*48
$IIZDA,135916,26,10,2017,,*57
$IIVTG,040.,T,,M,03.4,N,06.3,K,A*2C
$IIDPT,0008.5,,*7F
$IIDBT,0027.9,f,0008.5,M,,*78
$IIVLW,0129.0,N,030.18,N*4D
$IIVHW,,,043.,M,03.28,N,06.08,K*1F
$IIMWV,358,R,03.4,N,A*1A
$IIVWR,002.,L,03.4,N,01.7,M,006.3,K*61
$IIMWD,,,352.,M,00.2,N,00.1,M*09
$IIMTA,26.0,C*01
$IIMTW,19.2,C*19
$IIVWT,051.,L,00.2,N,00.1,M,000.4,K*62
$IIHDG,043.,,,,*7E
$IIHDM,043.,M*15
$IIGLL,4730.230,N,00221.847,W,135916,A,A*40
$IIZDA,135916,26,10,2017,,*57
$IIVTG,042.,T,,M,03.4,N,06.3,K,A*2E
$IIDPT,0008.4,,*7E
$IIDBT,0027.5,f,0008.4,M,,*75
$IIVLW,0129.0,N,030.18,N*4D
$IIVHW,,,043.,M,03.29,N,06.10,K*17
$IIMWV,358,R,03.4,N,A*1A
$IIVWR,002.,L,03.4,N,01.7,M,006.3,K*61
$IIMTA,26.0,C*01
$IIMTW,19.2,C*19
$IIVWT,045.,L,00.1,N,00.1,M,000.2,K*62
$IIHDG,043.,,,,*7E
$IIHDM,043.,M*15
$IIGLL,4730.232,N,00221.845,W,135918,A,A*4E
$IIZDA,135918,26,10,2017,,*59
$IIVTG,042.,T,,M,03.4,N,06.3,K,A*2E
$IIDPT,0008.6,,*7C
$IIDBT,0028.2,f,0008.6,M,,*7F
$IIVLW,0129.0,N,030.18,N*4D
$IIVHW,,,043.,M,03.32,N,06.14,K*19
$IIMWV,357,R,03.5,N,A*14
$IIVWR,003.,L,03.5,N,01.8,M,006.5,K*68
$IIMWD,,,355.,M,00.1,N,00.1,M*0D
$IIMTA,26.0,C*01
$IIMTW,19.2,C*19
$IIVWT,040.,L,00.1,N,00.1,M,000.2,K*67
$IIHDG,043.,,,,*7E
$IIHDM,043.,M*15
$IIGLL,4730.232,N,00221.845,W,135918,A,A*4E
$IIZDA,135918,26,10,2017,,*59
$IIVTG,042.,T,,M,03.4,N,06.3,K,A*2E
$IIDPT,0008.6,,*7C
$IIDBT,0028.2,f,0008.6,M,,*7F
$IIVLW,0129.0,N,030.18,N*4D
$IIVHW,,,043.,M,03.36,N,06.22,K*18
$IIMWV,358,R,03.5,N,A*1B
$IIVWR,002.,L,03.5,N,01.8,M,006.5,K*69
$IIMWD,,,003.,M,00.1,N,00.1,M*0D
$IIMTA,26.0,C*01
$IIMTW,19.2,C*19
$IIVWT,040.,L,00.1,N,00.1,M,000.2,K*67
$IIHDG,043.,,,,*7E
$IIHDM,043.,M*15
$IIGLL,4730.232,N,00221.845,W,135920,A,A*45
$IIZDA,135920,26,10,2017,,*52
$IIVTG,042.,T,,M,03.4,N,06.3,K,A*2E
$IIDPT,0008.5,,*7F
$IIDBT,0027.9,f,0008.5,M,,*78
$IIVLW,0129.0,N,030.18,N*4D
$IIVHW,,,043.,M,03.39,N,06.27,K*12
$IIMWV,358,R,03.5,N,A*1B
$IIVWR,002.,L,03.5,N,01.8,M,006.5,K*69
$IIMWD,,,357.,M,00.1,N,00.1,M*0F
$IIMTA,26.0,C*01
$IIMTW,19.2,C*19
$IIVWT,046.,L,00.1,N,00.1,M,000.2,K*61
$IIHDG,043.,,,,*7E
$IIHDM,043.,M*15
$IIGLL,4730.233,N,00221.843,W,135920,A,A*42
$IIZDA,135920,26,10,2017,,*52
$IIVTG,042.,T,,M,03.5,N,06.5,K,A*29
$IIDPT,0008.5,,*7F
$IIDBT,0027.9,f,0008.5,M,,*78
$IIVLW,0129.0,N,030.18,N*4D
$IIVHW,,,043.,M,03.39,N,06.27,K*12
$IIMWV,358,R,03.5,N,A*1B
$IIVWR,002.,L,03.5,N,01.8,M,006.5,K*69
$IIMWD,,,357.,M,00.1,N,00.1,M*0F
$IIMTA,26.0,C*01
$IIMTW,19.2,C*19
$IIVWT,046.,L,00.1,N,00.1,M,000.2,K*61
$IIHDG,043.,,,,*7E
$IIHDM,043.,M*15
$IIGLL,4730.234,N,00221.841,W,135922,A,A*45
$IIZDA,135922,26,10,2017,,*50
$IIVTG,042.,T,,M,03.5,N,06.5,K,A*29
$IIDPT,0008.4,,*7E
$IIDBT,0027.5,f,0008.4,M,,*75
$IIVLW,0129.0,N,030.18,N*4D
$IIVHW,,,043.,M,03.40,N,06.30,K*1A
$IIMWV,359,R,03.5,N,A*1A
$IIVWR,001.,L,03.5,N,01.8,M,006.5,K*6A
$IIMWD,,,352.,M,00.1,N,00.1,M*0A
$IIMTA,26.0,C*01
$IIMTW,19.2,C*19
$IIVWT,051.,L,00.1,N,00.1,M,000.2,K*67
$IIHDG,044.,,,,*79
$IIHDM,044.,M*12
$IIGLL,4730.234,N,00221.841,W,135924,A,A*43
$IIZDA,135924,26,10,2017,,*56
$IIVTG,042.,T,,M,03.5,N,06.5,K,A*29
$IIDPT,0008.4,,*7E
$IIDBT,0027.5,f,0008.4,M,,*75
$IIVLW,0129.0,N,030.19,N*4C
$IIVHW,,,044.,M,03.41,N,06.31,K*1D
$IIMWV,359,R,03.5,N,A*1A
$IIVWR,001.,L,03.5,N,01.8,M,006.5,K*6A
$IIMWD,,,012.,M,00.1,N,00.1,M*0D
$IIMTA,26.0,C*01
$IIMTW,19.2,C*19
$IIVWT,032.,L,00.1,N,00.1,M,000.2,K*62
$IIHDG,044.,,,,*79
$IIHDM,044.,M*12
$IIGLL,4730.236,N,00221.840,W,135924,A,A*40
$IIZDA,135924,26,10,2017,,*56
$IIVTG,042.,T,,M,03.5,N,06.5,K,A*29
$IIDPT,0008.4,,*7E
$IIDBT,0027.5,f,0008.4,M,,*75
$IIVLW,0129.0,N,030.19,N*4C
$IIVHW,,,044.,M,03.41,N,06.32,K*1E
$IIMWV,359,R,03.6,N,A*19
$IIVWR,001.,L,03.6,N,01.9,M,006.7,K*6A
$IIMWD,,,010.,M,00.1,N,00.1,M*0F
$IIMTA,26.0,C*01
$IIMTW,19.2,C*19
$IIVWT,034.,L,00.1,N,00.1,M,000.2,K*64
$IIHDG,044.,,,,*79
$IIHDM,044.,M*12
$IIGLL,4730.236,N,00221.840,W,135926,A,A*42
$IIZDA,135926,26,10,2017,,*54
$IIVTG,042.,T,,M,03.5,N,06.5,K,A*29
$IIDPT,0008.4,,*7E
$IIDBT,0027.5,f,0008.4,M,,*75
$IIVLW,0129.0,N,030.19,N*4C
$IIVHW,,,044.,M,03.43,N,06.35,K*1B
$IIMWV,000,R,03.6,N,A*16
$IIVWR,000.,R,03.6,N,01.9,M,006.7,K*75
$IIMWD,,,044.,M,00.1,N,00.1,M*0E
$IIMTA,26.0,C*01
$IIMTW,19.2,C*19
$IIVWT,000.,R,00.1,N,00.1,M,000.2,K*7D
$IIHDG,044.,,,,*79
$IIHDM,044.,M*12
$IIGLL,4730.237,N,00221.838,W,135926,A,A*4C
$IIZDA,135926,26,10,2017,,*54
$IIVTG,042.,T,,M,03.5,N,06.5,K,A*29
$IIDPT,0008.4,,*7E
$IIDBT,0027.5,f,0008.4,M,,*75
$IIVLW,0129.0,N,030.19,N*4C
$IIVHW,,,044.,M,03.43,N,06.35,K*1B
$IIMWV,000,R,03.6,N,A*16
$IIVWR,000.,R,03.6,N,01.9,M,006.7,K*75
$IIMWD,,,044.,M,00.1,N,00.1,M*0E
$IIMTA,26.0,C*01
$IIMTW,19.2,C*19
$IIVWT,000.,R,00.1,N,00.1,M,000.2,K*7D
$IIHDG,044.,,,,*79
$IIHDM,044.,M*12
$IIGLL,4730.239,N,00221.836,W,135928,A,A*42
$IIZDA,135928,26,10,2017,,*5A
$IIVTG,042.,T,,M,03.5,N,06.5,K,A*29
$IIDPT,0008.4,,*7E
$IIDBT,0027.5,f,0008.4,M,,*75
$IIVLW,0129.0,N,030.19,N*4C
$IIVHW,,,044.,M,03.47,N,06.42,K*1F
$IIMWV,001,R,03.6,N,A*17
$IIVWR,001.,R,03.6,N,01.9,M,006.7,K*74
$IIMWD,,,044.,M,00.1,N,00.1,M*0E
$IIMTA,26.0,C*01
$IIMTW,19.2,C*19
$IIVWT,000.,R,00.1,N,00.1,M,000.2,K*7D
$IIHDG,044.,,,,*79
$IIHDM,044.,M*12
$IIGLL,4730.239,N,00221.836,W,135928,A,A*42
$IIZDA,135928,26,10,2017,,*5A
$IIVTG,043.,T,,M,03.6,N,06.7,K,A*29
$IIDPT,0008.4,,*7E
$IIDBT,0027.5,f,0008.4,M,,*75
$IIVLW,0129.0,N,030.19,N*4C
$IIVHW,,,044.,M,03.47,N,06.42,K*1F
$IIMWV,001,R,03.6,N,A*17
$IIVWR,001.,R,03.6,N,01.9,M,006.7,K*74
$IIMTA,26.0,C*01
$IIMTW,19.2,C*19
$IIVWT,024.,R,00.1,N,00.1,M,000.2,K*7B
$IIHDG,044.,,,,*79
$IIHDM,044.,M*12
$IIGLL,4730.240,N,00221.834,W,135930,A,A*47
$IIZDA,135930,26,10,2017,,*53
$IIVTG,043.,T,,M,03.5,N,06.5,K,A*28
$IIDPT,0008.4,,*7E
$IIDBT,0027.5,f,0008.4,M,,*75
$IIVLW,0129.0,N,030.19,N*4C
$IIVHW,,,044.,M,03.49,N,06.46,K*15
$IIMWV,001,R,03.6,N,A*17
$IIVWR,001.,R,03.6,N,01.9,M,006.7,K*74
$IIMTA,26.0,C*01
$IIMTW,19.2,C*19
