Terminal log file
Date: 20/05/2020 - 19:54:17
-----------------------------------------------
$GPGSV,4,1,13,01,62,291,45,03,29,215,40,08,58,151,47,10,18,048,39*77
$GPGSV,4,2,13,11,87,051,46,14,28,107,45,17,9,215,40,08,58,151,47,10,18,048,39*77
$GPGSV,4,2,13,00,312,,22,57,209,47*70
$GPGSV,4,3,13,27,25,140,45,28,27,309,44,32,32,081,46,39,29,145,35*73
$GPGSV,4,4,13,40,13,115,34*4F
$GPRMC,175741.00,A,4729.97725,N,00222.58281,W,0.017,,200520,,,D*67
$GPVTG,,T,,M,0.017,N,0.031,K,D*22
$GPGGA,175741.00,4729.97725,N,00222.58281,W,2,11,0.90,8.8,M,48.7,M,,0000*4C
$GPGSA,A,3,27,08,10,11,03,01,28,40,22,32,14,,1.65,0.90,1.39*06
$GPGSV,4,1,13,01,62,291,45,03,29,215,40,08,58,151,47,10,18,048,40*79
$GPGSV,4,2,13,11,87,051,47,14,28,107,45,17,00,312,,22,57,209,47*71
$GPGSV,4,3,13,27,25,140,45,28,27,309,43,32,32,081,47,39,29,145,35*75
$GPGSV,4,4,13,40,13,115,34*4F
$GPRMC,175742.00,A,4729.97720,N,00222.58279,W,0.030,,200520,,,D*63
$GPVTG,,T,,M,0.030,N,0.055,K,D*25
$GPGGA,175742.00,4729.97720,N,00222.58279,W,2,11,0.90,8.9,M,48.7,M,,0000*4C
$GPGSA,A,3,27,08,10,11,03,01,28,40,22,32,14,,1.65,0.90,1.39*06
$GPGSV,4,1,13,01,62,291,45,03,29,215,40,08,58,151,47,10,18,048,40*79
$GPGSV,4,2,13,11,87,051,47,14,28,106,45,17,00,312,,22,57,209,47*70
$GPGSV,4,3,13,27,25,140,45,28,27,309,44,32,32,081,46,39,29,145,35*73
$GPGSV,4,4,13,40,13,115,35*4E
$GPRMC,175743.00,A,4729.97715,N,00222.58277,W,0.011,,200520,,,D*69
$GPVTG,,T,,M,0.011,N,0.020,K,D*24
$GPGGA,175743.00,4729.97715,N,00222.58277,W,2,11,0.90,9.0,M,48.7,M,,0000*4D
$GPGSA,A,3,27,08,10,11,03,01,28,40,22,32,14,,1.65,0.90,1.39*06
$GPGSV,4,1,13,01,62,291,45,03,29,215,40,08,58,151,47,10,18,048,40*79
$GPGSV,4,2,13,11,87,051,46,14,28,106,44,17,00,312,,22,57,209,47*70
$GPGSV,4,3,13,27,25,140,45,28,27,309,43,32,32,081,46,39,29,145,35*74
$GPGSV,4,4,13,40,13,115,35*4E
$GPRMC,175744.00,A,4729.97709,N,00222.58275,W,0.018,,200520,,,D*68
$GPVTG,,T,,M,0.018,N,0.033,K,D*2F
$GPGGA,175744.00,4729.97709,N,00222.58275,W,2,11,0.90,9.2,M,48.7,M,,0000*47
$GPGSA,A,3,27,08,10,11,03,01,28,40,22,32,14,,1.65,0.90,1.39*06
$GPGSV,4,1,13,01,62,291,45,03,29,215,40,08,58,151,47,10,18,048,40*79
$GPGSV,4,2,13,11,87,051,46,14,28,106,44,17,00,312,,22,57,209,47*70
$GPGSV,4,3,13,27,25,140,45,28,27,309,44,32,32,081,46,39,29,145,35*73
$GPGSV,4,4,13,40,13,115,35*4E
$GPRMC,175745.00,A,4729.97704,N,00222.58273,W,0.024,,200520,,,D*6D
$GPVTG,,T,,M,0.024,N,0.045,K,D*21
$GPGGA,175745.00,4729.97704,N,00222.58273,W,2,11,0.90,9.3,M,48.7,M,,0000*4C
$GPGSA,A,3,27,08,10,11,03,01,28,40,22,32,14,,1.65,0.90,1.39*06
$GPGSV,4,1,13,01,62,291,45,03,29,215,40,08,58,151,47,10,18,048,40*79
$GPGSV,4,2,13,11,87,051,46,14,28,106,44,17,01,312,,22,57,209,47*71
$GPGSV,4,3,13,27,25,140,45,28,27,309,44,32,32,081,46,39,29,145,35*73
$GPGSV,4,4,13,40,13,115,35*4E
$GPGLL,4729.97704,N,00222.58273,W,175745.00,A,D*77
$GPRMC,175746.00,A,4729.97700,N,00222.58272,W,0.007,,200520,,,D*6A
$GPVTG,,T,,M,0.007,N,0.013,K,D*23
$GPGGA,175746.00,4729.97700,N,00222.58272,W,2,11,0.90,9.4,M,48.7,M,,0000*4D
$GPGSA,A,3,27,08,10,11,03,01,28,40,22,32,14,,1.65,0.90,1.39*06
$GPGSV,4,1,13,01,62,291,45,03,29,215,41,08,58,151,47,10,18,048,40*78
$GPGSV,4,2,13,11,87,051,46,14,28,106,44,17,01,312,,22,57,209,47*71
$GPGSV,4,3,13,27,25,140,45,28,27,309,44,32,32,081,46,39,29,145,35*73
$GPGSV,4,4,13,40,13,115,35*4E
$GPGLL,4729.97700,N,00222.58272,W,175746.00,A,D*71
$GPRMC,175747.00,A,4729.97697,N,00222.58271,W,0.022,,200520,,,D*60
$GPVTG,,T,,M,0.022,N,0.040,K,D*22
$GPGGA,175747.00,4729.97697,N,00222.58271,W,2,11,0.90,9.5,M,48.7,M,,0000*41
$GPGSA,A,3,27,08,10,11,03,01,28,40,22,32,14,,1.65,0.90,1.39*06
$GPGSV,4,1,13,01,62,291,45,03,29,215,41,08,58,151,47,10,18,048,40*78
$GPGSV,4,2,13,11,87,051,46,14,28,106,44,17,01,312,,22,57,209,47*71
$GPGSV,4,3,13,27,25,140,45,28,27,309,44,32,32,081,47,39,29,145,35*72
$GPGSV,4,4,13,40,13,115,35*4E
$GPGLL,4729.97697,N,00222.58271,W,175747.00,A,D*7C
$GPRMC,175748.00,A,4729.97695,N,00222.58270,W,0.004,,200520,,,D*68
$GPVTG,,T,,M,0.004,N,0.008,K,D*2A
$GPGGA,175748.00,4729.97695,N,00222.58270,W,2,11,0.90,9.5,M,48.7,M,,0000*4D
$GPGSA,A,3,27,08,10,11,03,01,28,40,22,32,14,,1.65,0.90,1.39*06
$GPGSV,4,1,13,01,62,291,45,03,29,215,41,08,58,151,47,10,18,048,39*76
$GPGSV,4,2,13,11,87,051,46,14,28,106,44,17,01,312,,22,57,209,47*71
$GPGSV,4,3,13,27,25,140,46,28,27,309,43,32,32,081,47,39,29,145,35*76
$GPTXT,01,01,00,txbuf alloc*7F
$GPRMC,175749.00,A,4729.97694,N,00222.58270,W,0.005,,200520,,,D*69
$GPVTG,,T,,M,0.005,N,0.009,K,D*2A
$GPGGA,175749.00,4729.97694,N,00222.58270,W,2,11,0.90,9.6,M,48.7,M,,0000*4E
$GPGSA,A,3,27,08,10,11,03,01,28,40,22,32,14,,1.65,0.90,1.39*06
$GPGSV,4,1,13,01,62,291,44,03,29,215,40,08,58,151,47,10,18,048,40*78
$GPGSV,4,2,13,11,87,051,46,14,28,106,45,17,01,312,,22,57,209,47*70
$GPGSV,4,3,13,27,25,140,46,28,27,309,43,32,32,081,47,39,29,145,34*77
$GPGSV,4,4,13,40,13,115,35*4E
$GPRMC,175750.00,A,4729.97693,N,00222.58270,W,0.010,,200520,,,D*62
$GPVTG,,T,,M,0.010,N,0.019,K,D*2F
$GPGGA,175750.00,4729.97693,N,00222.58270,W,2,11,0.90,9.7,M,48.7,M,,0000*40
$GPGSA,A,3,27,08,10,11,03,01,28,40,22,32,14,,1.65,0.90,1.39*06
$GPRMC,175751.00,A,4729.97691,N,00222.58269,W,0.011,,200520,,,D*68
$GPVTG,,T,,M,0.011,N,0.020,K,D*24
$GPGGA,175751.00,4729.97691,N,00222.58269,W,2,11,0.90,9.7,M,48.7,M,,0000*4B
$GPGSA,A,3,27,08,10,11,03,01,28,40,22,32,14,,1.65,0.90,1.39*06
$GPGSV,4,1,13,01,62,291,44,03,29,215,40,08,58,151,47,10,18,048,39*76
$GPGSV,4,2,13,11,87,051,46,14,28,106,45,17,01,312,,22,57,209,47*70
$GPGSV,4,3,13,27,25,140,46,28,27,309,43,32,32,081,47,39,29,145,35*76
$GPGSV,4,4,13,40,13,115,34*4F
$GPRMC,175752.00,A,4729.97691,N,00222.58271,W,0.016,,200520,,,D*65
$GPVTG,,T,,M,0.016,N,0.030,K,D*22
$GPGGA,175752.00,4729.97691,N,00222.58271,W,2,11,0.90,9.7,M,48.7,M,,0000*41
$GPGSA,A,3,27,08,10,11,03,01,28,40,22,32,14,,1.65,0.90,1.39*06
$GPGSV,4,1,13,01,62,291,44,03,29,215,40,08,58,151,47,10,18,048,40*78
$GPGSV,4,2,13,11,87,051,46,14,28,106,45,17,01,312,,22,57,209,47*70
$GPGSV,4,3,13,27,25,140,46,28,27,309,43,32,32,081,47,39,29,145,35*76
$GPGSV,4,4,13,40,13,115,34*4F
$GPRMC,175753.00,A,4729.97691,N,00222.58271,W,0.009,,200520,,,D*6A
$GPVTG,,T,,M,0.009,N,0.018,K,D*26
$GPGGA,175753.00,4729.97691,N,00222.58271,W,2,11,0.90,9.7,M,48.7,M,,0000*40
$GPGSA,A,3,27,08,10,11,03,01,28,40,22,32,14,,1.65,0.90,1.39*06
$GPGSV,4,1,13,01,62,291,44,03,29,215,40,08,58,151,47,10,18,048,40*78
$GPGSV,4,2,13,11,87,051,46,14,28,106,45,17,01,312,,22,57,209,47*70
$GPGSV,4,3,13,27,25,140,45,28,27,309,43,32,32,081,47,39,29,145,34*74
$GPGSV,4,4,13,40,13,115,34*4F
$GPRMC,175754.00,A,4729.97690,N,00222.58273,W,0.011,,200520,,,D*67
$GPVTG,,T,,M,0.011,N,0.020,K,D*24
$GPGGA,175754.00,4729.97690,N,00222.58273,W,2,11,0.90,9.7,M,48.7,M,,0000*44
$GPGSA,A,3,27,08,10,11,03,01,28,40,22,32,14,,1.65,0.90,1.39*06
$GPGSV,4,1,13,01,62,291,44,03,29,215,40,08,58,151,47,10,18,048,40*78
$GPGSV,4,2,13,11,87,051,46,14,28,106,45,17,01,312,,22,57,209,47*70
$GPGSV,4,3,13,27,25,140,45,28,27,309,43,32,32,081,47,39,29,145,35*75
$GPGSV,4,4,13,40,13,115,34*4F
$GPRMC,175755.00,A,4729.97691,N,00222.58275,W,0.003,,200520,,,D*62
$GPVTG,,T,,M,0.003,N,0.005,K,D*20
$GPGGA,175755.00,4729.97691,N,00222.58275,W,2,11,0.90,9.7,M,48.7,M,,0000*42
$GPGSA,A,3,27,08,10,11,03,01,28,40,22,32,14,,1.65,0.90,1.39*06
$GPGSV,4,1,13,01,62,291,44,03,29,215,40,08,58,151,47,10,18,048,39*76
$GPGSV,4,2,13,11,87,051,46,14,28,106,44,17,01,312,,22,57,209,47*71
$GPGSV,4,3,13,27,25,140,46,28,27,309,43,32,32,081,47,39,29,145,35*76
$GPGSV,4,4,13,40,13,115,34*4F
$GPRMC,175756.00,A,4729.97693,N,00222.58278,W,0.018,,200520,,,D*64
$GPVTG,,T,,M,0.018,N,0.033,K,D*2F
$GPGGA,175756.00,4729.97693,N,00222.58278,W,2,11,0.90,9.7,M,48.7,M,,0000*4E
$GPGSA,A,3,27,08,10,11,03,01,28,40,22,32,14,,1.65,0.90,1.39*06
$GPGSV,4,1,13,01,62,291,44,03,29,215,38,08,58,151,48,10,18,048,39*76
$GPGSV,4,2,13,11,87,051,46,14,28,106,44,17,01,312,,22,57,209,47*71
$GPGSV,4,3,13,27,25,140,46,28,27,309,42,32,32,081,47,39,29,145,34*76
$GPGSV,4,4,13,40,13,115,34*4F
$GPGLL,4729.97693,N,00222.58278,W,175756.00,A,D*71
$GPRMC,175757.00,A,4729.97695,N,00222.58283,W,0.005,,200520,,,D*6B
$GPVTG,,T,,M,0.005,N,0.009,K,D*2A
$GPGGA,175757.00,4729.97695,N,00222.58283,W,2,11,0.90,9.6,M,48.7,M,,0000*4C
$GPGSA,A,3,27,08,10,11,03,01,28,40,22,32,14,,1.65,0.90,1.39*06
$GPGSV,4,1,13,01,62,291,44,03,29,215,39,08,58,151,48,10,18,048,39*77
$GPGSV,4,2,13,11,87,051,46,14,28,106,44,17,01,312,,22,57,209,47*71
$GPGSV,4,3,13,27,25,140,46,28,27,309,42,32,32,081,47,39,29,145,34*76
$GPGSV,4,4,13,40,13,115,34*4F
$GPGLL,4729.97695,N,00222.58283,W,175757.00,A,D*72
$GPRMC,175758.00,A,4729.97698,N,00222.58285,W,0.004,,200520,,,D*6E
$GPVTG,,T,,M,0.004,N,0.008,K,D*2A
$GPGGA,175758.00,4729.97698,N,00222.58285,W,2,11,0.90,9.6,M,48.7,M,,0000*48
$GPGSA,A,3,27,08,10,11,03,01,28,40,22,32,14,,1.65,0.90,1.39*06
$GPGSV,4,1,13,01,62,291,44,03,29,215,39,08,58,151,48,10,18,048,39*77
$GPGSV,4,2,13,11,87,051,46,14,28,106,44,17,01,312,,22,57,209,47*71
$GPGSV,4,3,13,27,25,140,46,28,27,309,42,32,32,081,47,39,29,145,35*77
$GPGSV,4,4,13,40,13,115,35*4E
$GPGLL,4729.97698,N,00222.58285,W,175758.00,A,D*76
$GPRMC,175759.00,A,4729.97700,N,00222.58289,W,0.021,,200520,,,D*64
$GPVTG,,T,,M,0.021,N,0.039,K,D*2F
$GPGGA,175759.00,4729.97700,N,00222.58289,W,2,11,0.90,9.5,M,48.7,M,,0000*46
$GPGSA,A,3,27,08,10,11,03,01,28,40,22,32,14,,1.65,0.90,1.39*06
$GPGSV,4,1,13,01,62,291,44,03,29,215,38,08,58,151,48,10,18,048,40*78
$GPGSV,4,2,13,11,87,051,46,14,28,106,44,17,01,312,,22,57,209,47*71
$GPGSV,4,3,13,27,25,140,46,28,27,309,42,32,32,081,46,39,29,145,35*76
$GPGSV,4,4,13,40,13,115,35*4E
$GPTXT,01,01,00,txbuf alloc*7F
$GPRMC,175800.00,A,4729.97702,N,00222.58293,W,0.013,,200520,,,D*6F
$GPVTG,,T,,M,0.013,N,0.023,K,D*25
$GPGGA,175800.00,4729.97702,N,00222.58293,W,2,11,0.90,9.5,M,48.7,M,,0000*4C
$GPGSA,A,3,27,08,10,11,03,01,28,40,22,32,14,,1.65,0.90,1.39*06
$GPGSV,4,1,13,01,62,291,44,03,29,215,38,08,58,151,48,10,18,048,40*78
$GPGSV,4,2,13,11,87,051,46,14,28,106,44,17,01,312,,22,57,209,47*71
$GPGSV,4,3,13,27,25,140,46,28,27,309,43,32,32,081,47,39,29,145,34*77
$GPGSV,4,4,13,40,13,115,34*4F
$GPRMC,175801.00,A,4729.97703,N,00222.58296,W,0.015,,200520,,,D*6C
$GPVTG,,T,,M,0.015,N,0.028,K,D*28
$GPGGA,175801.00,4729.97703,N,00222.58296,W,2,11,0.90,9.4,M,48.7,M,,0000*48
$GPGSA,A,3,27,08,10,11,03,01,28,40,22,32,14,,1.65,0.90,1.39*06
$GPGSV,4,1,13,01,62,291,44,03,29,215,37,08,58,151,48,10,18,048,40*77
$GPRMC,175802.00,A,4729.97704,N,00222.58300,W,0.016,,200520,,,D*65
$GPVTG,,T,,M,0.016,N,0.030,K,D*22
$GPGGA,175802.00,4729.97704,N,00222.58300,W,2,11,0.90,9.4,M,48.7,M,,0000*42
$GPGSA,A,3,27,08,10,11,03,01,28,40,22,32,14,,1.65,0.90,1.39*06
$GPGSV,4,1,13,01,62,291,44,03,29,215,37,08,58,151,48,10,18,048,39*79
$GPGSV,4,2,13,11,87,051,46,14,28,106,44,17,01,312,,22,57,209,47*71
$GPGSV,4,3,13,27,25,140,46,28,27,309,42,32,32,081,47,39,29,145,35*77
$GPGSV,4,4,13,40,13,115,34*4F
$GPRMC,175803.00,A,4729.97704,N,00222.58303,W,0.018,,200520,,,D*69
$GPVTG,,T,,M,0.018,N,0.033,K,D*2F
$GPGGA,175803.00,4729.97704,N,00222.58303,W,2,11,0.90,9.3,M,48.7,M,,0000*47
$GPGSA,A,3,27,08,10,11,03,01,28,40,22,32,14,,1.65,0.90,1.39*06
$GPGSV,4,1,13,01,62,291,44,03,29,215,37,08,58,151,48,10,18,048,40*77
$GPGSV,4,2,13,11,87,051,46,14,28,106,44,17,01,312,,22,57,209,47*71
$GPGSV,4,3,13,27,25,140,46,28,27,309,42,32,32,081,47,39,29,145,35*77
$GPGSV,4,4,13,40,13,115,34*4F
$GPRMC,175804.00,A,4729.97704,N,00222.58305,W,0.011,,200520,,,D*61
$GPVTG,,T,,M,0.011,N,0.020,K,D*24
$GPGGA,175804.00,4729.97704,N,00222.58305,W,2,11,0.90,9.3,M,48.7,M,,0000*46
$GPGSA,A,3,27,08,10,11,03,01,28,40,22,32,14,,1.65,0.90,1.39*06
$GPGSV,4,1,13,01,62,291,44,03,29,215,36,08,58,151,48,10,18,048,40*76
$GPGSV,4,2,13,11,87,051,46,14,28,106,44,17,01,312,,22,57,209,47*71
$GPGSV,4,3,13,27,25,140,46,28,27,309,42,32,32,081,47,39,29,145,35*77
$GPGSV,4,4,13,40,13,115,34*4F
$GPRMC,175805.00,A,4729.97705,N,00222.58310,W,0.011,,200520,,,D*65
$GPVTG,,T,,M,0.011,N,0.020,K,D*24
$GPGGA,175805.00,4729.97705,N,00222.58310,W,2,11,0.90,9.2,M,48.7,M,,0000*43
$GPGSA,A,3,27,08,10,11,03,01,28,40,22,32,14,,1.65,0.90,1.39*06
$GPGSV,4,1,13,01,62,291,44,03,29,215,36,08,58,151,48,10,18,048,40*76
$GPGSV,4,2,13,11,87,051,46,14,28,106,44,17,01,312,,22,57,209,47*71
$GPGSV,4,3,13,27,25,140,46,28,27,309,40,32,32,081,47,39,29,145,35*75
$GPGSV,4,4,13,40,13,115,34*4F
$GPRMC,175806.00,A,4729.97706,N,00222.58318,W,0.006,,200520,,,D*6B
$GPVTG,,T,,M,0.006,N,0.010,K,D*21
$GPGGA,175806.00,4729.97706,N,00222.58318,W,2,11,0.90,9.0,M,48.7,M,,0000*49
$GPGSA,A,3,27,08,10,11,03,01,28,40,22,32,14,,1.65,0.90,1.39*06
$GPGSV,4,1,13,01,62,291,44,03,29,215,37,08,58,151,48,10,18,048,41*76
$GPGSV,4,2,13,11,87,051,46,14,28,106,44,17,01,312,,22,57,209,47*71
$GPGSV,4,3,13,27,25,140,46,28,27,309,41,32,32,081,47,39,29,145,35*74
$GPGSV,4,4,13,40,13,115,34*4F
$GPRMC,175807.00,A,4729.97707,N,00222.58324,W,0.015,,200520,,,D*66
$GPVTG,,T,,M,0.015,N,0.028,K,D*28
$GPGGA,175807.00,4729.97707,N,00222.58324,W,2,11,0.90,8.9,M,48.7,M,,0000*4E
$GPGSA,A,3,27,08,10,11,03,01,28,40,22,32,14,,1.65,0.90,1.39*06
$GPGSV,4,1,13,01,62,291,44,03,29,215,36,08,58,151,48,10,18,048,41*77
$GPGSV,4,2,13,11,87,051,46,14,28,106,44,17,01,312,,22,57,209,47*71
$GPGSV,4,3,13,27,25,140,46,28,27,309,42,32,32,081,47,39,29,145,35*77
$GPGSV,4,4,13,40,13,115,34*4F
$GPGLL,4729.97707,N,00222.58324,W,175807.00,A,D*7E
$GPRMC,175808.00,A,4729.97706,N,00222.58328,W,0.014,,200520,,,D*65
$GPVTG,,T,,M,0.014,N,0.026,K,D*27
$GPGGA,175808.00,4729.97706,N,00222.58328,W,2,11,0.90,8.9,M,48.7,M,,0000*4C
$GPGSA,A,3,27,08,10,11,03,01,28,40,22,32,14,,1.65,0.90,1.39*06
$GPGSV,4,1,13,01,62,291,44,03,29,215,36,08,58,151,48,10,18,048,42*74
$GPGSV,4,2,13,11,87,051,46,14,28,106,44,17,01,312,,22,57,209,47*71
$GPGSV,4,3,13,27,25,140,46,28,27,309,42,32,32,081,47,39,29,145,35*77
$GPGSV,4,4,13,40,13,115,34*4F
$GPGLL,4729.97706,N,00222.58328,W,175808.00,A,D*7C
$GPRMC,175809.00,A,4729.97705,N,00222.58332,W,0.014,,200520,,,D*6C
$GPVTG,,T,,M,0.014,N,0.027,K,D*26
$GPGGA,175809.00,4729.97705,N,00222.58332,W,2,11,0.90,8.8,M,48.7,M,,0000*44
$GPGSA,A,3,27,08,10,11,03,01,28,40,22,32,14,,1.65,0.90,1.39*06
$GPGSV,4,1,13,01,62,291,44,03,29,215,36,08,58,151,48,10,18,048,42*74
$GPGSV,4,2,13,11,87,051,46,14,28,106,43,17,01,312,,22,57,209,47*76
$GPGSV,4,3,13,27,25,140,46,28,27,309,42,32,32,081,47,39,29,145,35*77
$GPGSV,4,4,13,40,13,115,34*4F
$GPGLL,4729.97705,N,00222.58332,W,175809.00,A,D*75
$GPRMC,175810.00,A,4729.97705,N,00222.58338,W,0.010,,200520,,,D*6A
$GPVTG,,T,,M,0.010,N,0.019,K,D*2F
$GPGGA,175810.00,4729.97705,N,00222.58338,W,2,11,0.90,8.8,M,48.7,M,,0000*46
$GPGSA,A,3,27,08,10,11,03,01,28,40,22,32,14,,1.65,0.90,1.39*06
$GPGSV,4,1,13,01,62,291,44,03,29,215,36,08,58,151,48,10,18,048,42*74
$GPGSV,4,2,13,11,87,051,46,14,28,106,44,17,01,312,,22,57,209,47*71
$GPGSV,4,3,13,27,25,140,46,28,27,309,41,32,32,081,46,39,29,145,35*75
$GPTXT,01,01,00,txbuf alloc*7F
$GPRMC,175811.00,A,4729.97705,N,00222.58341,W,0.016,,200520,,,D*63
$GPVTG,,T,,M,0.016,N,0.030,K,D*22
$GPGGA,175811.00,4729.97705,N,00222.58341,W,2,11,0.90,8.8,M,48.7,M,,0000*49
$GPGSA,A,3,27,08,10,11,03,01,28,40,22,32,14,,1.65,0.90,1.39*06
$GPGSV,4,1,13,01,62,291,44,03,29,215,35,08,58,151,48,10,18,048,42*77
$GPGSV,4,2,13,11,87,051,46,14,28,106,43,17,01,312,,22,57,209,47*76
$GPGSV,4,3,13,27,25,140,46,28,27,309,42,32,32,081,46,39,29,145,35*76
$GPGSV,4,4,13,40,13,115,34*4F
$GPRMC,175812.00,A,4729.97703,N,00222.58345,W,0.010,,200520,,,D*64
$GPVTG,,T,,M,0.010,N,0.019,K,D*2F
$GPGGA,175812.00,4729.97703,N,00222.58345,W,2,11,0.90,8.7,M,48.7,M,,0000*47
$GPGSA,A,3,27,08,10,11,03,01,28,40,22,32,14,,1.65,0.90,1.39*06
$GPGSV,4,1,13,01,62,291,44,03,29,215,36,08,58,151,48,10,18,048,42*74
$GPRMC,175813.00,A,4729.97702,N,00222.58348,W,0.028,,200520,,,D*62
$GPVTG,,T,,M,0.028,N,0.051,K,D*28
$GPGGA,175813.00,4729.97702,N,00222.58348,W,2,11,0.90,8.7,M,48.7,M,,0000*4A
$GPGSA,A,3,27,08,10,11,03,01,28,40,22,32,14,,1.65,0.90,1.39*06
$GPGSV,4,1,13,01,62,291,44,03,29,215,36,08,58,151,48,10,18,048,42*74
$GPGSV,4,2,13,11,87,051,46,14,28,106,43,17,01,312,,22,57,209,47*76
$GPGSV,4,3,13,27,25,140,46,28,27,309,41,32,32,081,46,39,29,145,35*75
$GPRMC,175814.00,A,4729.97701,N,00222.58351,W,0.005,,200520,,,D*61
$GPVTG,,T,,M,0.005,N,0.010,K,D*22
$GPGGA,175814.00,4729.97701,N,00222.58351,W,2,11,0.90,8.6,M,48.7,M,,0000*47
$GPGSA,A,3,27,08,10,11,03,01,28,40,22,32,14,,1.65,0.90,1.39*06
$GPGSV,4,1,13,01,62,291,44,03,29,215,36,08,58,151,48,10,18,048,42*74
$GPGSV,4,2,13,11,87,051,46,14,28,106,44,17,01,312,,22,57,209,47*71
$GPGSV,4,3,13,27,25,140,46,28,27,309,41,32,32,081,46,39,29,145,35*75
$GPGSV,4,4,13,40,13,115,33*48
$GPRMC,175815.00,A,4729.97700,N,00222.58354,W,0.006,,200520,,,D*67
$GPVTG,,T,,M,0.006,N,0.012,K,D*23
$GPGGA,175815.00,4729.97700,N,00222.58354,W,2,11,0.90,8.6,M,48.7,M,,0000*42
$GPGSA,A,3,27,08,10,11,03,01,28,40,22,32,14,,1.65,0.90,1.39*06
$GPGSV,4,1,13,01,62,291,44,03,29,215,36,08,58,151,48,10,18,048,42*74
$GPGSV,4,2,13,11,87,051,46,14,28,106,43,17,01,312,,22,57,209,47*76
$GPGSV,4,3,13,27,25,140,46,28,27,309,42,32,32,081,47,39,29,145,34*76
$GPGSV,4,4,13,40,13,115,34*4F
$GPRMC,175816.00,A,4729.97699,N,00222.58356,W,0.015,,200520,,,D*65
$GPVTG,,T,,M,0.015,N,0.027,K,D*27
$GPGGA,175816.00,4729.97699,N,00222.58356,W,2,11,0.90,8.5,M,48.7,M,,0000*41
$GPGSA,A,3,27,08,10,11,03,01,28,40,22,32,14,,1.65,0.90,1.39*06
$GPGSV,4,1,13,01,62,291,44,03,29,215,36,08,58,151,48,10,18,048,42*74
$GPGSV,4,2,13,11,87,051,46,14,28,106,43,17,01,312,,22,57,209,47*76
$GPGSV,4,3,13,27,25,140,46,28,27,309,41,32,32,081,47,39,29,145,34*75
$GPGSV,4,4,13,40,13,115,34*4F
$GPRMC,175817.00,A,4729.97698,N,00222.58362,W,0.025,,200520,,,D*61
$GPVTG,,T,,M,0.025,N,0.045,K,D*20
$GPGGA,175817.00,4729.97698,N,00222.58362,W,2,11,0.90,8.4,M,48.7,M,,0000*47
$GPGSA,A,3,27,08,10,11,03,01,28,40,22,32,14,,1.65,0.90,1.39*06
$GPGSV,4,1,13,01,62,291,45,03,29,215,37,08,58,151,48,10,18,048,43*75
$GPGSV,4,2,13,11,87,051,46,14,28,106,43,17,01,312,,22,57,209,46*77
$GPGSV,4,3,13,27,25,140,46,28,27,309,41,32,32,081,47,39,29,145,34*75
$GPGSV,4,4,13,40,13,115,34*4F
$GPRMC,175818.00,A,4729.97697,N,00222.58367,W,0.014,,200520,,,D*66
$GPVTG,,T,,M,0.014,N,0.026,K,D*27
$GPGGA,175818.00,4729.97697,N,00222.58367,W,2,11,0.90,8.3,M,48.7,M,,0000*45
$GPGSA,A,3,27,08,10,11,03,01,28,40,22,32,14,,1.65,0.90,1.39*06
$GPGSV,4,1,13,01,62,291,45,03,29,215,37,08,58,151,49,10,18,048,43*74
$GPGSV,4,2,13,11,87,051,46,14,28,106,43,17,01,312,,22,57,209,46*77
$GPGSV,4,3,13,27,25,140,47,28,27,309,42,32,32,081,47,39,29,145,34*77
$GPGSV,4,4,13,40,13,115,34*4F
$GPGLL,4729.97697,N,00222.58367,W,175818.00,A,D*7F
$GPRMC,175819.00,A,4729.97697,N,00222.58370,W,0.008,,200520,,,D*6C
$GPVTG,,T,,M,0.008,N,0.016,K,D*29
$GPGGA,175819.00,4729.97697,N,00222.58370,W,2,11,0.90,8.2,M,48.7,M,,0000*43
$GPGSA,A,3,27,08,10,11,03,01,28,40,22,32,14,,1.65,0.90,1.39*06
$GPGSV,4,1,13,01,62,291,45,03,29,215,37,08,58,151,48,10,18,048,43*75
$GPGSV,4,2,13,11,87,051,46,14,28,106,43,17,01,312,,22,57,209,47*76
$GPGSV,4,3,13,27,25,140,46,28,27,309,42,32,32,081,47,39,29,145,34*76
$GPGSV,4,4,13,40,13,115,34*4F
$GPGLL,4729.97697,N,00222.58370,W,175819.00,A,D*78
$GPRMC,175820.00,A,4729.97697,N,00222.58376,W,0.031,,200520,,,D*6A
$GPVTG,,T,,M,0.031,N,0.057,K,D*26
$GPGGA,175820.00,4729.97697,N,00222.58376,W,2,11,0.90,8.1,M,48.7,M,,0000*4C
$GPGSA,A,3,27,08,10,11,03,01,28,40,22,32,14,,1.65,0.90,1.39*06
$GPGSV,4,1,13,01,62,291,45,03,29,215,37,08,58,151,48,10,18,048,43*75
$GPGSV,4,2,13,11,87,051,46,14,28,106,43,17,01,312,,22,57,209,46*77
$GPGSV,4,3,13,27,25,140,46,28,27,309,41,32,32,081,46,39,29,145,35*75
$GPGSV,4,4,13,40,13,115,34*4F
$GPGLL,4729.97697,N,00222.58376,W,175820.00,A,D*74
$GPRMC,175821.00,A,4729.97698,N,00222.58381,W,0.008,,200520,,,D*66
$GPVTG,,T,,M,0.008,N,0.014,K,D*2B
$GPGGA,175821.00,4729.97698,N,00222.58381,W,2,11,0.90,8.0,M,48.7,M,,0000*4B
$GPGSA,A,3,27,08,10,11,03,01,28,40,22,32,14,,1.65,0.90,1.39*06
$GPGSV,4,1,13,01,62,291,45,03,29,215,37,08,57,151,48,10,18,048,43*7A
$GPGSV,4,2,13,11,87,051,46,14,28,106,43,17,01,312,,22,57,209,46*77
$GPGSV,4,3,13,27,25,140,46,28,27,309,41,32,32,081,46,39,29,145,34*74
$GPGSV,4,4,13,40,13,115,34*4F
$GPTXT,01,01,00,txbuf alloc*7F
$GPRMC,175822.00,A,4729.97698,N,00222.58386,W,0.024,,200520,,,D*6C
$GPVTG,,T,,M,0.024,N,0.044,K,D*20
$GPGGA,175822.00,4729.97698,N,00222.58386,W,2,11,0.90,7.9,M,48.7,M,,0000*49
$GPGSA,A,3,27,08,10,11,03,01,28,40,22,32,14,,1.65,0.90,1.39*06
$GPGSV,4,1,13,01,62,291,45,03,29,215,37,08,57,151,48,10,18,048,43*7A
$GPGSV,4,2,13,11,87,051,46,14,28,106,43,17,01,312,,22,57,209,46*77
$GPGSV,4,3,13,27,25,140,46,28,27,309,41,32,32,081,46,39,29,145,34*74
$GPGSV,4,4,13,40,13,115,34*4F
$GPRMC,175823.00,A,4729.97699,N,00222.58389,W,0.002,,200520,,,D*67
$GPVTG,,T,,M,0.002,N,0.004,K,D*20
$GPGGA,175823.00,4729.97699,N,00222.58389,W,2,11,0.90,7.8,M,48.7,M,,0000*47
$GPGSA,A,3,27,08,10,11,03,01,28,40,22,32,14,,1.65,0.90,1.39*06
$GPRMC,175824.00,A,4729.97699,N,00222.58392,W,0.025,,200520,,,D*6F
$GPVTG,,T,,M,0.025,N,0.046,K,D*23
$GPGGA,175824.00,4729.97699,N,00222.58392,W,2,11,0.90,7.8,M,48.7,M,,0000*4A
$GPGSA,A,3,27,08,10,11,03,01,28,40,22,32,14,,1.65,0.90,1.39*06
$GPGSV,4,1,13,01,62,291,45,03,29,215,36,08,57,151,48,10,18,048,43*7B
$GPGSV,4,2,13,11,87,056,46,14,28,106,43,17,01,312,22,22,57,209,46*70
$GPGSV,4,3,13,27,25,140,46,28,27,309,41,32,32,081,46,39,29,145,34*74
$GPGSV,4,4,13,40,13,115,34*4F
$GPRMC,175825.00,A,4729.97701,N,00222.58397,W,0.007,,200520,,,D*6B
$GPVTG,,T,,M,0.007,N,0.013,K,D*23
$GPGGA,175825.00,4729.97701,N,00222.58397,W,2,11,0.90,7.6,M,48.7,M,,0000*40
$GPGSA,A,3,27,08,10,11,03,01,28,40,22,32,14,,1.65,0.90,1.39*06
$GPGSV,4,1,13,01,62,291,44,03,29,215,37,08,57,151,48,10,18,048,43*7B
$GPGSV,4,2,13,11,87,056,46,14,28,106,42,17,01,312,19,22,57,209,46*79
$GPGSV,4,3,13,27,25,140,46,28,27,309,40,32,32,081,46,39,29,145,34*75
$GPGSV,4,4,13,40,13,115,34*4F
$GPRMC,175826.00,A,4729.97704,N,00222.58402,W,0.013,,200520,,,D*63
$GPVTG,,T,,M,0.013,N,0.025,K,D*23
$GPGGA,175826.00,4729.97704,N,00222.58402,W,2,11,0.90,7.5,M,48.7,M,,0000*4E
$GPGSA,A,3,27,08,10,11,03,01,28,40,22,32,14,,1.65,0.90,1.39*06
$GPGSV,4,1,13,01,62,291,44,03,29,215,37,08,57,151,48,10,18,048,43*7B
$GPGSV,4,2,13,11,87,056,45,14,28,106,43,17,01,312,,22,57,209,46*73
$GPGSV,4,3,13,27,25,140,47,28,27,309,40,32,32,081,45,39,29,145,34*77
$GPGSV,4,4,13,40,13,115,33*48
$GPRMC,175827.00,A,4729.97708,N,00222.58404,W,0.020,,200520,,,D*68
$GPVTG,,T,,M,0.020,N,0.038,K,D*2F
$GPGGA,175827.00,4729.97708,N,00222.58404,W,2,11,0.90,7.3,M,48.7,M,,0000*43
$GPGSA,A,3,27,08,10,11,03,01,28,40,22,32,14,,1.65,0.90,1.39*06
$GPGSV,4,1,13,01,62,291,44,03,29,215,36,08,57,151,48,10,18,048,43*7A
$GPGSV,4,2,13,11,87,056,46,14,28,106,43,17,01,312,,22,57,209,46*70
$GPGSV,4,3,13,27,25,140,46,28,27,309,40,32,32,081,45,39,29,145,35*77
$GPGSV,4,4,13,40,13,115,34*4F
$GPRMC,175828.00,A,4729.97711,N,00222.58408,W,0.006,,200520,,,D*67
$GPVTG,,T,,M,0.006,N,0.010,K,D*21
$GPGGA,175828.00,4729.97711,N,00222.58408,W,2,11,0.90,7.2,M,48.7,M,,0000*49
$GPGSA,A,3,27,08,10,11,03,01,28,40,22,32,14,,1.65,0.90,1.39*06
$GPGSV,4,1,13,01,62,291,45,03,29,215,37,08,57,151,48,10,18,048,44*7D
$GPGSV,4,2,13,11,87,056,46,14,28,106,43,17,01,312,,22,57,209,47*71
$GPGSV,4,3,13,27,25,140,47,28,27,309,40,32,32,081,45,39,29,145,34*77
$GPGSV,4,4,13,40,13,115,34*4F
$GPRMC,175829.00,A,4729.97714,N,00222.58411,W,0.017,,200520,,,D*6B
$GPVTG,,T,,M,0.017,N,0.032,K,D*21
$GPGGA,175829.00,4729.97714,N,00222.58411,W,2,11,0.90,7.1,M,48.7,M,,0000*46
$GPGSA,A,3,27,08,10,11,03,01,28,40,22,32,14,,1.65,0.90,1.39*06
$GPGSV,4,1,13,01,62,291,45,03,29,215,37,08,57,151,48,10,18,048,44*7D
$GPGSV,4,2,13,11,87,056,46,14,28,106,43,17,01,312,,22,57,209,47*71
$GPGSV,4,3,13,27,25,140,47,28,27,309,40,32,32,081,45,39,29,145,34*77
$GPGSV,4,4,13,40,13,115,34*4F
$GPGLL,4729.97714,N,00222.58411,W,175829.00,A,D*71
$GPRMC,175830.00,A,4729.97717,N,00222.58412,W,0.019,,200520,,,D*6D
$GPVTG,,T,,M,0.019,N,0.035,K,D*28
$GPGGA,175830.00,4729.97717,N,00222.58412,W,2,11,0.90,7.0,M,48.7,M,,0000*4F
$GPGSA,A,3,27,08,10,11,03,01,28,40,22,32,14,,1.65,0.90,1.39*06
$GPGSV,4,1,13,01,62,291,45,03,29,215,37,08,57,151,49,10,18,048,44*7C
$GPGSV,4,2,13,11,87,056,46,14,28,106,42,17,01,312,,22,57,209,47*70
$GPGSV,4,3,13,27,25,140,46,28,27,309,40,32,32,081,45,39,29,145,34*76
$GPGSV,4,4,13,40,13,115,34*4F
$GPGLL,4729.97717,N,00222.58412,W,175830.00,A,D*79
$GPRMC,175831.00,A,4729.97721,N,00222.58413,W,0.018,,200520,,,D*69
$GPVTG,,T,,M,0.018,N,0.034,K,D*28
$GPGGA,175831.00,4729.97721,N,00222.58413,W,2,11,0.90,7.0,M,48.7,M,,0000*4A
$GPGSA,A,3,27,08,10,11,03,01,28,40,22,32,14,,1.65,0.90,1.39*06
$GPGSV,4,1,13,01,62,291,45,03,29,215,38,08,57,151,48,10,18,048,44*72
$GPGSV,4,2,13,11,87,056,46,14,28,106,43,17,01,312,,22,57,209,47*71
$GPGSV,4,3,13,27,25,140,46,28,27,309,40,32,32,081,45,39,29,145,34*76
$GPGSV,4,4,13,40,13,115,34*4F
$GPGLL,4729.97721,N,00222.58413,W,175831.00,A,D*7C
$GPRMC,175832.00,A,4729.97725,N,00222.58412,W,0.006,,200520,,,D*60
$GPVTG,,T,,M,0.006,N,0.011,K,D*20
$GPGGA,175832.00,4729.97725,N,00222.58412,W,2,11,0.90,6.9,M,48.7,M,,0000*44
$GPGSA,A,3,27,08,10,11,03,01,28,40,22,32,14,,1.65,0.90,1.39*06
$GPGSV,4,1,13,01,62,291,45,03,29,215,38,08,57,151,49,10,18,048,44*73
$GPGSV,4,2,13,11,87,056,46,14,28,106,43,17,01,312,,22,57,209,47*71
$GPGSV,4,3,13,27,25,140,46,28,27,309,40,32,32,081,45,39,29,145,34*76
$GPGSV,4,4,13,40,13,115,34*4F
$GPTXT,01,01,00,txbuf alloc*7F
$GPRMC,175833.00,A,4729.97729,N,00222.58411,W,0.020,,200520,,,D*6A
$GPVTG,,T,,M,0.020,N,0.038,K,D*2F
$GPGGA,175833.00,4729.97729,N,00222.58411,W,2,11,0.90,6.9,M,48.7,M,,0000*4A
$GPGSA,A,3,27,08,10,11,03,01,28,40,22,32,14,,1.65,0.90,1.39*06
$GPGSV,4,1,13,01,62,291,44,03,29,215,38,08,57,151,49,10,18,048,43*75
$GPGSV,4,2,13,11,87,056,46,14,28,106,43,17,01,312,,22,57,209,47*71
$GPGSV,4,3,13,27,25,140,46,28,27,309,39,32,32,081,45,39,29,145,34*78
$GPGSV,4,4,13,40,13,115,35*4E
$GPRMC,175834.00,A,4729.97733,N,00222.58409,W,0.000,,200520,,,D*6D
$GPVTG,,T,,M,0.000,N,0.001,K,D*27
$GPGGA,175834.00,4729.97733,N,00222.58409,W,2,11,0.90,6.9,M,48.7,M,,0000*4F
$GPGSA,A,3,27,08,10,11,03,01,28,40,22,32,14,,1.65,0.90,1.39*06
$GPGSV,4,1,13,01,62,291,45,03,29,215,39,08,57,151,49,10,18,048,43*75
$GPRMC,175835.00,A,4729.97736,N,00222.58408,W,0.011,,200520,,,D*68
$GPVTG,,T,,M,0.011,N,0.021,K,D*25
$GPGGA,175835.00,4729.97736,N,00222.58408,W,2,11,0.90,6.9,M,48.7,M,,0000*4A
$GPGSA,A,3,27,08,10,11,03,01,28,40,22,32,14,,1.65,0.90,1.39*06
$GPGSV,4,1,13,01,62,291,44,03,29,215,39,08,57,151,49,10,18,048,43*74
$GPGSV,4,2,13,11,87,056,45,14,28,106,43,17,01,312,,22,58,209,47*7D
$GPGSV,4,3,13,27,25,140,47,28,27,309,39,32,32,081,45,39,29,145,34*79
$GPRMC,175836.00,A,4729.97739,N,00222.58408,W,0.026,,200520,,,D*60
$GPVTG,,T,,M,0.026,N,0.048,K,D*2E
$GPGGA,175836.00,4729.97739,N,00222.58408,W,2,11,0.90,6.9,M,48.7,M,,0000*46
$GPGSA,A,3,27,08,10,11,03,01,28,40,22,32,14,,1.65,0.90,1.39*06
$GPGSV,4,1,13,01,62,291,44,03,29,215,39,08,57,151,49,10,18,048,43*74
$GPGSV,4,2,13,11,87,056,45,14,28,106,43,17,01,312,,22,58,209,47*7D
$GPGSV,4,3,13,27,25,140,47,28,27,309,39,32,32,081,46,39,29,145,34*7A
$GPGSV,4,4,13,40,13,115,35*4E
$GPRMC,175837.00,A,4729.97741,N,00222.58408,W,0.017,,200520,,,D*6C
$GPVTG,,T,,M,0.017,N,0.031,K,D*22
$GPGGA,175837.00,4729.97741,N,00222.58408,W,2,11,0.90,6.9,M,48.7,M,,0000*48
$GPGSA,A,3,27,08,10,11,03,01,28,40,22,32,14,,1.65,0.90,1.39*06
$GPGSV,4,1,13,01,62,291,44,03,29,215,39,08,57,151,49,10,18,048,43*74
$GPGSV,4,2,13,11,87,056,45,14,28,106,42,17,01,312,,22,58,209,47*7C
$GPGSV,4,3,13,27,25,140,46,28,27,309,39,32,32,081,46,39,29,145,34*7B
$GPGSV,4,4,13,40,13,115,34*4F
$GPRMC,175838.00,A,4729.97742,N,00222.58407,W,0.014,,200520,,,D*6C
$GPVTG,,T,,M,0.014,N,0.026,K,D*27
$GPGGA,175838.00,4729.97742,N,00222.58407,W,2,11,0.90,6.9,M,48.7,M,,0000*4B
$GPGSA,A,3,27,08,10,11,03,01,28,40,22,32,14,,1.65,0.90,1.39*06
$GPGSV,4,1,13,01,62,291,44,03,29,215,39,08,57,151,49,10,18,048,43*74
$GPGSV,4,2,13,11,87,056,46,14,28,106,43,17,01,312,,22,58,209,47*7E
$GPGSV,4,3,13,27,25,140,46,28,27,309,41,32,32,081,45,39,29,145,35*76
$GPGSV,4,4,13,40,13,115,35*4E
$GPRMC,175839.00,A,4729.97745,N,00222.58403,W,0.018,,200520,,,D*62
$GPVTG,,T,,M,0.018,N,0.033,K,D*2F
$GPGGA,175839.00,4729.97745,N,00222.58403,W,2,11,0.90,6.9,M,48.7,M,,0000*49
$GPGSA,A,3,27,08,10,11,03,01,28,40,22,32,14,,1.65,0.90,1.39*06
$GPGSV,4,1,13,01,62,291,43,03,29,215,37,08,57,151,48,10,18,048,42*7D
$GPGSV,4,2,13,11,87,056,45,14,28,106,42,17,01,312,,22,58,209,46*7D
$GPGSV,4,3,13,27,25,140,46,28,27,309,38,32,32,081,44,39,29,145,34*78
$GPGSV,4,4,13,40,13,115,34*4F
$GPRMC,175840.00,A,4729.97746,N,00222.58398,W,0.002,,200520,,,D*61
$GPVTG,,T,,M,0.002,N,0.003,K,D*27
$GPGGA,175840.00,4729.97746,N,00222.58398,W,2,11,0.90,7.0,M,48.7,M,,0000*49
$GPGSA,A,3,27,08,10,11,03,01,28,40,22,32,14,,1.65,0.90,1.39*06
$GPGSV,4,1,13,01,62,291,44,03,29,215,38,08,57,151,49,10,18,048,43*75
$GPGSV,4,2,13,11,87,056,45,14,28,106,43,17,01,312,,22,58,209,47*7D
$GPGSV,4,3,13,27,25,140,46,28,27,308,41,32,32,081,45,39,29,145,35*77
$GPGSV,4,4,13,40,13,115,34*4F
$GPGLL,4729.97746,N,00222.58398,W,175840.00,A,D*7F
$GPRMC,175841.00,A,4729.97747,N,00222.58390,W,0.017,,200520,,,D*6D
$GPVTG,,T,,M,0.017,N,0.031,K,D*22
$GPGGA,175841.00,4729.97747,N,00222.58390,W,2,11,0.90,7.2,M,48.7,M,,0000*43
$GPGSA,A,3,27,08,10,11,03,01,28,40,22,32,14,,1.65,0.90,1.39*06
$GPGSV,4,1,13,01,62,291,44,03,29,215,39,08,57,151,49,10,18,048,43*74
$GPGSV,4,2,13,11,87,056,46,14,28,106,43,17,01,312,,22,58,209,47*7E
$GPGSV,4,3,13,27,25,140,46,28,27,308,41,32,32,081,45,39,29,145,34*76
$GPGSV,4,4,13,40,13,115,35*4E
$GPGLL,4729.97747,N,00222.58390,W,175841.00,A,D*77
$GPRMC,175842.00,A,4729.97749,N,00222.58384,W,0.011,,200520,,,D*63
$GPVTG,,T,,M,0.011,N,0.020,K,D*24
$GPGGA,175842.00,4729.97749,N,00222.58384,W,2,11,0.90,7.2,M,48.7,M,,0000*4B
$GPGSA,A,3,27,08,10,11,03,01,28,40,22,32,14,,1.65,0.90,1.39*06
$GPGSV,4,1,13,01,62,291,44,03,29,215,39,08,57,151,49,10,18,048,42*75
$GPGSV,4,2,13,11,87,056,46,14,28,106,43,17,01,312,,22,58,209,47*7E
$GPGSV,4,3,13,27,25,140,47,28,27,308,40,32,32,081,45,39,29,145,34*76
$GPGSV,4,4,13,40,13,115,34*4F
$GPGLL,4729.97749,N,00222.58384,W,175842.00,A,D*7F
$GPRMC,175843.00,A,4729.97752,N,00222.58381,W,0.019,,200520,,,D*65
$GPVTG,,T,,M,0.019,N,0.035,K,D*28
$GPGGA,175843.00,4729.97752,N,00222.58381,W,2,11,0.90,7.3,M,48.7,M,,0000*44
$GPGSA,A,3,27,08,10,11,03,01,28,40,22,32,14,,1.65,0.90,1.39*06
$GPGSV,4,1,13,01,62,291,44,03,29,215,38,08,57,151,48,10,18,048,43*74
$GPGSV,4,2,13,11,87,056,46,14,28,106,43,17,01,312,,22,58,209,46*7F
$GPGSV,4,3,13,27,25,140,46,28,27,308,40,32,32,081,45,39,29,145,34*77
$GPGSV,4,4,13,40,13,115,34*4F
$GPTXT,01,01,00,txbuf alloc*7F
$GPRMC,175844.00,A,4729.97754,N,00222.58377,W,0.014,,200520,,,D*60
$GPVTG,,T,,M,0.014,N,0.025,K,D*24
$GPGGA,175844.00,4729.97754,N,00222.58377,W,2,11,0.90,7.4,M,48.7,M,,0000*4B
$GPGSA,A,3,27,08,10,11,03,01,28,40,22,32,14,,1.65,0.90,1.39*06
$GPGSV,4,1,13,01,62,291,43,03,29,215,38,08,57,151,48,10,18,048,42*72
$GPGSV,4,2,13,11,87,056,46,14,28,106,43,17,01,312,,22,58,209,46*7F
$GPGSV,4,3,13,27,25,140,47,28,27,308,41,32,32,080,45,39,29,145,33*71
$GPGSV,4,4,13,40,13,115,34*4F
$GPRMC,175845.00,A,4729.97756,N,00222.58374,W,0.021,,200520,,,D*66
$GPVTG,,T,,M,0.021,N,0.039,K,D*2F
$GPGGA,175845.00,4729.97756,N,00222.58374,W,2,11,0.90,7.5,M,48.7,M,,0000*4A
$GPGSA,A,3,27,08,10,11,03,01,28,40,22,32,14,,1.65,0.90,1.39*06
$GPRMC,175846.00,A,4729.97757,N,00222.58372,W,0.005,,200520,,,D*64
$GPVTG,,T,,M,0.005,N,0.010,K,D*22
$GPGGA,175846.00,4729.97757,N,00222.58372,W,2,11,0.90,7.5,M,48.7,M,,0000*4E

-----------------------------------------------
Date: 20/05/2020 - 19:55:22
End log file
