$GPGSV,3,1,10,23,72,160,51,03,60,066,36,09,46,203,52,19,44,269,41*70
$GPGSV,3,2,10,17,41,239,36,22,38,080,,06,36,306,45,01,29,135,*7E
$GPGSV,3,3,10,31,16,043,,11,09,152,,124,31,151,,120,34,198,*71
$GPGLL,4715.2646,N,00130.5493,W,163828.040,A*2C
$GPGGA,163828.04,4715.2646,N,00130.5493,W,1,06,2.4,00042,M,,,,*3F
$GPRMC,163828.04,A,4715.2646,N,00130.5493,W,00.0,000.0,120917,01,W*41
$GPGSA,M,2,09,23,06,19,17,03,,,,,,,02.4,02.4,*12
$PMGNST,01.10,2,T,938,12.8,+03616,00*49
$GPGLL,4715.2646,N,00130.5492,W,163829.048,A*24
$GPGGA,163829.05,4715.2646,N,00130.5492,W,1,06,2.4,00042,M,,,,*3E
$GPRMC,163829.05,A,4715.2646,N,00130.5492,W,00.0,000.0,120917,01,W*40
$GPGSA,M,2,09,23,06,19,17,03,,,,,,,02.4,02.4,*12
$GPGSV,3,1,10,23,72,160,50,03,60,066,36,09,46,203,51,19,44,269,40*73
$GPGSV,3,2,10,17,41,239,38,22,38,080,,06,36,306,45,01,29,135,*70
$GPGSV,3,3,10,31,16,043,,11,09,152,,124,31,151,,120,34,198,*71
$GPGLL,4715.2646,N,00130.5492,W,163830.044,A*20
$GPGGA,163830.04,4715.2646,N,00130.5492,W,1,06,2.4,00042,M,,,,*37
$GPRMC,163830.04,A,4715.2646,N,00130.5492,W,00.0,000.0,120917,01,W*49
$GPGSA,M,2,09,23,06,17,19,03,,,,,,,02.4,02.4,*12
$PMGNST,01.10,2,T,938,12.8,+03618,00*47
$GPGLL,4715.2646,N,00130.5492,W,163831.040,A*25
$GPGGA,163831.04,4715.2646,N,00130.5492,W,1,05,3.0,00042,M,,,,*30
$GPRMC,163831.04,A,4715.2646,N,00130.5492,W,00.0,000.0,120917,01,W*48
$GPGSA,M,2,09,23,06,19,17,,,,,,,,03.0,03.0,*11
$GPGSV,3,1,10,23,72,160,50,03,60,066,36,09,46,203,52,19,44,269,40*70
$GPGSV,3,2,10,17,41,239,38,22,38,080,,06,36,306,45,01,29,135,*70
$GPGSV,3,3,10,31,16,043,,11,09,152,,124,31,151,,120,34,198,*71
$GPGLL,4715.2646,N,00130.5492,W,163832.048,A*2E
$GPGGA,163832.05,4715.2646,N,00130.5492,W,1,05,3.0,00042,M,,,,*32
$GPRMC,163832.05,A,4715.2646,N,00130.5492,W,00.0,000.0,120917,01,W*4A
$GPGSA,M,2,09,23,06,19,17,,,,,,,,03.0,03.0,*11
$PMGNST,01.10,2,T,938,12.8,+03620,00*4C
$GPGLL,4715.2646,N,00130.5492,W,163833.044,A*23
$GPGGA,163833.04,4715.2646,N,00130.5492,W,1,05,3.0,00042,M,,,,*32
$GPRMC,163833.04,A,4715.2646,N,00130.5492,W,00.0,000.0,120917,01,W*4A
$GPGSA,M,2,09,23,06,19,17,,,,,,,,03.0,03.0,*11
$GPGSV,3,1,10,23,72,160,50,03,60,066,36,09,46,203,52,19,44,269,40*70
$GPGSV,3,2,10,17,41,239,39,22,38,080,,06,36,306,45,01,29,135,*71
$GPGSV,3,3,10,31,16,043,,11,09,152,,124,31,151,,120,34,198,*71
$GPGLL,4715.2646,N,00130.5491,W,163834.040,A*23
$GPGGA,163834.04,4715.2646,N,00130.5491,W,1,05,3.0,00042,M,,,,*36
$GPRMC,163834.04,A,4715.2646,N,00130.5491,W,00.0,000.0,120917,01,W*4E
$GPGSA,M,2,09,23,06,19,17,,,,,,,,03.0,03.0,*11
$PMGNST,01.10,2,T,938,12.8,+03622,00*4E
$GPGLL,4715.2646,N,00130.5492,W,163835.048,A*29
$GPGGA,163835.05,4715.2646,N,00130.5492,W,1,06,2.4,00042,M,,,,*33
$GPRMC,163835.05,A,4715.2646,N,00130.5492,W,00.0,000.0,120917,01,W*4D
$GPGSA,M,2,09,23,06,19,17,03,,,,,,,02.4,02.4,*12
$GPGSV,3,1,10,23,72,160,50,03,60,066,36,09,46,203,52,19,44,269,40*70
$GPGSV,3,2,10,17,41,239,36,22,38,080,,06,36,306,45,01,29,135,*7E
$GPGSV,3,3,10,31,16,043,,11,09,152,,124,31,151,,120,34,198,*71
$GPGLL,4715.2646,N,00130.5492,W,163836.044,A*26
$GPGGA,163836.04,4715.2646,N,00130.5492,W,1,06,2.3,00042,M,,,,*36
$GPRMC,163836.04,A,4715.2646,N,00130.5492,W,00.0,000.0,120917,01,W*4F
$GPGSA,M,2,09,23,06,19,17,03,,,,,,,02.3,02.3,*12
$PMGNST,01.10,2,T,938,12.8,+03624,00*48
$GPGLL,4715.2646,N,00130.5492,W,163837.040,A*23
$GPGGA,163837.04,4715.2646,N,00130.5492,W,1,06,2.0,00042,M,,,,*34
$GPRMC,163837.04,A,4715.2646,N,00130.5492,W,00.0,000.0,120917,01,W*4E
$GPGSA,M,2,09,23,06,19,03,17,,,,,,,02.0,02.0,*12
$GPGSV,3,1,10,23,72,160,50,03,60,066,38,09,46,203,51,19,44,269,40*7D
$GPGSV,3,2,10,17,41,239,38,22,38,080,,06,36,306,46,01,29,135,*73
$GPGSV,3,3,10,31,16,043,,11,09,152,,124,31,151,,120,34,198,*71
$GPGLL,4715.2646,N,00130.5492,W,163838.048,A*24
$GPGGA,163838.05,4715.2646,N,00130.5492,W,1,06,2.1,00042,M,,,,*3B
$GPRMC,163838.05,A,4715.2646,N,00130.5492,W,00.0,000.0,120917,01,W*40
$GPGSA,M,2,09,23,06,19,03,17,,,,,,,02.1,02.1,*12
$PMGNST,01.10,2,T,938,12.8,+03626,00*4A
$GPGLL,4715.2646,N,00130.5492,W,163839.044,A*29
$GPGGA,163839.04,4715.2646,N,00130.5492,W,1,06,2.4,00042,M,,,,*3E
$GPRMC,163839.04,A,4715.2646,N,00130.5492,W,00.0,000.0,120917,01,W*40
$GPGSA,M,2,09,23,06,19,17,03,,,,,,,02.4,02.4,*12
$GPGSV,3,1,10,23,72,160,49,03,60,066,36,09,46,203,51,19,44,269,44*7F
$GPGSV,3,2,10,17,41,239,38,22,38,080,,06,36,306,44,01,29,135,*71
$GPGSV,3,3,10,31,16,043,,11,09,152,,124,31,151,,120,34,198,*71
$GPGLL,4715.2646,N,00130.5491,W,163840.040,A*20
$GPGGA,163840.04,4715.2646,N,00130.5491,W,1,06,2.1,00042,M,,,,*36
$GPRMC,163840.04,A,4715.2646,N,00130.5491,W,00.0,000.0,120917,01,W*4D
$GPGSA,M,2,09,23,06,19,03,17,,,,,,,02.1,02.1,*12
$PMGNST,01.10,2,T,938,12.8,+03628,00*44
$GPGLL,4715.2646,N,00130.5491,W,163841.049,A*28
$GPGGA,163841.05,4715.2646,N,00130.5491,W,1,06,2.1,00042,M,,,,*36
$GPRMC,163841.05,A,4715.2646,N,00130.5491,W,00.0,000.0,120917,01,W*4D
$GPGSA,M,2,09,23,06,19,03,17,,,,,,,02.1,02.1,*12
$GPGSV,3,1,10,23,72,160,49,03,60,066,38,09,46,203,50,19,44,269,42*76
$GPGSV,3,2,10,17,41,239,36,22,38,080,,06,36,306,44,01,29,135,*7F
$GPGSV,3,3,10,31,16,043,,11,09,152,,124,31,151,,120,34,198,*71
$GPGLL,4715.2645,N,00130.5491,W,163842.045,A*24
$GPGGA,163842.04,4715.2645,N,00130.5491,W,1,06,2.3,00042,M,,,,*35
$GPRMC,163842.04,A,4715.2645,N,00130.5491,W,00.0,000.0,120917,01,W*4C
$GPGSA,M,2,09,23,06,19,03,17,,,,,,,02.3,02.3,*12
$PMGNST,01.10,2,T,938,12.8,+03630,00*4D
$GPGLL,4715.2645,N,00130.5491,W,163843.041,A*21
$GPGGA,163843.04,4715.2645,N,00130.5491,W,1,06,2.3,00042,M,,,,*34
$GPRMC,163843.04,A,4715.2645,N,00130.5491,W,00.0,000.0,120917,01,W*4D
$GPGSA,M,2,09,23,06,19,03,17,,,,,,,02.3,02.3,*12
$GPGSV,3,1,10,23,72,160,50,03,60,066,36,09,46,203,51,19,44,269,42*71
$GPGSV,3,2,10,17,41,239,36,22,38,080,,06,36,306,46,01,29,135,*7D
$GPGSV,3,3,10,31,16,043,,11,09,152,,124,31,151,,120,34,198,*71
$GPGLL,4715.2645,N,00130.5491,W,163844.049,A*2E
$GPGGA,163844.05,4715.2645,N,00130.5491,W,1,06,2.1,00042,M,,,,*30
$GPRMC,163844.05,A,4715.2645,N,00130.5491,W,00.0,000.0,120917,01,W*4B
$GPGSA,M,2,09,23,06,19,03,17,,,,,,,02.1,02.1,*12
$PMGNST,01.10,2,T,938,12.8,+03632,00*4F
$GPGLL,4715.2645,N,00130.5491,W,163845.045,A*23
$GPGGA,163845.04,4715.2645,N,00130.5491,W,1,06,2.1,00042,M,,,,*30
$GPRMC,163845.04,A,4715.2645,N,00130.5491,W,00.0,000.0,120917,01,W*4B
$GPGSA,M,2,09,23,06,19,03,17,,,,,,,02.1,02.1,*12
$GPGSV,3,1,10,23,72,160,50,03,60,066,39,09,46,203,51,19,44,269,41*7D
$GPGSV,3,2,10,17,41,239,36,22,38,080,,06,36,306,45,01,29,135,*7E
$GPGSV,3,3,10,31,16,043,,11,09,152,,124,31,151,,120,34,198,*71
$GPGLL,4715.2645,N,00130.5491,W,163846.041,A*24
$GPGGA,163846.04,4715.2645,N,00130.5491,W,1,06,2.0,00042,M,,,,*32
$GPRMC,163846.04,A,4715.2645,N,00130.5491,W,00.0,000.0,120917,01,W*48
$GPGSA,M,2,09,23,06,19,03,17,,,,,,,02.0,02.0,*12
$PMGNST,01.10,2,T,938,12.8,+03634,00*49
$GPGLL,4715.2645,N,00130.5490,W,163847.049,A*2C
$GPGGA,163847.05,4715.2645,N,00130.5490,W,1,06,2.3,00042,M,,,,*30
$GPRMC,163847.05,A,4715.2645,N,00130.5490,W,00.0,000.0,120917,01,W*49
$GPGSA,M,2,09,23,06,19,03,17,,,,,,,02.3,02.3,*12
$GPGSV,3,1,10,23,72,160,50,03,60,066,36,09,46,203,51,19,44,269,42*71
$GPGSV,3,2,10,17,41,239,36,22,38,080,,06,36,306,46,01,29,135,*7D
$GPGSV,3,3,10,31,16,043,,11,09,152,,124,31,151,,120,34,198,*71
$GPGLL,4715.2645,N,00130.5491,W,163848.045,A*2E
$GPGGA,163848.04,4715.2645,N,00130.5491,W,1,06,2.1,00042,M,,,,*3D
$GPRMC,163848.04,A,4715.2645,N,00130.5491,W,00.0,000.0,120917,01,W*46
$GPGSA,M,2,09,23,06,19,03,17,,,,,,,02.1,02.1,*12
$PMGNST,01.10,2,T,938,12.8,+03635,00*48
$GPGLL,4715.2645,N,00130.5491,W,163849.041,A*2B
$GPGGA,163849.04,4715.2645,N,00130.5491,W,1,05,2.1,00042,M,,,,*3F
$GPRMC,163849.04,A,4715.2645,N,00130.5491,W,00.0,000.0,120917,01,W*47
$GPGSA,M,2,09,23,06,19,03,,,,,,,,02.1,02.1,*14
$GPGSV,3,1,10,23,72,160,50,03,60,066,39,09,46,203,51,19,44,269,40*7C
$GPGSV,3,2,10,17,41,239,36,22,38,080,,06,36,306,45,01,29,135,*7E
$GPGSV,3,3,10,31,16,043,,11,09,152,,124,31,151,,120,34,198,*71
$GPGLL,4715.2645,N,00130.5491,W,163850.049,A*2B
$GPGGA,163850.05,4715.2645,N,00130.5491,W,1,06,2.1,00042,M,,,,*35
$GPRMC,163850.05,A,4715.2645,N,00130.5491,W,00.0,000.0,120917,01,W*4E
$GPGSA,M,2,09,23,06,19,03,17,,,,,,,02.1,02.1,*12
$PMGNST,01.10,2,T,938,12.8,+03637,00*4A
$GPGLL,4715.2645,N,00130.5491,W,163851.045,A*26
$GPGGA,163851.04,4715.2645,N,00130.5491,W,1,06,2.1,00042,M,,,,*35
$GPRMC,163851.04,A,4715.2645,N,00130.5491,W,00.0,000.0,120917,01,W*4E
$GPGSA,M,2,09,23,06,19,03,17,,,,,,,02.1,02.1,*12
$GPGSV,3,1,10,23,72,160,50,03,60,066,39,09,46,203,52,19,44,269,40*7F
$GPGSV,3,2,10,17,41,239,36,22,38,080,,06,36,306,45,01,29,135,*7E
$GPGSV,3,3,10,31,16,043,,11,09,152,,124,31,151,,120,34,198,*71
$GPGLL,4715.2645,N,00130.5491,W,163852.041,A*21
$GPGGA,163852.04,4715.2645,N,00130.5491,W,1,06,2.1,00042,M,,,,*36
$GPRMC,163852.04,A,4715.2645,N,00130.5491,W,00.0,000.0,120917,01,W*4D
$GPGSA,M,2,09,23,06,03,19,17,,,,,,,02.1,02.1,*12
$PMGNST,01.10,2,T,938,12.8,+03639,00*44
$GPGLL,4715.2645,N,00130.5492,W,163853.037,A*22
$GPGGA,163853.04,4715.2645,N,00130.5492,W,1,06,2.1,00042,M,,,,*34
$GPRMC,163853.04,A,4715.2645,N,00130.5492,W,00.0,000.0,120917,01,W*4F
$GPGSA,M,2,09,23,06,03,19,17,,,,,,,02.1,02.1,*12
$GPGSV,3,1,10,23,72,160,50,03,60,066,41,09,46,203,51,19,44,269,40*73
$GPGSV,3,2,10,17,41,239,36,22,38,080,,06,36,306,45,01,29,135,*7E
$GPGSV,3,3,10,31,16,043,,11,09,152,,124,31,151,,120,34,198,*71
$GPGLL,4715.2645,N,00130.5492,W,163854.045,A*20
$GPGGA,163854.04,4715.2645,N,00130.5492,W,1,06,2.1,00042,M,,,,*33
$GPRMC,163854.04,A,4715.2645,N,00130.5492,W,00.0,000.0,120917,01,W*48
$GPGSA,M,2,09,23,06,03,19,17,,,,,,,02.1,02.1,*12
$PMGNST,01.10,2,T,938,12.8,+03641,00*4B
$GPGLL,4715.2645,N,00130.5492,W,163855.041,A*25
$GPGGA,163855.04,4715.2645,N,00130.5492,W,1,06,2.1,00042,M,,,,*32
$GPRMC,163855.04,A,4715.2645,N,00130.5492,W,00.0,000.0,120917,01,W*49
$GPGSA,M,2,09,23,06,03,19,17,,,,,,,02.1,02.1,*12
$GPGSV,3,1,10,23,72,160,50,03,60,066,41,09,46,203,51,19,44,269,39*7D
$GPGSV,3,2,10,17,41,239,36,22,38,080,,06,36,306,44,01,29,135,*7F
$GPGSV,3,3,10,31,16,043,,11,09,152,,124,31,151,,120,34,198,*71
$GPGLL,4715.2645,N,00130.5492,W,163856.037,A*27
$GPGGA,163856.04,4715.2645,N,00130.5492,W,1,06,2.1,00042,M,,,,*31
$GPRMC,163856.04,A,4715.2645,N,00130.5492,W,00.0,000.0,120917,01,W*4A
$GPGSA,M,2,09,23,06,19,03,17,,,,,,,02.1,02.1,*12
$PMGNST,01.10,2,T,938,12.8,+03642,00*48
$GPGLL,4715.2645,N,00130.5492,W,163857.045,A*23
$GPGGA,163857.04,4715.2645,N,00130.5492,W,1,06,2.2,00042,M,,,,*33
$GPRMC,163857.04,A,4715.2645,N,00130.5492,W,00.0,000.0,120917,01,W*4B
$GPGSA,M,2,09,23,06,03,19,17,,,,,,,02.2,02.2,*12
$GPGSV,3,1,10,23,72,160,50,03,60,066,39,09,46,203,51,19,44,269,39*72
$GPGSV,3,2,10,17,41,239,36,22,38,080,,06,36,306,44,01,29,135,*7F
$GPGSV,3,3,10,31,16,043,,11,09,152,,124,31,151,,120,34,198,*71
$GPGLL,4715.2645,N,00130.5492,W,163858.041,A*28
$GPGGA,163858.04,4715.2645,N,00130.5492,W,1,05,2.2,00042,M,,,,*3F
$GPRMC,163858.04,A,4715.2645,N,00130.5492,W,00.0,000.0,120917,01,W*44
$GPGSA,M,2,09,23,06,03,19,,,,,,,,02.2,02.2,*14
$PMGNST,01.10,2,T,938,12.8,+03644,00*4E
$GPGLL,4715.2645,N,00130.5493,W,163859.037,A*29
$GPGGA,163859.04,4715.2645,N,00130.5493,W,1,05,2.2,00042,M,,,,*3F
$GPRMC,163859.04,A,4715.2645,N,00130.5493,W,00.0,000.0,120917,01,W*44
$GPGSA,M,2,09,23,06,03,19,,,,,,,,02.2,02.2,*14
$GPGSV,3,1,10,23,72,160,49,03,60,066,39,09,46,203,51,19,44,269,39*7A
$GPGSV,3,2,10,17,41,239,,22,38,080,,06,36,306,43,01,29,135,*7D
$GPGSV,3,3,10,31,16,043,,11,09,152,,124,31,151,,120,34,198,*71
$GPGLL,4715.2645,N,00130.5493,W,163900.045,A*21
$GPGGA,163900.04,4715.2645,N,00130.5493,W,1,05,2.2,00042,M,,,,*32
$GPRMC,163900.04,A,4715.2645,N,00130.5493,W,00.0,000.0,120917,01,W*49
$GPGSA,M,2,09,23,06,19,03,,,,,,,,02.2,02.2,*14
$PMGNST,01.10,2,T,938,12.8,+03645,00*4F
$GPGLL,4715.2646,N,00130.5493,W,163901.041,A*27
$GPGGA,163901.04,4715.2646,N,00130.5493,W,1,06,2.4,00042,M,,,,*35
$GPRMC,163901.04,A,4715.2646,N,00130.5493,W,00.0,000.0,120917,01,W*4B
$GPGSA,M,2,09,23,06,19,03,17,,,,,,,02.4,02.4,*12
$GPGSV,3,1,10,23,72,160,50,03,60,066,36,09,46,203,51,19,44,269,39*7D
$GPGSV,3,2,10,17,41,239,36,22,38,080,,06,36,306,44,01,29,135,*7F
$GPGSV,3,3,10,31,16,043,,11,09,152,,124,31,151,,120,34,198,*71
$GPGLL,4715.2646,N,00130.5493,W,163902.049,A*2C
$GPGGA,163902.05,4715.2646,N,00130.5493,W,1,05,2.2,00042,M,,,,*32
$GPRMC,163902.05,A,4715.2646,N,00130.5493,W,00.0,000.0,120917,01,W*49
$GPGSA,M,2,09,23,06,19,03,,,,,,,,02.2,02.2,*14
$PMGNST,01.10,2,T,938,12.8,+03647,00*4D
$GPGLL,4715.2646,N,00130.5493,W,163903.045,A*21
$GPGGA,163903.05,4715.2646,N,00130.5493,W,1,05,2.5,00042,M,,,,*34
$GPRMC,163903.05,A,4715.2646,N,00130.5493,W,00.0,000.0,120917,01,W*48
$GPGSA,M,2,09,23,06,19,03,,,,,,,,02.5,02.5,*14
$GPGSV,3,1,10,23,72,160,50,03,60,066,36,09,46,203,51,19,44,269,39*7D
$GPGSV,3,2,10,17,41,239,36,22,38,080,,06,36,306,44,01,29,135,*7F
$GPGSV,3,3,10,31,16,043,,11,09,152,,124,31,151,,120,34,198,*71
$GPGLL,4715.2646,N,00130.5493,W,163904.041,A*22
$GPGGA,163904.04,4715.2646,N,00130.5493,W,1,05,3.1,00042,M,,,,*37
$GPRMC,163904.04,A,4715.2646,N,00130.5493,W,00.0,000.0,120917,01,W*4E
$GPGSA,M,2,09,23,06,19,17,,,,,,,,03.1,03.1,*11
$PMGNST,01.10,2,T,938,12.8,+03649,00*43
$GPGLL,4715.2646,N,00130.5493,W,163905.049,A*2B
$GPGGA,163905.05,4715.2646,N,00130.5493,W,1,04,3.2,00042,M,,,,*35
$GPRMC,163905.05,A,4715.2646,N,00130.5493,W,00.0,000.0,120917,01,W*4E
$GPGSA,M,2,09,23,06,19,,,,,,,,,03.2,03.2,*17
$GPGSV,3,1,10,23,72,160,50,03,60,066,,09,46,203,50,19,44,269,40*77
$GPGSV,3,2,10,17,41,239,,22,38,080,,06,36,306,42,01,29,135,*7C
$GPGSV,3,3,10,31,16,043,,11,09,152,,124,31,151,,120,34,198,*71
$GPGLL,4715.2646,N,00130.5492,W,163906.045,A*25
$GPGGA,163906.05,4715.2646,N,00130.5492,W,1,04,3.2,00042,M,,,,*37
$GPRMC,163906.05,A,4715.2646,N,00130.5492,W,00.0,000.0,120917,01,W*4C
$GPGSA,M,2,09,23,06,19,,,,,,,,,03.2,03.2,*17
$PMGNST,01.10,2,T,938,12.8,+03650,00*4B
$GPGLL,4715.2646,N,00130.5492,W,163907.041,A*20
$GPGGA,163907.04,4715.2646,N,00130.5492,W,1,05,2.7,00042,M,,,,*32
$GPRMC,163907.04,A,4715.2646,N,00130.5492,W,00.0,000.0,120917,01,W*4C
$GPGSA,M,2,23,09,06,19,03,,,,,,,,02.7,02.7,*14
$GPGSV,3,1,10,23,72,160,50,03,60,066,36,09,46,203,50,19,44,269,41*73
$GPGSV,3,2,10,17,41,239,36,22,38,080,,06,36,306,42,01,29,135,*79
$GPGSV,3,3,10,31,16,043,,11,09,152,,124,31,151,,120,34,198,*71
$GPGLL,4715.2646,N,00130.5492,W,163908.049,A*27
$GPGGA,163908.05,4715.2646,N,00130.5492,W,1,05,2.5,00042,M,,,,*3E
$GPRMC,163908.05,A,4715.2646,N,00130.5492,W,00.0,000.0,120917,01,W*42
$GPGSA,M,2,09,23,19,06,03,,,,,,,,02.5,02.5,*14
$PMGNST,01.10,2,T,938,12.8,+03652,00*49
$GPGLL,4715.2646,N,00130.5492,W,163909.045,A*2A
$GPGGA,163909.05,4715.2646,N,00130.5492,W,1,06,2.4,00042,M,,,,*3D
$GPRMC,163909.05,A,4715.2646,N,00130.5492,W,00.0,000.0,120917,01,W*43
$GPGSA,M,2,09,23,06,19,03,17,,,,,,,02.4,02.4,*12
$GPGSV,3,1,10,23,72,160,49,03,60,066,38,09,46,203,50,19,44,269,41*75
$GPGSV,3,2,10,17,41,239,36,22,38,080,,06,36,306,41,01,29,135,*7A
$GPGSV,3,3,10,31,16,043,,11,09,152,,124,31,151,,120,34,198,*71
$GPGLL,4715.2646,N,00130.5491,W,163910.041,A*25
$GPGGA,163910.04,4715.2646,N,00130.5491,W,1,06,2.5,00042,M,,,,*36
$GPRMC,163910.04,A,4715.2646,N,00130.5491,W,00.0,000.0,120917,01,W*49
$GPGSA,M,2,09,23,19,06,17,03,,,,,,,02.5,02.5,*12
$PMGNST,01.10,2,T,938,12.8,+03653,00*48
$GPGLL,4715.2646,N,00130.5491,W,163911.049,A*2C
$GPGGA,163911.05,4715.2646,N,00130.5491,W,1,06,2.4,00042,M,,,,*37
$GPRMC,163911.05,A,4715.2646,N,00130.5491,W,00.0,000.0,120917,01,W*49
$GPGSA,M,2,09,23,06,19,03,17,,,,,,,02.4,02.4,*12
$GPGSV,3,1,10,23,72,160,50,03,60,066,36,09,46,203,50,19,44,269,41*73
$GPGSV,3,2,10,17,41,239,36,22,38,080,,06,36,306,42,01,29,135,*79
$GPGSV,3,3,10,31,16,043,,11,09,152,,124,31,151,,120,34,198,*71
$GPGLL,4715.2646,N,00130.5491,W,163912.045,A*23
$GPGGA,163912.05,4715.2646,N,00130.5491,W,1,06,2.4,00042,M,,,,*34
$GPRMC,163912.05,A,4715.2646,N,00130.5491,W,00.0,000.0,120917,01,W*4A
$GPGSA,M,2,09,23,06,19,03,17,,,,,,,02.4,02.4,*12
$PMGNST,01.10,2,T,938,12.8,+03655,00*4E
$GPGLL,4715.2646,N,00130.5491,W,163913.041,A*26
$GPGGA,163913.04,4715.2646,N,00130.5491,W,1,05,2.8,00042,M,,,,*3B
$GPRMC,163913.04,A,4715.2646,N,00130.5491,W,00.0,000.0,120917,01,W*4A
$GPGSA,M,2,23,09,19,06,17,,,,,,,,02.8,02.8,*11
$GPGSV,3,1,10,23,72,160,50,03,60,066,,09,46,203,50,19,44,269,42*75
$GPGSV,3,2,10,17,41,239,36,22,38,080,,06,36,306,42,01,29,135,*79
$GPGSV,3,3,10,31,16,043,,11,09,152,,124,31,151,,120,34,198,*71
$GPGLL,4715.2646,N,00130.5490,W,163914.049,A*28
$GPGGA,163914.05,4715.2646,N,00130.5490,W,1,04,3.0,00042,M,,,,*34
$GPRMC,163914.05,A,4715.2646,N,00130.5490,W,00.0,000.0,120917,01,W*4D
$GPGSA,M,2,23,09,06,19,,,,,,,,,03.0,03.0,*17
$PMGNST,01.10,2,T,938,12.8,+03656,00*4D
$GPGLL,4715.2646,N,00130.5490,W,163915.045,A*25
$GPGGA,163915.05,4715.2646,N,00130.5490,W,1,05,2.8,00042,M,,,,*3D
$GPRMC,163915.05,A,4715.2646,N,00130.5490,W,00.0,000.0,120917,01,W*4C
$GPGSA,M,2,23,09,06,19,17,,,,,,,,02.8,02.8,*11
$GPGSV,3,1,10,23,72,160,50,03,60,066,,09,46,203,49,19,44,269,40*7F
$GPGSV,3,2,10,17,41,239,36,22,38,080,,06,36,306,42,01,29,135,*79
$GPGSV,3,3,10,31,16,043,,11,09,152,,124,31,151,,120,34,198,*71
$GPGLL,4715.2646,N,00130.5490,W,163916.041,A*22
$GPGGA,163916.04,4715.2646,N,00130.5490,W,1,05,2.8,00042,M,,,,*3F
$GPRMC,163916.04,A,4715.2646,N,00130.5490,W,00.0,000.0,120917,01,W*4E
$GPGSA,M,2,23,09,06,19,17,,,,,,,,02.8,02.8,*11
$PMGNST,01.10,2,T,938,12.8,+03657,00*4C
$GPGLL,4715.2646,N,00130.5490,W,163917.049,A*2B
$GPGGA,163917.05,4715.2646,N,00130.5490,W,1,05,2.9,00042,M,,,,*3E
$GPRMC,163917.05,A,4715.2646,N,00130.5490,W,00.0,000.0,120917,01,W*4E
$GPGSA,M,2,23,09,06,19,17,,,,,,,,02.9,02.9,*11
$GPGSV,3,1,10,23,72,160,50,03,60,066,36,09,46,203,49,19,44,269,39*74
$GPGSV,3,2,10,17,41,239,36,22,38,080,,06,36,306,41,01,29,135,*7A
$GPGSV,3,3,10,31,16,043,,11,09,152,,124,31,151,,120,34,198,*71
$GPGLL,4715.2646,N,00130.5490,W,163918.045,A*28
$GPGGA,163918.05,4715.2646,N,00130.5490,W,1,06,2.6,00042,M,,,,*3D
$GPRMC,163918.05,A,4715.2646,N,00130.5490,W,00.0,000.0,120917,01,W*41
$GPGSA,M,2,23,09,06,19,03,17,,,,,,,02.6,02.6,*12
$PMGNST,01.10,2,T,938,12.8,+03659,00*42
$GPGLL,4715.2646,N,00130.5490,W,163919.041,A*2D
$GPGGA,163919.04,4715.2646,N,00130.5490,W,1,06,2.6,00042,M,,,,*3D
$GPRMC,163919.04,A,4715.2646,N,00130.5490,W,00.0,000.0,120917,01,W*41
$GPGSA,M,2,23,09,06,19,17,03,,,,,,,02.6,02.6,*12
$GPGSV,3,1,10,23,72,160,50,03,60,066,36,09,46,203,49,19,44,269,41*7B
$GPGSV,3,2,10,17,41,239,36,22,38,080,,06,36,306,42,01,29,135,*79
$GPGSV,3,3,10,31,16,043,,11,09,152,,124,31,151,,120,34,198,*71
$GPGLL,4715.2646,N,00130.5490,W,163920.049,A*2F
$GPGGA,163920.05,4715.2646,N,00130.5490,W,1,05,2.7,00042,M,,,,*34
$GPRMC,163920.05,A,4715.2646,N,00130.5490,W,00.0,000.0,120917,01,W*4A
$GPGSA,M,2,23,09,06,19,03,,,,,,,,02.7,02.7,*14
$PMGNST,01.10,2,T,938,12.8,+03660,00*48
$GPGLL,4715.2646,N,00130.5490,W,163921.045,A*22
$GPGGA,163921.05,4715.2646,N,00130.5490,W,1,05,2.7,00042,M,,,,*35
$GPRMC,163921.05,A,4715.2646,N,00130.5490,W,00.0,000.0,120917,01,W*4B
$GPGSA,M,2,23,09,06,19,03,,,,,,,,02.7,02.7,*14
$GPGSV,3,1,10,23,72,160,50,03,60,066,36,09,46,203,50,19,44,269,39*7C
$GPGSV,3,2,10,17,41,239,,22,38,080,,06,36,306,44,01,29,135,*7A
$GPGSV,3,3,10,31,16,043,,11,09,152,,124,31,151,,120,34,198,*71
$GPGLL,4715.2646,N,00130.5490,W,163922.041,A*25
$GPGGA,163922.04,4715.2646,N,00130.5490,W,1,05,2.5,00042,M,,,,*35
$GPRMC,163922.04,A,4715.2646,N,00130.5490,W,00.0,000.0,120917,01,W*49
$GPGSA,M,2,23,09,06,19,03,,,,,,,,02.5,02.5,*14
$PMGNST,01.10,2,T,938,12.8,+03661,00*49
$GPGLL,4715.2646,N,00130.5490,W,163923.049,A*2C
$GPGGA,163923.05,4715.2646,N,00130.5490,W,1,06,2.4,00042,M,,,,*37
$GPRMC,163923.05,A,4715.2646,N,00130.5490,W,00.0,000.0,120917,01,W*49
$GPGSA,M,2,23,09,06,19,03,17,,,,,,,02.4,02.4,*12
$GPGSV,3,1,10,23,72,160,50,03,60,066,38,09,46,203,49,19,44,269,41*75
$GPGSV,3,2,10,17,41,239,36,22,38,080,,06,36,306,44,01,29,135,*7F
$GPGSV,3,3,10,31,16,043,,11,09,152,,124,31,151,,120,34,198,*71
$GPGLL,4715.2646,N,00130.5490,W,163924.045,A*27
$GPGGA,163924.05,4715.2646,N,00130.5490,W,1,06,2.4,00042,M,,,,*30
$GPRMC,163924.05,A,4715.2646,N,00130.5490,W,00.0,000.0,120917,01,W*4E
$GPGSA,M,2,23,09,06,19,03,17,,,,,,,02.4,02.4,*12
$PMGNST,01.10,2,T,938,12.8,+03663,00*4B
$GPGLL,4715.2646,N,00130.5490,W,163925.042,A*21
$GPGGA,163925.04,4715.2646,N,00130.5490,W,1,05,2.5,00042,M,,,,*32
$GPRMC,163925.04,A,4715.2646,N,00130.5490,W,00.0,000.0,120917,01,W*4E
$GPGSA,M,2,23,09,06,19,03,,,,,,,,02.5,02.5,*14
$GPGSV,3,1,10,23,72,160,49,03,60,066,38,09,46,203,49,19,44,269,42*7E
$GPGSV,3,2,10,17,41,239,36,22,38,080,,06,36,306,44,01,29,135,*7F
$GPGSV,3,3,10,31,16,043,,11,09,152,,124,31,151,,120,34,198,*71
$GPGLL,4715.2646,N,00130.5489,W,163926.050,A*29
$GPGGA,163926.05,4715.2646,N,00130.5489,W,1,06,2.2,00042,M,,,,*3C
$GPRMC,163926.05,A,4715.2646,N,00130.5489,W,00.0,000.0,120917,01,W*44
$GPGSA,M,2,23,09,06,03,19,17,,,,,,,02.2,02.2,*12
$PMGNST,01.10,2,T,938,12.8,+03664,00*4C
$GPGLL,4715.2645,N,00130.5489,W,163927.046,A*2C
$GPGGA,163927.05,4715.2645,N,00130.5489,W,1,06,2.3,00042,M,,,,*3F
$GPRMC,163927.05,A,4715.2645,N,00130.5489,W,00.0,000.0,120917,01,W*46
$GPGSA,M,2,23,09,06,03,19,17,,,,,,,02.3,02.3,*12
$GPGSV,3,1,10,23,72,160,50,03,60,066,42,09,46,203,49,19,44,269,40*79
$GPGSV,3,2,10,17,41,239,36,22,38,080,,06,36,306,44,01,29,135,*7F
$GPGSV,3,3,10,31,16,043,,11,09,152,,124,31,151,,120,34,198,*71
$GPGLL,4715.2645,N,00130.5489,W,163928.042,A*27
$GPGGA,163928.04,4715.2645,N,00130.5489,W,1,05,2.5,00042,M,,,,*34
$GPRMC,163928.04,A,4715.2645,N,00130.5489,W,00.0,000.0,120917,01,W*48
$GPGSA,M,2,23,09,06,03,19,,,,,,,,02.5,02.5,*14
$PMGNST,01.10,2,T,938,12.8,+03665,00*4D
$GPGLL,4715.2645,N,00130.5490,W,163929.050,A*2D
$GPGGA,163929.05,4715.2645,N,00130.5490,W,1,05,2.5,00042,M,,,,*3C
$GPRMC,163929.05,A,4715.2645,N,00130.5490,W,00.0,000.0,120917,01,W*40
$GPGSA,M,2,23,09,06,03,19,,,,,,,,02.5,02.5,*14
$GPGSV,3,1,10,23,72,160,50,03,60,066,39,09,46,203,49,19,44,269,39*7B
$GPGSV,3,2,10,17,41,239,36,22,38,080,,06,36,306,44,01,29,135,*7F
$GPGSV,3,3,10,31,16,043,,11,09,152,,124,31,151,,120,34,198,*71
$GPGLL,4715.2645,N,00130.5490,W,163930.046,A*22
$GPGGA,163930.05,4715.2645,N,00130.5490,W,1,06,2.4,00042,M,,,,*36
$GPRMC,163930.05,A,4715.2645,N,00130.5490,W,00.0,000.0,120917,01,W*48
$GPGSA,M,2,23,09,06,19,03,17,,,,,,,02.4,02.4,*12
$PMGNST,01.10,2,T,938,12.8,+03667,00*4F
$GPGLL,4715.2645,N,00130.5490,W,163931.042,A*27
$GPGGA,163931.04,4715.2645,N,00130.5490,W,1,06,2.4,00042,M,,,,*36
$GPRMC,163931.04,A,4715.2645,N,00130.5490,W,00.0,000.0,120917,01,W*48
$GPGSA,M,2,23,09,06,03,19,17,,,,,,,02.4,02.4,*12
$GPGSV,3,1,10,23,72,160,50,03,60,066,39,09,46,203,48,19,44,269,39*7A
$GPGSV,3,2,10,17,41,239,36,22,38,080,,06,36,306,44,01,29,135,*7F
$GPGSV,3,3,10,31,16,043,,11,09,152,,124,31,151,,120,34,198,*71
$GPGLL,4715.2645,N,00130.5490,W,163932.050,A*27
$GPGGA,163932.05,4715.2645,N,00130.5490,W,1,06,2.3,00042,M,,,,*33
$GPRMC,163932.05,A,4715.2645,N,00130.5490,W,00.0,000.0,120917,01,W*4A
$GPGSA,M,2,23,09,06,03,19,17,,,,,,,02.3,02.3,*12
$PMGNST,01.10,2,T,938,12.8,+03668,00*40
$GPGLL,4715.2645,N,00130.5490,W,163933.046,A*21
$GPGGA,163933.05,4715.2645,N,00130.5490,W,1,06,2.4,00042,M,,,,*35
$GPRMC,163933.05,A,4715.2645,N,00130.5490,W,00.0,000.0,120917,01,W*4B
$GPGSA,M,2,23,09,06,03,19,17,,,,,,,02.4,02.4,*12
$GPGSV,3,1,10,23,72,160,50,03,60,066,40,09,46,203,48,19,44,269,38*75
$GPGSV,3,2,10,17,41,239,36,22,38,080,,06,36,306,45,01,29,135,*7E
$GPGSV,3,3,10,31,16,043,,11,09,152,,124,31,151,,120,34,198,*71
$GPGLL,4715.2645,N,00130.5490,W,163934.042,A*22
$GPGGA,163934.04,4715.2645,N,00130.5490,W,1,06,2.4,00042,M,,,,*33
$GPRMC,163934.04,A,4715.2645,N,00130.5490,W,00.0,000.0,120917,01,W*4D
$GPGSA,M,2,23,09,06,03,19,17,,,,,,,02.4,02.4,*12
$PMGNST,01.10,2,T,938,12.8,+03669,00*41
$GPGLL,4715.2645,N,00130.5490,W,163935.050,A*20
$GPGGA,163935.05,4715.2645,N,00130.5490,W,1,06,2.4,00042,M,,,,*33
$GPRMC,163935.05,A,4715.2645,N,00130.5490,W,00.0,000.0,120917,01,W*4D
$GPGSA,M,2,23,09,06,19,03,17,,,,,,,02.4,02.4,*12
$GPGSV,3,1,10,23,72,160,50,03,60,066,39,09,46,203,49,19,44,269,39*7B
$GPGSV,3,2,10,17,41,239,36,22,38,080,,06,36,306,44,01,29,135,*7F
$GPGSV,3,3,10,31,16,043,,11,09,152,,124,31,151,,120,34,198,*71
$GPGLL,4715.2645,N,00130.5490,W,163936.046,A*24
$GPGGA,163936.05,4715.2645,N,00130.5490,W,1,06,2.3,00042,M,,,,*37
$GPRMC,163936.05,A,4715.2645,N,00130.5490,W,00.0,000.0,120917,01,W*4E
$GPGSA,M,2,23,09,06,03,19,17,,,,,,,02.3,02.3,*12
$PMGNST,01.10,2,T,938,12.8,+03670,00*49
$GPGLL,4715.2645,N,00130.5490,W,163937.042,A*21
$GPGGA,163937.04,4715.2645,N,00130.5490,W,1,06,2.3,00042,M,,,,*37
$GPRMC,163937.04,A,4715.2645,N,00130.5490,W,00.0,000.0,120917,01,W*4E
$GPGSA,M,2,23,09,06,19,03,17,,,,,,,02.3,02.3,*12
$GPGSV,3,1,10,23,72,160,50,03,60,066,39,09,46,203,49,19,44,269,40*75
$GPGSV,3,2,10,17,41,239,36,22,38,080,,06,36,306,44,01,29,135,*7F
$GPGSV,3,3,10,31,16,043,,11,09,152,,124,31,151,,120,34,198,*71
$GPGLL,4715.2645,N,00130.5489,W,163938.038,A*2B
$GPGGA,163938.04,4715.2645,N,00130.5489,W,1,06,2.2,00042,M,,,,*31
$GPRMC,163938.04,A,4715.2645,N,00130.5489,W,00.0,000.0,120917,01,W*49
$GPGSA,M,2,23,09,06,19,03,17,,,,,,,02.2,02.2,*12
$PMGNST,01.10,2,T,938,12.8,+03671,00*48
$GPGLL,4715.2645,N,00130.5489,W,163939.046,A*23
$GPGGA,163939.05,4715.2645,N,00130.5489,W,1,06,2.2,00042,M,,,,*31
$GPRMC,163939.05,A,4715.2645,N,00130.5489,W,00.0,000.0,120917,01,W*49
$GPGSA,M,2,23,09,06,03,19,17,,,,,,,02.2,02.2,*12
$GPGSV,3,1,10,23,72,160,51,03,60,066,41,09,46,203,50,19,44,269,41*72
$GPGSV,3,2,10,17,41,239,39,22,38,080,,06,36,306,46,01,29,135,*72
$GPGSV,3,3,10,31,16,043,,11,09,152,,124,31,151,,120,34,198,*71
$GPGLL,4715.2645,N,00130.5489,W,163940.042,A*29
$GPGGA,163940.04,4715.2645,N,00130.5489,W,1,06,2.3,00042,M,,,,*3F
$GPRMC,163940.04,A,4715.2645,N,00130.5489,W,00.0,000.0,120917,01,W*46
$GPGSA,M,2,23,09,06,03,19,17,,,,,,,02.3,02.3,*12
$PMGNST,01.10,2,T,938,12.8,+03673,00*4A
$GPGLL,4715.2646,N,00130.5489,W,163941.050,A*28
$GPGGA,163941.05,4715.2646,N,00130.5489,W,1,06,2.2,00042,M,,,,*3D
$GPRMC,163941.05,A,4715.2646,N,00130.5489,W,00.0,000.0,120917,01,W*45
$GPGSA,M,2,23,09,06,19,17,03,,,,,,,02.2,02.2,*12
$GPGSV,3,1,10,23,72,160,51,03,60,066,39,09,46,203,49,19,44,269,41*75
$GPGSV,3,2,10,17,41,239,39,22,38,080,,06,36,306,45,01,29,135,*71
$GPGSV,3,3,10,31,16,043,,11,09,152,,124,31,151,,120,34,198,*71
$GPGLL,4715.2646,N,00130.5488,W,163942.046,A*2D
$GPGGA,163942.05,4715.2646,N,00130.5488,W,1,06,2.2,00042,M,,,,*3F
$GPRMC,163942.05,A,4715.2646,N,00130.5488,W,00.0,000.0,120917,01,W*47
$GPGSA,M,2,23,09,06,19,17,03,,,,,,,02.2,02.2,*12
$PMGNST,01.10,2,T,938,12.8,+03674,00*4D
$GPGLL,4715.2646,N,00130.5488,W,163943.042,A*28
$GPGGA,163943.04,4715.2646,N,00130.5488,W,1,06,2.4,00042,M,,,,*39
$GPRMC,163943.04,A,4715.2646,N,00130.5488,W,00.0,000.0,120917,01,W*47
$GPGSA,M,2,23,09,06,19,17,03,,,,,,,02.4,02.4,*12
$GPGSV,3,1,10,23,72,160,51,03,60,066,36,09,46,203,50,19,44,269,41*72
$GPGSV,3,2,10,17,41,239,38,22,38,080,,06,36,306,45,01,29,135,*70
$GPGSV,3,3,10,31,16,043,,11,09,152,,124,31,151,,120,34,198,*71
$GPGLL,4715.2646,N,00130.5488,W,163944.050,A*2C
$GPGGA,163944.05,4715.2646,N,00130.5488,W,1,06,2.5,00042,M,,,,*3E
$GPRMC,163944.05,A,4715.2646,N,00130.5488,W,00.0,000.0,120917,01,W*41
$GPGSA,M,2,23,09,06,19,17,03,,,,,,,02.5,02.5,*12
$PMGNST,01.10,2,T,938,12.8,+03675,00*4C
$GPGLL,4715.2646,N,00130.5488,W,163945.046,A*2A
$GPGGA,163945.05,4715.2646,N,00130.5488,W,1,06,2.5,00042,M,,,,*3F
$GPRMC,163945.05,A,4715.2646,N,00130.5488,W,00.0,000.0,120917,01,W*40
$GPGSA,M,2,23,09,06,19,03,17,,,,,,,02.5,02.5,*12
$GPGSV,3,1,10,23,72,160,51,03,60,066,36,09,46,203,49,19,44,269,39*75
$GPGSV,3,2,10,17,41,239,36,22,38,080,,06,36,306,44,01,29,135,*7F
$GPGSV,3,3,10,31,16,043,,11,09,152,,124,31,151,,120,34,198,*71
$GPGLL,4715.2646,N,00130.5488,W,163946.042,A*2D
$GPGGA,163946.04,4715.2646,N,00130.5488,W,1,06,2.5,00042,M,,,,*3D
$GPRMC,163946.04,A,4715.2646,N,00130.5488,W,00.0,000.0,120917,01,W*42
$GPGSA,M,2,23,09,06,19,17,03,,,,,,,02.5,02.5,*12
$PMGNST,01.10,2,T,938,12.8,+03676,00*4F
$GPGLL,4715.2646,N,00130.5488,W,163947.050,A*2F
$GPGGA,163947.05,4715.2646,N,00130.5488,W,1,06,2.4,00042,M,,,,*3C
$GPRMC,163947.05,A,4715.2646,N,00130.5488,W,00.0,000.0,120917,01,W*42
$GPGSA,M,2,23,09,06,17,19,03,,,,,,,02.4,02.4,*12
$GPGSV,3,1,10,23,72,160,51,03,60,066,38,09,46,203,49,19,44,269,38*7A
$GPGSV,3,2,10,17,41,239,38,22,38,080,,06,36,306,45,01,29,135,*70
$GPGSV,3,3,10,31,16,043,,11,09,152,,124,31,151,,120,34,198,*71
$GPGLL,4715.2646,N,00130.5488,W,163948.046,A*27
$GPGGA,163948.05,4715.2646,N,00130.5488,W,1,06,2.3,00042,M,,,,*34
$GPRMC,163948.05,A,4715.2646,N,00130.5488,W,00.0,000.0,120917,01,W*4D
$GPGSA,M,2,23,09,06,19,03,17,,,,,,,02.3,02.3,*12
$PMGNST,01.10,2,T,938,12.8,+03677,00*4E
$GPGLL,4715.2646,N,00130.5488,W,163949.042,A*22
$GPGGA,163949.04,4715.2646,N,00130.5488,W,1,06,2.5,00042,M,,,,*32
$GPRMC,163949.04,A,4715.2646,N,00130.5488,W,00.0,000.0,120917,01,W*4D
$GPGSA,M,2,23,09,06,19,03,17,,,,,,,02.5,02.5,*12
$GPGSV,3,1,10,23,72,160,51,03,60,066,36,09,46,203,49,19,44,269,40*7B
$GPGSV,3,2,10,17,41,239,36,22,38,080,,06,36,306,45,01,29,135,*7E
$GPGSV,3,3,10,31,16,043,,11,09,152,,124,31,151,,120,34,198,*71
$GPGLL,4715.2646,N,00130.5488,W,163950.050,A*29
$GPGGA,163950.05,4715.2646,N,00130.5488,W,1,06,2.5,00042,M,,,,*3B
$GPRMC,163950.05,A,4715.2646,N,00130.5488,W,00.0,000.0,120917,01,W*44
$GPGSA,M,2,23,09,06,19,03,17,,,,,,,02.5,02.5,*12
$PMGNST,01.10,2,T,938,12.8,+03678,00*41
$GPGLL,4715.2646,N,00130.5488,W,163951.046,A*2F
$GPGGA,163951.05,4715.2646,N,00130.5488,W,1,06,2.4,00042,M,,,,*3B
$GPRMC,163951.05,A,4715.2646,N,00130.5488,W,00.0,000.0,120917,01,W*45
$GPGSA,M,2,23,09,06,19,03,17,,,,,,,02.4,02.4,*12
$GPGSV,3,1,10,23,72,160,51,03,60,066,38,09,46,203,49,19,44,269,42*77
$GPGSV,3,2,10,17,41,239,36,22,38,080,,06,36,306,44,01,29,135,*7F
$GPGSV,3,3,10,31,16,043,,11,09,152,,124,31,151,,120,34,198,*71
$GPGLL,4715.2646,N,00130.5487,W,163952.042,A*27
$GPGGA,163952.04,4715.2646,N,00130.5487,W,1,06,2.6,00042,M,,,,*34
$GPRMC,163952.04,A,4715.2646,N,00130.5487,W,00.0,000.0,120917,01,W*48
$GPGSA,M,2,23,09,06,19,17,03,,,,,,,02.6,02.6,*12
$PMGNST,01.10,2,T,938,12.8,+03679,00*40
$GPGLL,4715.2646,N,00130.5487,W,163953.050,A*25
$GPGGA,163953.05,4715.2646,N,00130.5487,W,1,06,2.5,00042,M,,,,*37
$GPRMC,163953.05,A,4715.2646,N,00130.5487,W,00.0,000.0,120917,01,W*48
$GPGSA,M,2,23,09,06,19,03,17,,,,,,,02.5,02.5,*12
$GPGSV,3,1,10,23,72,160,51,03,60,066,36,09,46,203,49,19,44,269,41*7A
$GPGSV,3,2,10,17,41,239,36,22,38,080,,06,36,306,44,01,29,135,*7F
$GPGSV,3,3,10,31,16,043,,11,09,152,,124,31,151,,120,34,198,*71
$GPGLL,4715.2646,N,00130.5487,W,163954.046,A*25
$GPGGA,163954.05,4715.2646,N,00130.5487,W,1,06,2.5,00042,M,,,,*30
$GPRMC,163954.05,A,4715.2646,N,00130.5487,W,00.0,000.0,120917,01,W*4F
$GPGSA,M,2,23,09,06,19,17,03,,,,,,,02.5,02.5,*12
$PMGNST,01.10,2,T,938,12.8,+03680,00*46
$GPGLL,4715.2647,N,00130.5487,W,163955.042,A*21
$GPGGA,163955.04,4715.2647,N,00130.5487,W,1,06,2.6,00042,M,,,,*32
$GPRMC,163955.04,A,4715.2647,N,00130.5487,W,00.0,000.0,120917,01,W*4E
$GPGSA,M,2,23,09,06,19,17,03,,,,,,,02.6,02.6,*12
$GPGSV,3,1,10,23,72,160,52,03,60,066,36,09,46,203,49,19,44,269,41*79
$GPGSV,3,2,10,17,41,239,36,22,38,080,,06,36,306,44,01,29,135,*7F
$GPGSV,3,3,10,31,16,043,,11,09,152,,124,31,151,,120,34,198,*71
$GPGLL,4715.2647,N,00130.5487,W,163956.050,A*21
$GPGGA,163956.05,4715.2647,N,00130.5487,W,1,06,2.6,00042,M,,,,*30
$GPRMC,163956.05,A,4715.2647,N,00130.5487,W,00.0,000.0,120917,01,W*4C
$GPGSA,M,2,23,09,06,19,17,03,,,,,,,02.6,02.6,*12
$PMGNST,01.10,2,T,938,12.8,+03681,00*47
$GPGLL,4715.2647,N,00130.5487,W,163957.046,A*27
$GPGGA,163957.05,4715.2647,N,00130.5487,W,1,06,2.6,00042,M,,,,*31
$GPRMC,163957.05,A,4715.2647,N,00130.5487,W,00.0,000.0,120917,01,W*4D
$GPGSA,M,2,23,09,06,19,03,17,,,,,,,02.6,02.6,*12
$GPGSV,3,1,10,23,72,160,51,03,60,066,36,09,46,203,48,19,44,269,39*74
$GPGSV,3,2,10,17,41,239,36,22,38,080,,06,36,306,43,01,29,135,*78
$GPGSV,3,3,10,31,16,043,,11,09,152,,124,31,151,,120,34,198,*71
$GPGLL,4715.2647,N,00130.5487,W,163958.042,A*2C
$GPGGA,163958.04,4715.2647,N,00130.5487,W,1,05,2.7,00042,M,,,,*3D
$GPRMC,163958.04,A,4715.2647,N,00130.5487,W,00.0,000.0,120917,01,W*43
$GPGSA,M,2,23,09,06,19,03,,,,,,,,02.7,02.7,*14
$PMGNST,01.10,2,T,938,12.8,+03682,00*44
$GPGLL,4715.2647,N,00130.5487,W,163959.050,A*2E
$GPGGA,163959.05,4715.2647,N,00130.5487,W,1,06,2.6,00042,M,,,,*3F
$GPRMC,163959.05,A,4715.2647,N,00130.5487,W,00.0,000.0,120917,01,W*43
$GPGSA,M,2,23,09,06,19,03,17,,,,,,,02.6,02.6,*12
$GPGSV,3,1,10,23,72,160,51,03,60,066,36,09,46,203,49,19,44,269,38*74
$GPGSV,3,2,10,17,41,239,36,22,38,080,,06,36,306,44,01,29,135,*7F
$GPGSV,3,3,10,31,16,043,,11,09,152,,124,31,151,,120,34,198,*71
$GPGLL,4715.2647,N,00130.5487,W,164000.046,A*2B
$GPGGA,164000.05,4715.2647,N,00130.5487,W,1,06,2.5,00042,M,,,,*3E
$GPRMC,164000.05,A,4715.2647,N,00130.5487,W,00.0,000.0,120917,01,W*41
$GPGSA,M,2,23,09,06,19,03,17,,,,,,,02.5,02.5,*12
$PMGNST,01.10,2,T,938,12.8,+03683,00*45
$GPGLL,4715.2647,N,00130.5487,W,164001.042,A*2E
$GPGGA,164001.04,4715.2647,N,00130.5487,W,1,06,2.7,00042,M,,,,*3C
$GPRMC,164001.04,A,4715.2647,N,00130.5487,W,00.0,000.0,120917,01,W*41
$GPGSA,M,2,23,09,06,19,03,17,,,,,,,02.7,02.7,*12
$GPGSV,3,1,10,23,72,160,51,03,60,066,36,09,46,203,49,19,44,269,36*7A
$GPGSV,3,2,10,17,41,239,36,22,38,080,,06,36,306,42,01,29,135,*79
$GPGSV,3,3,10,31,16,043,,11,09,152,,124,31,151,,120,34,198,*71
$GPGLL,4715.2647,N,00130.5487,W,164002.050,A*2E
$GPGGA,164002.05,4715.2647,N,00130.5487,W,1,06,2.6,00042,M,,,,*3F
$GPRMC,164002.05,A,4715.2647,N,00130.5487,W,00.0,000.0,120917,01,W*43
$GPGSA,M,2,23,09,06,19,03,17,,,,,,,02.6,02.6,*12
$PMGNST,01.10,2,T,938,12.8,+03684,00*42
$GPGLL,4715.2647,N,00130.5488,W,164003.046,A*27
$GPGGA,164003.05,4715.2647,N,00130.5488,W,1,06,2.5,00042,M,,,,*32
$GPRMC,164003.05,A,4715.2647,N,00130.5488,W,00.0,000.0,120917,01,W*4D
$GPGSA,M,2,23,09,06,19,03,17,,,,,,,02.5,02.5,*12
$GPGSV,3,1,10,23,72,160,51,03,60,066,36,09,46,203,49,19,44,269,38*74
$GPGSV,3,2,10,17,41,239,36,22,38,080,,06,36,306,44,01,29,135,*7F
$GPGSV,3,3,10,31,16,043,,11,09,152,,124,31,151,,120,34,198,*71
$GPGLL,4715.2647,N,00130.5488,W,164004.042,A*24
$GPGGA,164004.04,4715.2647,N,00130.5488,W,1,06,2.4,00042,M,,,,*35
$GPRMC,164004.04,A,4715.2647,N,00130.5488,W,00.0,000.0,120917,01,W*4B
$GPGSA,M,2,23,09,06,03,19,17,,,,,,,02.4,02.4,*12
$PMGNST,01.10,2,T,938,12.8,+03685,00*43
$GPGLL,4715.2647,N,00130.5488,W,164005.050,A*26
$GPGGA,164005.05,4715.2647,N,00130.5488,W,1,06,2.4,00042,M,,,,*35
$GPRMC,164005.05,A,4715.2647,N,00130.5488,W,00.0,000.0,120917,01,W*4B
$GPGSA,M,2,23,09,06,19,03,17,,,,,,,02.4,02.4,*12
$GPGSV,3,1,10,23,72,160,51,03,60,066,38,09,46,203,49,19,44,269,39*7B
$GPGSV,3,2,10,17,41,239,36,22,38,080,,06,36,306,44,01,29,135,*7F
$GPGSV,3,3,10,31,16,043,,11,09,152,,124,31,151,,120,34,198,*71
$GPGLL,4715.2647,N,00130.5488,W,164006.046,A*22
$GPGGA,164006.05,4715.2647,N,00130.5488,W,1,06,2.4,00042,M,,,,*36
$GPRMC,164006.05,A,4715.2647,N,00130.5488,W,00.0,000.0,120917,01,W*48
$GPGSA,M,2,23,09,06,19,03,17,,,,,,,02.4,02.4,*12
$PMGNST,01.10,2,T,938,12.8,+03686,00*40
$GPGLL,4715.2647,N,00130.5488,W,164007.042,A*27
$GPGGA,164007.04,4715.2647,N,00130.5488,W,1,06,2.5,00042,M,,,,*37
$GPRMC,164007.04,A,4715.2647,N,00130.5488,W,00.0,000.0,120917,01,W*48
$GPGSA,M,2,23,09,06,19,17,03,,,,,,,02.5,02.5,*12
$GPGSV,3,1,10,23,72,160,51,03,60,066,36,09,46,203,49,19,44,269,39*75
$GPGSV,3,2,10,17,41,239,36,22,38,080,,06,36,306,44,01,29,135,*7F
$GPGSV,3,3,10,31,16,043,,11,09,152,,124,31,151,,120,34,198,*71
$GPGLL,4715.2647,N,00130.5487,W,164008.050,A*24
$GPGGA,164008.05,4715.2647,N,00130.5487,W,1,06,2.4,00042,M,,,,*37
$GPRMC,164008.05,A,4715.2647,N,00130.5487,W,00.0,000.0,120917,01,W*49
$GPGSA,M,2,23,09,06,19,03,17,,,,,,,02.4,02.4,*12
$PMGNST,01.10,2,T,938,12.8,+03687,00*41
$GPGLL,4715.2647,N,00130.5487,W,164009.047,A*23
$GPGGA,164009.05,4715.2647,N,00130.5487,W,1,06,2.4,00042,M,,,,*36
$GPRMC,164009.05,A,4715.2647,N,00130.5487,W,00.0,000.0,120917,01,W*48
$GPGSA,M,2,23,09,06,19,03,17,,,,,,,02.4,02.4,*12
$GPGSV,3,1,10,23,72,160,51,03,60,066,38,09,46,203,49,19,44,269,41*74
$GPGSV,3,2,10,17,41,239,36,22,38,080,,06,36,306,42,01,29,135,*79
$GPGSV,3,3,10,31,16,043,,11,09,152,,124,31,151,,120,34,198,*71
$GPGLL,4715.2647,N,00130.5487,W,164010.043,A*2F
$GPGGA,164010.04,4715.2647,N,00130.5487,W,1,05,2.7,00042,M,,,,*3F
$GPRMC,164010.04,A,4715.2647,N,00130.5487,W,00.0,000.0,120917,01,W*41
$GPGSA,M,2,23,09,06,19,03,,,,,,,,02.7,02.7,*14
$PMGNST,01.10,2,T,938,12.8,+03688,00*4E
$GPGLL,4715.2647,N,00130.5487,W,164011.051,A*2D
$GPGGA,164011.05,4715.2647,N,00130.5487,W,1,06,2.4,00042,M,,,,*3F
$GPRMC,164011.05,A,4715.2647,N,00130.5487,W,00.0,000.0,120917,01,W*41
$GPGSA,M,2,23,09,06,19,03,17,,,,,,,02.4,02.4,*12
$GPGSV,3,1,10,23,72,160,51,03,60,066,38,09,46,203,49,19,44,269,41*74
$GPGSV,3,2,10,17,41,239,36,22,38,080,,06,36,306,44,01,29,135,*7F
$GPGSV,3,3,10,31,16,043,,11,09,152,,124,31,151,,120,34,198,*71
$GPGLL,4715.2647,N,00130.5487,W,164012.047,A*29
$GPGGA,164012.05,4715.2647,N,00130.5487,W,1,06,2.6,00042,M,,,,*3E
$GPRMC,164012.05,A,4715.2647,N,00130.5487,W,00.0,000.0,120917,01,W*42
$GPGSA,M,2,23,09,06,19,03,17,,,,,,,02.6,02.6,*12
$PMGNST,01.10,2,T,938,12.8,+03689,00*4F
$GPGLL,4715.2647,N,00130.5487,W,164013.043,A*2C
$GPGGA,164013.04,4715.2647,N,00130.5487,W,1,06,2.6,00042,M,,,,*3E
$GPRMC,164013.04,A,4715.2647,N,00130.5487,W,00.0,000.0,120917,01,W*42
$GPGSA,M,2,23,09,06,19,03,17,,,,,,,02.6,02.6,*12
$GPGSV,3,1,10,23,72,160,51,03,60,066,36,09,46,203,48,19,44,269,39*74
$GPGSV,3,2,10,17,41,239,36,22,38,080,,06,36,306,44,01,29,135,*7F
$GPGSV,3,3,10,31,16,043,,11,09,152,,124,31,151,,120,34,198,*71
$GPGLL,4715.2647,N,00130.5487,W,164014.051,A*28
$GPGGA,164014.05,4715.2647,N,00130.5487,W,1,06,2.6,00042,M,,,,*38
$GPRMC,164014.05,A,4715.2647,N,00130.5487,W,00.0,000.0,120917,01,W*44
$GPGSA,M,2,23,09,06,19,03,17,,,,,,,02.6,02.6,*12
$PMGNST,01.10,2,T,938,12.8,+03689,00*4F
$GPGLL,4715.2647,N,00130.5487,W,164015.047,A*2E
$GPGGA,164015.05,4715.2647,N,00130.5487,W,1,05,2.7,00042,M,,,,*3B
$GPRMC,164015.05,A,4715.2647,N,00130.5487,W,00.0,000.0,120917,01,W*45
$GPGSA,M,2,23,09,06,19,03,,,,,,,,02.7,02.7,*14
$GPGSV,3,1,10,23,72,160,51,03,60,066,36,09,46,203,49,19,44,269,39*75
$GPGSV,3,2,10,17,41,239,36,22,38,080,,06,36,306,44,01,29,135,*7F
$GPGSV,3,3,10,31,16,043,,11,09,152,,124,31,151,,120,34,198,*71
$GPGLL,4715.2648,N,00130.5487,W,164016.043,A*26
$GPGGA,164016.04,4715.2648,N,00130.5487,W,1,06,2.6,00042,M,,,,*34
$GPRMC,164016.04,A,4715.2648,N,00130.5487,W,00.0,000.0,120917,01,W*48
$GPGSA,M,2,23,09,06,19,03,17,,,,,,,02.6,02.6,*12
$PMGNST,01.10,2,T,938,12.8,+03690,00*47
$GPGLL,4715.2648,N,00130.5487,W,164017.051,A*24
$GPGGA,164017.05,4715.2648,N,00130.5487,W,1,05,2.7,00042,M,,,,*36
$GPRMC,164017.05,A,4715.2648,N,00130.5487,W,00.0,000.0,120917,01,W*48
$GPGSA,M,2,23,09,06,19,03,,,,,,,,02.7,02.7,*14
$GPGSV,3,1,10,23,72,160,51,03,60,066,36,09,46,203,49,19,44,269,40*7B
$GPGSV,3,2,10,17,41,239,,22,38,080,,06,36,306,44,01,29,135,*7A
$GPGSV,3,3,10,31,16,043,,11,09,152,,124,31,151,,120,34,198,*71
$GPGLL,4715.2648,N,00130.5487,W,164018.047,A*2C
$GPGGA,164018.05,4715.2648,N,00130.5487,W,1,05,2.7,00042,M,,,,*39
$GPRMC,164018.05,A,4715.2648,N,00130.5487,W,00.0,000.0,120917,01,W*47
$GPGSA,M,2,23,09,06,19,03,,,,,,,,02.7,02.7,*14
$PMGNST,01.10,2,T,938,12.8,+03691,00*46
$GPGLL,4715.2648,N,00130.5487,W,164019.043,A*29
$GPGGA,164019.04,4715.2648,N,00130.5487,W,1,05,2.7,00042,M,,,,*39
$GPRMC,164019.04,A,4715.2648,N,00130.5487,W,00.0,000.0,120917,01,W*47
$GPGSA,M,2,23,09,06,19,03,,,,,,,,02.7,02.7,*14
$GPGSV,3,1,10,23,72,160,51,03,60,066,36,09,46,203,49,19,44,269,40*7B
$GPGSV,3,2,10,17,41,239,,22,38,080,,06,36,306,44,01,29,135,*7A
$GPGSV,3,3,10,31,16,043,,11,09,152,,124,31,151,,120,34,198,*71
$GPGLL,4715.2648,N,00130.5487,W,164020.039,A*2E
$GPGGA,164020.04,4715.2648,N,00130.5487,W,1,04,3.0,00042,M,,,,*34
$GPRMC,164020.04,A,4715.2648,N,00130.5487,W,00.0,000.0,120917,01,W*4D
$GPGSA,M,2,23,09,06,19,,,,,,,,,03.0,03.0,*17
$PMGNST,01.10,2,T,938,12.8,+03692,00*45
$GPGLL,4715.2648,N,00130.5487,W,164021.047,A*26
$GPGGA,164021.05,4715.2648,N,00130.5487,W,1,04,2.9,00042,M,,,,*3C
$GPRMC,164021.05,A,4715.2648,N,00130.5487,W,00.0,000.0,120917,01,W*4D
$GPGSA,M,2,23,09,06,19,,,,,,,,,02.9,02.9,*17
$GPGSV,3,1,10,23,73,158,51,03,60,067,36,09,47,203,48,19,44,268,39*7F
$GPGSV,3,2,10,17,40,238,,06,37,306,44,22,37,081,,01,28,135,*74
$GPGSV,3,3,10,31,16,042,,11,09,152,,124,31,151,,120,34,198,*70
$GPGLL,4715.2648,N,00130.5487,W,164022.043,A*21
$GPGGA,164022.04,4715.2648,N,00130.5487,W,1,05,2.7,00042,M,,,,*31
$GPRMC,164022.04,A,4715.2648,N,00130.5487,W,00.0,000.0,120917,01,W*4F
$GPGSA,M,2,23,09,06,19,03,,,,,,,,02.7,02.7,*14
$PMGNST,01.10,2,T,938,12.8,+03693,00*44
$GPGLL,4715.2648,N,00130.5487,W,164023.051,A*23
$GPGGA,164023.05,4715.2648,N,00130.5487,W,1,05,2.6,00042,M,,,,*30
$GPRMC,164023.05,A,4715.2648,N,00130.5487,W,00.0,000.0,120917,01,W*4F
$GPGSA,M,2,23,09,06,19,03,,,,,,,,02.6,02.6,*14
$GPGSV,3,1,10,23,73,158,51,03,60,067,36,09,47,203,49,19,44,268,41*71
$GPGSV,3,2,10,17,40,238,,06,37,306,46,22,37,081,,01,28,135,*76
$GPGSV,3,3,10,31,16,042,,11,09,152,,124,31,151,,120,34,198,*70
$GPGLL,4715.2648,N,00130.5487,W,164024.047,A*23
$GPGGA,164024.05,4715.2648,N,00130.5487,W,1,05,2.6,00042,M,,,,*37
$GPRMC,164024.05,A,4715.2648,N,00130.5487,W,00.0,000.0,120917,01,W*48
$GPGSA,M,2,23,09,06,19,03,,,,,,,,02.6,02.6,*14
$PMGNST,01.10,2,T,938,12.8,+03693,00*44
$GPGLL,4715.2648,N,00130.5487,W,164025.043,A*26
$GPGGA,164025.04,4715.2648,N,00130.5487,W,1,05,2.6,00042,M,,,,*37
$GPRMC,164025.04,A,4715.2648,N,00130.5487,W,00.0,000.0,120917,01,W*48
$GPGSA,M,2,23,09,06,19,03,,,,,,,,02.6,02.6,*14
$GPGSV,3,1,10,23,73,158,51,03,60,067,36,09,47,203,49,19,44,268,41*71
$GPGSV,3,2,10,17,40,238,,06,37,306,46,22,37,081,,01,28,135,*76
$GPGSV,3,3,10,31,16,042,,11,09,152,,124,31,151,,120,34,198,*70
$GPGLL,4715.2648,N,00130.5487,W,164026.051,A*26
$GPGGA,164026.05,4715.2648,N,00130.5487,W,1,05,2.6,00042,M,,,,*35
$GPRMC,164026.05,A,4715.2648,N,00130.5487,W,00.0,000.0,120917,01,W*4A
$GPGSA,M,2,23,09,06,19,03,,,,,,,,02.6,02.6,*14
$PMGNST,01.10,2,T,938,12.8,+03694,00*43
$GPGLL,4715.2648,N,00130.5487,W,164027.047,A*20
$GPGGA,164027.05,4715.2648,N,00130.5487,W,1,04,2.9,00042,M,,,,*3A
$GPRMC,164027.05,A,4715.2648,N,00130.5487,W,00.0,000.0,120917,01,W*4B
$GPGSA,M,2,23,09,06,19,,,,,,,,,02.9,02.9,*17
$GPGSV,3,1,10,23,73,158,51,03,60,067,36,09,47,203,50,19,44,268,40*78
$GPGSV,3,2,10,17,40,238,,06,37,306,45,22,37,081,,01,28,135,*75
$GPGSV,3,3,10,31,16,042,,11,09,152,,124,31,151,,120,34,198,*70
$GPGLL,4715.2648,N,00130.5487,W,164028.043,A*2B
$GPGGA,164028.04,4715.2648,N,00130.5487,W,1,04,2.9,00042,M,,,,*34
$GPRMC,164028.04,A,4715.2648,N,00130.5487,W,00.0,000.0,120917,01,W*45
$GPGSA,M,2,23,09,06,19,,,,,,,,,02.9,02.9,*17
$PMGNST,01.10,2,T,938,12.8,+03695,00*42
$GPGLL,4715.2648,N,00130.5487,W,164029.051,A*29
$GPGGA,164029.05,4715.2648,N,00130.5487,W,1,04,2.8,00042,M,,,,*35
$GPRMC,164029.05,A,4715.2648,N,00130.5487,W,00.0,000.0,120917,01,W*45
$GPGSA,M,2,23,09,06,19,,,,,,,,,02.8,02.8,*17
$GPGSV,3,1,10,23,73,158,51,03,60,067,36,09,47,203,50,19,44,268,42*7A
$GPGSV,3,2,10,17,40,238,,06,37,306,46,22,37,081,,01,28,135,*76
$GPGSV,3,3,10,31,16,042,,11,09,152,,124,31,151,,120,34,198,*70
$GPGLL,4715.2648,N,00130.5487,W,164030.047,A*26
$GPGGA,164030.05,4715.2648,N,00130.5487,W,1,05,2.6,00042,M,,,,*32
$GPRMC,164030.05,A,4715.2648,N,00130.5487,W,00.0,000.0,120917,01,W*4D
$GPGSA,M,2,23,09,06,19,03,,,,,,,,02.6,02.6,*14
$PMGNST,01.10,2,T,938,12.8,+03696,00*41
$GPGLL,4715.2648,N,00130.5486,W,164031.043,A*22
$GPGGA,164031.04,4715.2648,N,00130.5486,W,1,06,2.5,00042,M,,,,*33
$GPRMC,164031.04,A,4715.2648,N,00130.5486,W,00.0,000.0,120917,01,W*4C
$GPGSA,M,2,23,09,06,19,03,17,,,,,,,02.5,02.5,*12
$GPGSV,3,1,10,23,73,158,51,03,60,067,36,09,47,203,50,19,44,268,40*78
$GPGSV,3,2,10,17,40,238,36,06,37,306,45,22,37,081,,01,28,135,*70
$GPGSV,3,3,10,31,16,042,,11,09,152,,124,31,151,,120,34,198,*70
$GPGLL,4715.2648,N,00130.5486,W,164032.051,A*22
$GPGGA,164032.05,4715.2648,N,00130.5486,W,1,05,2.6,00042,M,,,,*31
$GPRMC,164032.05,A,4715.2648,N,00130.5486,W,00.0,000.0,120917,01,W*4E
$GPGSA,M,2,23,09,06,19,03,,,,,,,,02.6,02.6,*14
$PMGNST,01.10,2,T,938,12.8,+03696,00*41
$GPGLL,4715.2649,N,00130.5486,W,164033.047,A*25
$GPGGA,164033.05,4715.2649,N,00130.5486,W,1,05,2.6,00042,M,,,,*31
$GPRMC,164033.05,A,4715.2649,N,00130.5486,W,00.0,000.0,120917,01,W*4E
$GPGSA,M,2,23,09,06,19,03,,,,,,,,02.6,02.6,*14
$GPGSV,3,1,10,23,73,158,51,03,60,067,36,09,47,203,49,19,44,268,40*70
$GPGSV,3,2,10,17,40,238,,06,37,306,45,22,37,081,,01,28,135,*75
$GPGSV,3,3,10,31,16,042,,11,09,152,,124,31,151,,120,34,198,*70
$GPGLL,4715.2649,N,00130.5486,W,164034.043,A*26
$GPGGA,164034.04,4715.2649,N,00130.5486,W,1,05,2.7,00042,M,,,,*36
$GPRMC,164034.04,A,4715.2649,N,00130.5486,W,00.0,000.0,120917,01,W*48
$GPGSA,M,2,23,09,06,19,03,,,,,,,,02.7,02.7,*14
$PMGNST,01.10,2,T,938,12.8,+03697,00*40
$GPGLL,4715.2649,N,00130.5486,W,164035.051,A*24
$GPGGA,164035.05,4715.2649,N,00130.5486,W,1,04,2.9,00042,M,,,,*39
$GPRMC,164035.05,A,4715.2649,N,00130.5486,W,00.0,000.0,120917,01,W*48
$GPGSA,M,2,23,09,06,19,,,,,,,,,02.9,02.9,*17
$GPGSV,3,1,10,23,73,158,51,03,60,067,,09,47,203,50,19,44,268,40*7D
$GPGSV,3,2,10,17,40,238,36,06,37,306,45,22,37,081,,01,28,135,*70
$GPGSV,3,3,10,31,16,042,,11,09,152,,124,31,151,,120,34,198,*70
$GPGLL,4715.2649,N,00130.5486,W,164036.047,A*20
$GPGGA,164036.05,4715.2649,N,00130.5486,W,1,05,2.7,00042,M,,,,*35
$GPRMC,164036.05,A,4715.2649,N,00130.5486,W,00.0,000.0,120917,01,W*4B
$GPGSA,M,2,23,09,06,19,17,,,,,,,,02.7,02.7,*11
$PMGNST,01.10,2,T,938,12.8,+03698,00*4F
$GPGLL,4715.2649,N,00130.5485,W,164037.043,A*26
$GPGGA,164037.04,4715.2649,N,00130.5485,W,1,05,2.7,00042,M,,,,*36
$GPRMC,164037.04,A,4715.2649,N,00130.5485,W,00.0,000.0,120917,01,W*48
$GPGSA,M,2,23,09,06,19,17,,,,,,,,02.7,02.7,*11
$GPGSV,3,1,10,23,73,158,50,03,60,067,,09,47,203,49,19,44,268,39*7A
$GPGSV,3,2,10,17,40,238,36,06,37,306,45,22,37,081,,01,28,135,*70
$GPGSV,3,3,10,31,16,042,,11,09,152,,124,31,151,,120,34,198,*70
$GPGLL,4715.2649,N,00130.5485,W,164038.051,A*2A
$GPGGA,164038.05,4715.2649,N,00130.5485,W,1,04,2.9,00042,M,,,,*37
$GPRMC,164038.05,A,4715.2649,N,00130.5485,W,00.0,000.0,120917,01,W*46
$GPGSA,M,2,23,09,06,19,,,,,,,,,02.9,02.9,*17
$PMGNST,01.10,2,T,938,12.8,+03698,00*4F
$GPGLL,4715.2649,N,00130.5485,W,164039.047,A*2C
$GPGGA,164039.05,4715.2649,N,00130.5485,W,1,06,2.6,00042,M,,,,*3B
$GPRMC,164039.05,A,4715.2649,N,00130.5485,W,00.0,000.0,120917,01,W*47
$GPGSA,M,2,23,09,06,19,17,03,,,,,,,02.6,02.6,*12
$GPGSV,3,1,10,23,73,158,51,03,60,067,36,09,47,203,50,19,44,268,41*79
$GPGSV,3,2,10,17,40,238,36,06,37,306,45,22,37,081,,01,28,135,*70
$GPGSV,3,3,10,31,16,042,,11,09,152,,124,31,151,,120,34,198,*70
$GPGLL,4715.2649,N,00130.5485,W,164040.043,A*26
$GPGGA,164040.04,4715.2649,N,00130.5485,W,1,06,2.4,00042,M,,,,*36
$GPRMC,164040.04,A,4715.2649,N,00130.5485,W,00.0,000.0,120917,01,W*48
$GPGSA,M,2,23,09,06,19,03,17,,,,,,,02.4,02.4,*12
$PMGNST,01.10,2,T,938,12.8,+03699,00*4E
$GPGLL,4715.2649,N,00130.5485,W,164041.051,A*24
$GPGGA,164041.05,4715.2649,N,00130.5485,W,1,06,2.4,00042,M,,,,*36
$GPRMC,164041.05,A,4715.2649,N,00130.5485,W,00.0,000.0,120917,01,W*48
$GPGSA,M,2,23,09,06,19,03,17,,,,,,,02.4,02.4,*12
$GPGSV,3,1,10,23,73,158,51,03,60,067,36,09,47,203,50,19,44,268,40*78
$GPGSV,3,2,10,17,40,238,36,06,37,306,47,22,37,081,,01,28,135,*72
$GPGSV,3,3,10,31,16,042,,11,09,152,,124,31,151,,120,34,198,*70
$GPGLL,4715.2649,N,00130.5485,W,164042.047,A*20
$GPGGA,164042.05,4715.2649,N,00130.5485,W,1,06,2.3,00042,M,,,,*32
$GPRMC,164042.05,A,4715.2649,N,00130.5485,W,00.0,000.0,120917,01,W*4B
$GPGSA,M,2,23,09,06,19,03,17,,,,,,,02.3,02.3,*12
$PMGNST,01.10,2,T,938,12.8,+03700,00*4F
$GPGLL,4715.2649,N,00130.5485,W,164043.043,A*25
$GPGGA,164043.04,4715.2649,N,00130.5485,W,1,06,2.3,00042,M,,,,*32
$GPRMC,164043.04,A,4715.2649,N,00130.5485,W,00.0,000.0,120917,01,W*4B
$GPGSA,M,2,23,09,06,19,03,17,,,,,,,02.3,02.3,*12
$GPGSV,3,1,10,23,73,158,51,03,60,067,38,09,47,203,48,19,44,268,40*7F
$GPGSV,3,2,10,17,40,238,36,06,37,306,46,22,37,081,,01,28,135,*73
$GPGSV,3,3,10,31,16,042,,11,09,152,,124,31,151,,120,34,198,*70
$GPGLL,4715.2649,N,00130.5485,W,164044.051,A*21
$GPGGA,164044.05,4715.2649,N,00130.5485,W,1,05,2.4,00042,M,,,,*30
$GPRMC,164044.05,A,4715.2649,N,00130.5485,W,00.0,000.0,120917,01,W*4D
$GPGSA,M,2,23,09,06,03,19,,,,,,,,02.4,02.4,*14
$PMGNST,01.10,2,T,938,12.8,+03700,00*4F
$GPGLL,4715.2649,N,00130.5485,W,164045.047,A*27
$GPGGA,164045.05,4715.2649,N,00130.5485,W,1,05,2.6,00042,M,,,,*33
$GPRMC,164045.05,A,4715.2649,N,00130.5485,W,00.0,000.0,120917,01,W*4C
$GPGSA,M,2,23,09,06,19,03,,,,,,,,02.6,02.6,*14
$GPGSV,3,1,10,23,73,158,51,03,60,067,36,09,47,203,50,19,44,268,39*76
$GPGSV,3,2,10,17,40,238,,06,37,306,47,22,37,081,,01,28,135,*77
$GPGSV,3,3,10,31,16,042,,11,09,152,,124,31,151,,120,34,198,*70
$GPGLL,4715.2649,N,00130.5485,W,164046.043,A*20
$GPGGA,164046.04,4715.2649,N,00130.5485,W,1,05,2.6,00042,M,,,,*31
$GPRMC,164046.04,A,4715.2649,N,00130.5485,W,00.0,000.0,120917,01,W*4E
$GPGSA,M,2,23,09,06,19,03,,,,,,,,02.6,02.6,*14
$PMGNST,01.10,2,T,938,12.8,+03701,00*4E
$GPGLL,4715.2649,N,00130.5485,W,164047.051,A*22
$GPGGA,164047.05,4715.2649,N,00130.5485,W,1,05,2.6,00042,M,,,,*31
$GPRMC,164047.05,A,4715.2649,N,00130.5485,W,00.0,000.0,120917,01,W*4E
$GPGSA,M,2,23,09,06,19,03,,,,,,,,02.6,02.6,*14
$GPGSV,3,1,10,23,73,158,51,03,60,067,38,09,47,203,49,19,44,268,39*70
$GPGSV,3,2,10,17,40,238,36,06,37,306,46,22,37,081,,01,28,135,*73
$GPGSV,3,3,10,31,16,042,,11,09,152,,124,31,151,,120,34,198,*70
$GPGLL,4715.2649,N,00130.5485,W,164048.047,A*2A
$GPGGA,164048.05,4715.2649,N,00130.5485,W,1,05,2.4,00042,M,,,,*3C
$GPRMC,164048.05,A,4715.2649,N,00130.5485,W,00.0,000.0,120917,01,W*41
$GPGSA,M,2,23,09,06,03,19,,,,,,,,02.4,02.4,*14
$PMGNST,01.10,2,T,938,12.8,+03701,00*4E
$GPGLL,4715.2649,N,00130.5485,W,164049.043,A*2F
$GPGGA,164049.04,4715.2649,N,00130.5485,W,1,06,2.3,00042,M,,,,*38
$GPRMC,164049.04,A,4715.2649,N,00130.5485,W,00.0,000.0,120917,01,W*41
$GPGSA,M,2,23,09,06,03,19,17,,,,,,,02.3,02.3,*12
$GPGSV,3,1,10,23,73,158,51,03,60,067,39,09,47,203,50,19,44,268,38*78
$GPGSV,3,2,10,17,40,238,36,06,37,306,46,22,37,081,,01,28,135,*73
$GPGSV,3,3,10,31,16,042,,11,09,152,,124,31,151,,120,34,198,*70
$GPGLL,4715.2649,N,00130.5485,W,164050.051,A*24
$GPGGA,164050.05,4715.2649,N,00130.5485,W,1,05,2.7,00042,M,,,,*36
$GPRMC,164050.05,A,4715.2649,N,00130.5485,W,00.0,000.0,120917,01,W*48
$GPGSA,M,2,23,09,06,19,03,,,,,,,,02.7,02.7,*14
$PMGNST,01.10,2,T,938,12.8,+03702,00*4D
$GPGLL,4715.2649,N,00130.5485,W,164051.047,A*22
$GPGGA,164051.05,4715.2649,N,00130.5485,W,1,05,2.6,00042,M,,,,*36
$GPRMC,164051.05,A,4715.2649,N,00130.5485,W,00.0,000.0,120917,01,W*49
$GPGSA,M,2,23,09,06,19,03,,,,,,,,02.6,02.6,*14
$GPGSV,3,1,10,23,73,158,51,03,60,067,36,09,47,203,50,19,44,268,39*76
$GPGSV,3,2,10,17,40,238,,06,37,306,46,22,37,081,,01,28,135,*76
$GPGSV,3,3,10,31,16,042,,11,09,152,,124,31,151,,120,34,198,*70
$GPGLL,4715.2649,N,00130.5485,W,164052.043,A*25
$GPGGA,164052.04,4715.2649,N,00130.5485,W,1,05,2.6,00042,M,,,,*34
$GPRMC,164052.04,A,4715.2649,N,00130.5485,W,00.0,000.0,120917,01,W*4B
$GPGSA,M,2,23,09,06,19,03,,,,,,,,02.6,02.6,*14
$PMGNST,01.10,2,T,938,12.8,+03702,00*4D
$GPGLL,4715.2649,N,00130.5485,W,164053.051,A*27
$GPGGA,164053.05,4715.2649,N,00130.5485,W,1,05,2.6,00042,M,,,,*34
$GPRMC,164053.05,A,4715.2649,N,00130.5485,W,00.0,000.0,120917,01,W*4B
$GPGSA,M,2,23,09,06,19,03,,,,,,,,02.6,02.6,*14
$GPGSV,3,1,10,23,73,158,51,03,60,067,36,09,47,203,49,19,44,268,38*7F
$GPGSV,3,2,10,17,40,238,36,06,37,306,47,22,37,081,,01,28,135,*72
$GPGSV,3,3,10,31,16,042,,11,09,152,,124,31,151,,120,34,198,*70
$GPGLL,4715.2649,N,00130.5485,W,164054.048,A*28
$GPGGA,164054.05,4715.2649,N,00130.5485,W,1,05,2.6,00042,M,,,,*33
$GPRMC,164054.05,A,4715.2649,N,00130.5485,W,00.0,000.0,120917,01,W*4C
$GPGSA,M,2,23,09,06,19,03,,,,,,,,02.6,02.6,*14
$PMGNST,01.10,2,T,938,12.8,+03703,00*4C
$GPGLL,4715.2649,N,00130.5485,W,164055.044,A*25
$GPGGA,164055.04,4715.2649,N,00130.5485,W,1,05,2.4,00042,M,,,,*31
$GPRMC,164055.04,A,4715.2649,N,00130.5485,W,00.0,000.0,120917,01,W*4C
$GPGSA,M,2,23,09,06,03,19,,,,,,,,02.4,02.4,*14
$GPGSV,3,1,10,23,73,158,51,03,60,067,38,09,47,203,49,19,44,268,38*71
$GPGSV,3,2,10,17,40,238,,06,37,306,46,22,37,081,,01,28,135,*76
$GPGSV,3,3,10,31,16,042,,11,09,152,,124,31,151,,120,34,198,*70
$GPGLL,4715.2649,N,00130.5485,W,164056.052,A*21
$GPGGA,164056.05,4715.2649,N,00130.5485,W,1,05,2.5,00042,M,,,,*32
$GPRMC,164056.05,A,4715.2649,N,00130.5485,W,00.0,000.0,120917,01,W*4E
$GPGSA,M,2,23,09,06,03,19,,,,,,,,02.5,02.5,*14
$PMGNST,01.10,2,T,938,12.8,+03703,00*4C
$GPGLL,4715.2649,N,00130.5485,W,164057.048,A*2B
$GPGGA,164057.05,4715.2649,N,00130.5485,W,1,05,2.7,00042,M,,,,*31
$GPRMC,164057.05,A,4715.2649,N,00130.5485,W,00.0,000.0,120917,01,W*4F
$GPGSA,M,2,23,09,06,03,19,,,,,,,,02.7,02.7,*14
$GPGSV,3,1,10,23,73,158,51,03,60,067,36,09,47,203,49,19,44,268,36*71
$GPGSV,3,2,10,17,40,238,,06,37,306,46,22,37,081,,01,28,135,*76
$GPGSV,3,3,10,31,16,042,,11,09,152,,124,31,151,,120,34,198,*70
$GPGLL,4715.2649,N,00130.5485,W,164058.044,A*28
$GPGGA,164058.04,4715.2649,N,00130.5485,W,1,05,2.7,00042,M,,,,*3F
$GPRMC,164058.04,A,4715.2649,N,00130.5485,W,00.0,000.0,120917,01,W*41
$GPGSA,M,2,23,09,06,19,03,,,,,,,,02.7,02.7,*14
$PMGNST,01.10,2,T,938,12.8,+03704,00*4B
$GPGLL,4715.2648,N,00130.5485,W,164059.052,A*2F
$GPGGA,164059.05,4715.2648,N,00130.5485,W,1,05,2.7,00042,M,,,,*3E
$GPRMC,164059.05,A,4715.2648,N,00130.5485,W,00.0,000.0,120917,01,W*40
$GPGSA,M,2,23,09,06,19,03,,,,,,,,02.7,02.7,*14
$GPGSV,3,1,10,23,73,158,51,03,60,067,36,09,47,203,49,19,44,268,36*71
$GPGSV,3,2,10,17,40,238,36,06,37,306,46,22,37,081,,01,28,135,*73
$GPGSV,3,3,10,31,16,042,,11,09,152,,124,31,151,,120,34,198,*70
$GPGLL,4715.2648,N,00130.5485,W,164100.048,A*29
$GPGGA,164100.05,4715.2648,N,00130.5485,W,1,06,2.5,00042,M,,,,*32
$GPRMC,164100.05,A,4715.2648,N,00130.5485,W,00.0,000.0,120917,01,W*4D
$GPGSA,M,2,23,09,06,19,03,17,,,,,,,02.5,02.5,*12
$PMGNST,01.10,2,T,938,12.8,+03704,00*4B
$GPGLL,4715.2648,N,00130.5485,W,164101.044,A*24
$GPGGA,164101.04,4715.2648,N,00130.5485,W,1,06,2.4,00042,M,,,,*33
$GPRMC,164101.04,A,4715.2648,N,00130.5485,W,00.0,000.0,120917,01,W*4D
$GPGSA,M,2,23,09,06,19,17,03,,,,,,,02.4,02.4,*12
$GPGSV,3,1,10,23,73,158,51,03,60,067,36,09,47,203,49,19,44,268,38*7F
$GPGSV,3,2,10,17,40,238,36,06,37,306,46,22,37,081,,01,28,135,*73
$GPGSV,3,3,10,31,16,042,,11,09,152,,124,31,151,,120,34,198,*70
$GPGLL,4715.2648,N,00130.5485,W,164102.052,A*20
$GPGGA,164102.05,4715.2648,N,00130.5485,W,1,06,2.5,00042,M,,,,*30
$GPRMC,164102.05,A,4715.2648,N,00130.5485,W,00.0,000.0,120917,01,W*4F
$GPGSA,M,2,23,09,06,19,17,03,,,,,,,02.5,02.5,*12
$PMGNST,01.10,2,T,938,12.8,+03705,00*4A
$GPGLL,4715.2648,N,00130.5485,W,164103.048,A*2A
$GPGGA,164103.05,4715.2648,N,00130.5485,W,1,06,2.5,00042,M,,,,*31
$GPRMC,164103.05,A,4715.2648,N,00130.5485,W,00.0,000.0,120917,01,W*4E
$GPGSA,M,2,23,09,06,19,17,03,,,,,,,02.5,02.5,*12
$GPGSV,3,1,10,23,73,158,51,03,60,067,36,09,47,203,49,19,44,268,38*7F
$GPGSV,3,2,10,17,40,238,36,06,37,306,46,22,37,081,,01,28,135,*73
$GPGSV,3,3,10,31,16,042,,11,09,152,,124,31,151,,120,34,198,*70
$GPGLL,4715.2649,N,00130.5485,W,164104.044,A*20
$GPGGA,164104.04,4715.2649,N,00130.5485,W,1,06,2.5,00042,M,,,,*36
$GPRMC,164104.04,A,4715.2649,N,00130.5485,W,00.0,000.0,120917,01,W*49
$GPGSA,M,2,23,09,06,19,03,17,,,,,,,02.5,02.5,*12
$PMGNST,01.10,2,T,938,12.8,+03705,00*4A
$GPGLL,4715.2648,N,00130.5485,W,164105.052,A*27
$GPGGA,164105.05,4715.2648,N,00130.5485,W,1,06,2.5,00042,M,,,,*37
$GPRMC,164105.05,A,4715.2648,N,00130.5485,W,00.0,000.0,120917,01,W*48
$GPGSA,M,2,23,09,06,03,19,17,,,,,,,02.5,02.5,*12
$GPGSV,3,1,10,23,73,158,51,03,60,067,36,09,47,203,49,19,44,268,36*71
$GPGSV,3,2,10,17,40,238,36,06,37,306,45,22,37,081,,01,28,135,*70
$GPGSV,3,3,10,31,16,042,,11,09,152,,124,31,151,,120,34,198,*70
$GPGLL,4715.2648,N,00130.5485,W,164106.048,A*2F
$GPGGA,164106.05,4715.2648,N,00130.5485,W,1,05,2.7,00042,M,,,,*35
$GPRMC,164106.05,A,4715.2648,N,00130.5485,W,00.0,000.0,120917,01,W*4B
$GPGSA,M,2,23,09,06,17,19,,,,,,,,02.7,02.7,*11
$PMGNST,01.10,2,T,938,12.8,+03705,00*4A
$GPGLL,4715.2649,N,00130.5485,W,164107.044,A*23
$GPGGA,164107.04,4715.2649,N,00130.5485,W,1,05,2.8,00042,M,,,,*3B
$GPRMC,164107.04,A,4715.2649,N,00130.5485,W,00.0,000.0,120917,01,W*4A
$GPGSA,M,2,23,09,06,19,17,,,,,,,,02.8,02.8,*11
$GPGSV,3,1,10,23,73,158,51,03,60,067,36,09,47,203,49,19,44,268,36*71
$GPGSV,3,2,10,17,40,238,36,06,37,306,44,22,37,081,,01,28,135,*71
$GPGSV,3,3,10,31,16,042,,11,09,152,,124,31,151,,120,34,198,*70
$GPGLL,4715.2649,N,00130.5485,W,164108.052,A*2B
$GPGGA,164108.05,4715.2649,N,00130.5485,W,1,05,2.8,00042,M,,,,*35
$GPRMC,164108.05,A,4715.2649,N,00130.5485,W,00.0,000.0,120917,01,W*44
$GPGSA,M,2,23,09,06,19,17,,,,,,,,02.8,02.8,*11
$PMGNST,01.10,2,T,938,12.8,+03706,00*49
$GPGLL,4715.2649,N,00130.5485,W,164109.048,A*21
$GPGGA,164109.05,4715.2649,N,00130.5485,W,1,05,2.8,00042,M,,,,*34
$GPRMC,164109.05,A,4715.2649,N,00130.5485,W,00.0,000.0,120917,01,W*45
$GPGSA,M,2,23,09,06,19,17,,,,,,,,02.8,02.8,*11
$GPGSV,3,1,10,23,73,158,51,03,60,067,,09,47,203,49,19,44,268,36*74
$GPGSV,3,2,10,17,40,238,36,06,37,306,45,22,37,081,,01,28,135,*70
$GPGSV,3,3,10,31,16,042,,11,09,152,,124,31,151,,120,34,198,*70
$GPGLL,4715.2649,N,00130.5485,W,164110.044,A*25
$GPGGA,164110.04,4715.2649,N,00130.5485,W,1,05,2.7,00042,M,,,,*32
$GPRMC,164110.04,A,4715.2649,N,00130.5485,W,00.0,000.0,120917,01,W*4C
$GPGSA,M,2,23,09,06,19,17,,,,,,,,02.7,02.7,*11
$PMGNST,01.10,2,T,938,12.8,+03706,00*49
$GPGLL,4715.2648,N,00130.5485,W,164111.052,A*22
$GPGGA,164111.05,4715.2648,N,00130.5485,W,1,05,2.8,00042,M,,,,*3C
$GPRMC,164111.05,A,4715.2648,N,00130.5485,W,00.0,000.0,120917,01,W*4D
$GPGSA,M,2,23,09,06,17,19,,,,,,,,02.8,02.8,*11
$GPGSV,3,1,10,23,73,158,51,03,60,067,,09,47,203,48,19,44,268,36*75
$GPGSV,3,2,10,17,40,238,36,06,37,306,46,22,37,081,,01,28,135,*73
$GPGSV,3,3,10,31,16,042,,11,09,152,,124,31,151,,120,34,198,*70
$GPGLL,4715.2648,N,00130.5485,W,164112.048,A*2A
$GPGGA,164112.05,4715.2648,N,00130.5485,W,1,05,2.8,00042,M,,,,*3F
$GPRMC,164112.05,A,4715.2648,N,00130.5485,W,00.0,000.0,120917,01,W*4E
$GPGSA,M,2,23,09,06,19,17,,,,,,,,02.8,02.8,*11
$PMGNST,01.10,2,T,938,12.8,+03707,00*48
$GPGLL,4715.2648,N,00130.5485,W,164113.044,A*27
$GPGGA,164113.04,4715.2648,N,00130.5485,W,1,05,2.8,00042,M,,,,*3F
$GPRMC,164113.04,A,4715.2648,N,00130.5485,W,00.0,000.0,120917,01,W*4E
$GPGSA,M,2,23,09,06,19,17,,,,,,,,02.8,02.8,*11
$GPGSV,3,1,10,23,73,158,51,03,60,067,36,09,47,203,48,19,44,268,36*70
$GPGSV,3,2,10,17,40,238,36,06,37,306,45,22,37,081,,01,28,135,*70
$GPGSV,3,3,10,31,16,042,,11,09,152,,124,31,151,,120,34,198,*70
$GPGLL,4715.2648,N,00130.5485,W,164114.052,A*27
$GPGGA,164114.05,4715.2648,N,00130.5485,W,1,04,3.1,00042,M,,,,*30
$GPRMC,164114.05,A,4715.2648,N,00130.5485,W,00.0,000.0,120917,01,W*48
$GPGSA,M,2,23,09,06,19,,,,,,,,,03.1,03.1,*17
$PMGNST,01.10,2,T,938,12.8,+03707,00*48
$GPGLL,4715.2648,N,00130.5485,W,164115.048,A*2D
$GPGGA,164115.05,4715.2648,N,00130.5485,W,1,05,2.8,00042,M,,,,*38
$GPRMC,164115.05,A,4715.2648,N,00130.5485,W,00.0,000.0,120917,01,W*49
$GPGSA,M,2,23,09,06,19,17,,,,,,,,02.8,02.8,*11
$GPGSV,3,1,10,23,73,158,51,03,60,067,36,09,47,203,48,19,44,268,36*70
$GPGSV,3,2,10,17,40,238,36,06,37,306,45,22,37,081,,01,28,135,*70
