$GPAPB,,,,,,,,,,,,,,*44
$GPGLL,4715.2706,N,00130.5434,W,142330,A*3F
$GPRMB,,,,,,,,,,,,,*66
$GPRMC,142330,A,4715.2706,N,00130.5434,W,0.0,0.0,130917,3.0,W*7F
$GPGGA,142330,4715.2706,N,00130.5434,W,1,7,1.80,46,M,,,,*26
$GPGSA,A,3,22,1,11,3,14,17,,28,,,,,2.80,1.80,2.10*09
$GPGSV,3,1,12,22,87,229,40,1,80,43,41,11,68,136,36,3,60,239,45*42
$GPGSV,3,2,12,14,35,61,34,17,32,311,44,32,24,46,,28,22,260,38*7C
$GPGSV,3,3,12,8,20,162,,23,12,183,,19,11,318,,122,,0,*7E
$GPAPB,,,,,,,,,,,,,,*44
$GPGLL,4715.2705,N,00130.5429,W,142332,A*32
$GPRMB,,,,,,,,,,,,,*66
$GPRMC,142332,A,4715.2705,N,00130.5429,W,0.0,0.0,130917,3.0,W*72
$GPGGA,142332,4715.2705,N,00130.5429,W,1,7,1.80,45,M,,,,*28
$GPGSA,A,3,22,1,11,3,14,17,,28,,,,,2.80,1.80,2.10*09
$GPGSV,3,1,12,22,87,229,40,1,80,43,41,11,68,136,36,3,60,239,45*42
$GPGSV,3,2,12,14,35,61,34,17,32,311,44,32,24,46,,28,22,260,38*7C
$GPGSV,3,3,12,8,20,162,,23,12,183,,19,11,318,,122,,0,*7E
$GPAPB,,,,,,,,,,,,,,*44
$GPGLL,4715.2704,N,00130.5424,W,142334,A*38
$GPRMB,,,,,,,,,,,,,*66
$GPRMC,142334,A,4715.2704,N,00130.5424,W,0.0,0.0,130917,3.0,W*78
$GPGGA,142334,4715.2704,N,00130.5424,W,1,7,1.80,42,M,,,,*25
$GPGSA,A,3,22,1,11,3,14,17,,28,,,,,2.80,1.80,2.10*09
$GPGSV,3,1,12,22,87,229,39,1,80,43,41,11,68,136,35,3,60,239,46*4C
$GPGSV,3,2,12,14,35,61,33,17,32,311,43,32,24,46,,28,22,260,35*71
$GPGSV,3,3,12,8,20,162,,23,12,183,,19,11,318,,122,,0,*7E
$GPAPB,,,,,,,,,,,,,,*44
$GPGLL,4715.2703,N,00130.5419,W,142336,A*33
$GPRMB,,,,,,,,,,,,,*66
$GPRMC,142336,A,4715.2703,N,00130.5419,W,0.0,0.0,130917,3.0,W*73
$GPGGA,142336,4715.2703,N,00130.5419,W,1,7,1.80,40,M,,,,*2C
$GPGSA,A,3,22,1,11,3,14,17,,28,,,,,2.80,1.80,2.10*09
$GPGSV,3,1,12,22,87,229,39,1,80,43,41,11,68,136,35,3,60,239,46*4C
$GPGSV,3,2,12,14,35,61,33,17,32,311,43,32,24,46,,28,22,260,35*71
$GPGSV,3,3,12,8,20,162,,23,12,183,,19,11,318,,122,,0,*7E
$GPAPB,,,,,,,,,,,,,,*44
$GPGLL,4715.2702,N,00130.5414,W,142338,A*31
$GPRMB,,,,,,,,,,,,,*66
$GPRMC,142338,A,4715.2702,N,00130.5414,W,0.0,0.0,130917,3.0,W*71
$GPGGA,142338,4715.2702,N,00130.5414,W,1,8,1.10,39,M,,,,*26
$GPGSA,A,3,22,1,11,3,14,17,,28,,23,,,1.80,1.10,1.40*04
$GPGSV,3,1,12,22,87,229,39,1,80,43,41,11,68,136,35,3,60,239,46*4C
$GPGSV,3,2,12,14,35,61,33,17,32,311,43,32,24,46,,28,22,260,35*71
$GPGSV,3,3,12,8,20,162,,23,12,183,32,19,11,318,,122,,0,*7F
$GPAPB,,,,,,,,,,,,,,*44
$GPGLL,4715.2701,N,00130.5414,W,142340,A*3D
$GPRMB,,,,,,,,,,,,,*66
$GPRMC,142340,A,4715.2701,N,00130.5414,W,0.0,0.0,130917,3.0,W*7D
$GPGGA,142340,4715.2701,N,00130.5414,W,1,8,1.10,39,M,,,,*2A
$GPGSA,A,3,22,1,11,3,14,17,,28,,23,,,1.80,1.10,1.40*04
$GPGSV,3,1,12,22,87,229,38,1,80,44,41,11,68,136,36,3,60,239,45*4A
$GPGSV,3,2,12,14,35,61,33,17,32,311,42,32,24,46,,28,22,260,35*70
$GPGSV,3,3,12,8,20,162,,23,13,183,31,19,11,318,,122,,0,*7D
$GPAPB,,,,,,,,,,,,,,*44
$GPGLL,4715.2701,N,00130.5413,W,142342,A*38
$GPRMB,,,,,,,,,,,,,*66
$GPRMC,142342,A,4715.2701,N,00130.5413,W,0.0,0.0,130917,3.0,W*78
$GPGGA,142342,4715.2701,N,00130.5413,W,1,8,1.10,38,M,,,,*2E
$GPGSA,A,3,22,1,11,3,14,17,,28,,23,,,1.80,1.10,1.40*04
$GPGSV,3,1,12,22,87,229,38,1,80,44,41,11,68,136,36,3,60,239,45*4A
$GPGSV,3,2,12,14,35,61,33,17,32,311,42,32,24,46,,28,22,260,35*70
$GPGSV,3,3,12,8,20,162,,23,13,183,31,19,11,318,,122,,0,*7D
$GPAPB,,,,,,,,,,,,,,*44
$GPGLL,4715.2701,N,00130.5406,W,142339,A*30
$GPRMB,,,,,,,,,,,,,*66
$GPRMC,142339,A,4715.2701,N,00130.5406,W,0.0,0.0,130917,3.0,W*70
$GPGGA,142339,4715.2701,N,00130.5406,W,1,8,1.10,37,M,,,,*29
$GPGSA,A,3,22,1,11,3,14,17,,28,,23,,,1.80,1.10,1.40*04
$GPGSV,3,1,12,22,87,229,38,1,80,44,42,11,68,136,35,3,60,239,47*48
$GPGSV,3,2,12,14,35,61,32,17,32,311,43,32,24,46,,28,22,260,37*72
$GPGSV,3,3,12,8,20,162,,23,13,183,33,19,11,318,,122,,0,*7F
$GPAPB,,,,,,,,,,,,,,*44
$GPGLL,4715.2702,N,00130.5401,W,142341,A*3B
$GPRMB,,,,,,,,,,,,,*66
$GPRMC,142341,A,4715.2702,N,00130.5401,W,0.0,0.0,130917,3.0,W*7B
$GPGGA,142341,4715.2702,N,00130.5401,W,1,8,1.10,36,M,,,,*23
$GPGSA,A,3,22,1,11,3,14,17,,28,,23,,,1.80,1.10,1.40*04
$GPGSV,3,1,12,22,87,229,38,1,80,44,42,11,68,136,35,3,60,239,47*48
$GPGSV,3,2,12,14,35,61,32,17,32,311,43,32,24,46,,28,22,260,37*72
$GPGSV,3,3,12,8,20,162,,23,13,183,33,19,11,318,,122,,0,*7F
$GPAPB,,,,,,,,,,,,,,*44
$GPGLL,4715.2702,N,00130.5401,W,142343,A*39
$GPRMB,,,,,,,,,,,,,*66
$GPRMC,142343,A,4715.2702,N,00130.5401,W,0.0,0.0,130917,3.0,W*79
$GPGGA,142343,4715.2702,N,00130.5401,W,1,8,1.10,34,M,,,,*23
$GPGSA,A,3,22,1,11,3,14,17,,28,,23,,,1.80,1.10,1.40*04
$GPGSV,3,1,12,22,87,229,38,1,80,44,42,11,68,136,35,3,60,239,47*48
$GPGSV,3,2,12,14,35,61,32,17,32,311,43,32,24,46,,28,22,260,37*72
$GPGSV,3,3,12,8,20,162,,23,13,183,33,19,11,318,,122,,0,*7F
$GPAPB,,,,,,,,,,,,,,*44
$GPGLL,4715.2702,N,00130.5401,W,142345,A*3F
$GPRMB,,,,,,,,,,,,,*66
$GPRMC,142345,A,4715.2702,N,00130.5401,W,0.0,0.0,130917,3.0,W*7F
$GPGGA,142345,4715.2702,N,00130.5401,W,1,8,1.10,33,M,,,,*22
$GPGSA,A,3,22,1,11,3,14,17,,28,,23,,,1.80,1.10,1.40*04
$GPGSV,3,1,12,22,87,229,39,1,80,44,44,11,68,136,34,3,60,239,46*4F
$GPGSV,3,2,12,14,35,61,31,17,32,311,43,32,24,46,,28,22,260,36*70
$GPGSV,3,3,12,8,20,162,,23,13,183,33,19,11,318,,122,,0,*7F
$GPAPB,,,,,,,,,,,,,,*44
$GPGLL,4715.2700,N,00130.5401,W,142347,A*3F
$GPRMB,,,,,,,,,,,,,*66
$GPRMC,142347,A,4715.2700,N,00130.5401,W,0.0,0.0,130917,3.0,W*7F
$GPGGA,142347,4715.2700,N,00130.5401,W,1,8,1.10,32,M,,,,*23
$GPGSA,A,3,22,1,11,3,14,17,,28,,23,,,1.80,1.10,1.40*04
$GPGSV,3,1,12,22,87,229,39,1,80,44,44,11,68,136,34,3,60,239,46*4F
$GPGSV,3,2,12,14,35,61,31,17,32,311,43,32,24,46,,28,22,260,36*70
$GPGSV,3,3,12,8,20,162,,23,13,183,33,19,11,318,,122,,0,*7F
$GPAPB,,,,,,,,,,,,,,*44
$GPGLL,4715.2697,N,00130.5406,W,142349,A*39
$GPRMB,,,,,,,,,,,,,*66
$GPRMC,142349,A,4715.2697,N,00130.5406,W,0.0,0.0,130917,3.0,W*79
$GPGGA,142349,4715.2697,N,00130.5406,W,1,8,1.10,31,M,,,,*26
$GPGSA,A,3,22,1,11,3,14,17,,28,,23,,,1.80,1.10,1.40*04
$GPGSV,3,1,12,22,87,229,39,1,80,44,43,11,68,136,33,3,60,239,45*4C
$GPGSV,3,2,12,14,35,61,35,17,32,310,44,32,24,46,,28,22,260,37*73
$GPGSV,3,3,12,8,20,162,,23,13,183,32,19,11,318,,122,,0,*7E
$GPAPB,,,,,,,,,,,,,,*44
$GPGLL,4715.2693,N,00130.5412,W,142351,A*31
$GPRMB,,,,,,,,,,,,,*66
$GPRMC,142351,A,4715.2693,N,00130.5412,W,0.3,0.0,130917,3.0,W*72
$GPGGA,142351,4715.2693,N,00130.5412,W,1,8,1.10,31,M,,,,*2E
$GPGSA,A,3,22,1,11,3,14,17,,28,,23,,,1.80,1.10,1.40*04
$GPGSV,3,1,12,22,87,229,39,1,80,44,43,11,68,136,33,3,60,239,45*4C
$GPGSV,3,2,12,14,35,61,35,17,32,310,44,32,24,46,,28,22,260,37*73
$GPGSV,3,3,12,8,20,162,,23,13,183,32,19,11,318,,122,,0,*7E
$GPAPB,,,,,,,,,,,,,,*44
$GPGLL,4715.2695,N,00130.5422,W,142353,A*36
$GPRMB,,,,,,,,,,,,,*66
$GPRMC,142353,A,4715.2695,N,00130.5422,W,2.4,325.0,130917,3.0,W*74
$GPGGA,142353,4715.2695,N,00130.5422,W,1,7,2.00,30,M,,,,*25
$GPGSA,A,3,22,1,11,3,,17,,28,,23,,,2.90,2.00,2.10*07
$GPGSV,3,1,12,22,87,229,39,1,80,44,43,11,68,136,33,3,60,239,45*4C
$GPGSV,3,2,12,14,35,61,,17,32,310,44,32,24,46,,28,22,260,37*75
$GPGSV,3,3,12,8,20,162,,23,13,183,32,19,11,318,,122,,0,*7E
$GPAPB,,,,,,,,,,,,,,*44
$GPGLL,4715.2711,N,00130.5435,W,142355,A*3B
$GPRMB,,,,,,,,,,,,,*66
$GPRMC,142355,A,4715.2711,N,00130.5435,W,4.2,357.9,130917,3.0,W*75
$GPGGA,142355,4715.2711,N,00130.5435,W,1,6,2.40,30,M,,,,*2D
$GPGSA,A,3,22,1,11,3,14,17,,,,,,,4.30,2.40,3.60*07
$GPGSV,3,1,12,22,87,229,39,1,80,44,43,11,68,136,37,3,60,239,45*48
$GPGSV,3,2,12,14,35,61,27,17,32,310,41,32,24,46,,28,22,260,*71
$GPGSV,3,3,12,8,20,162,,23,13,183,,19,11,318,,122,,0,*7F
$GPAPB,,,,,,,,,,,,,,*44
$GPGLL,4715.2735,N,00130.5423,W,142357,A*38
$GPRMB,,,,,,,,,,,,,*66
$GPRMC,142357,A,4715.2735,N,00130.5423,W,5.4,40.8,130917,3.0,W*45
$GPGGA,142357,4715.2735,N,00130.5423,W,1,6,2.40,29,M,,,,*26
$GPGSA,A,3,22,1,11,3,14,17,,,,,,,4.30,2.40,3.60*07
$GPGSV,3,1,12,22,87,229,39,1,80,44,43,11,68,136,37,3,60,239,45*48
$GPGSV,3,2,12,14,35,61,27,17,32,310,41,32,24,46,,28,22,260,*71
$GPGSV,3,3,12,8,20,162,,23,13,183,,19,11,318,,122,,0,*7F
$GPAPB,,,,,,,,,,,,,,*44
$GPGLL,4715.2753,N,00130.5396,W,142359,A*3F
$GPRMB,,,,,,,,,,,,,*66
$GPRMC,142359,A,4715.2753,N,00130.5396,W,4.7,46.0,130917,3.0,W*4E
$GPGGA,142359,4715.2753,N,00130.5396,W,1,7,1.30,30,M,,,,*2C
$GPGSA,A,3,22,1,11,3,14,17,,,,23,,,1.90,1.30,1.50*0C
$GPGSV,3,1,12,22,87,229,41,1,80,44,38,11,68,136,36,3,60,239,43*4C
$GPGSV,3,2,12,14,35,61,28,17,32,310,39,32,24,46,,28,22,260,*71
$GPGSV,3,3,12,8,20,162,,23,13,183,29,19,11,318,,122,,0,*74
$GPAPB,,,,,,,,,,,,,,*44
$GPGLL,4715.2773,N,00130.5367,W,142401,A*39
$GPRMB,,,,,,,,,,,,,*66
$GPRMC,142401,A,4715.2773,N,00130.5367,W,6.3,44.2,130917,3.0,W*4E
$GPGGA,142401,4715.2773,N,00130.5367,W,1,5,3.20,29,M,,,,*23
$GPGSA,A,3,22,1,11,3,,17,,,,,,,6.50,3.20,5.70*06
$GPGSV,3,1,12,22,87,229,41,1,80,44,38,11,68,136,36,3,60,239,43*4C
$GPGSV,3,2,12,14,35,61,,17,32,310,39,32,24,46,,28,22,260,*7B
$GPGSV,3,3,12,8,20,162,,23,13,183,,19,11,318,,122,,0,*7F
$GPAPB,,,,,,,,,,,,,,*44
$GPGLL,4715.2799,N,00130.5333,W,142403,A*3E
$GPRMB,,,,,,,,,,,,,*66
$GPRMC,142403,A,4715.2799,N,00130.5333,W,6.3,39.6,130917,3.0,W*47
$GPGGA,142403,4715.2799,N,00130.5333,W,1,6,2.40,30,M,,,,*28
$GPGSA,A,3,22,1,11,3,14,17,,,,,,,4.30,2.40,3.60*07
$GPGSV,3,1,12,22,87,229,41,1,80,44,38,11,68,136,36,3,60,239,43*4C
$GPGSV,3,2,12,14,35,61,28,17,32,310,39,32,24,46,,28,22,260,*71
$GPGSV,3,3,12,8,20,162,,23,13,183,,19,11,318,,122,,0,*7F
$GPAPB,,,,,,,,,,,,,,*44
$GPGLL,4715.2832,N,00130.5301,W,142405,A*37
$GPRMB,,,,,,,,,,,,,*66
$GPRMC,142405,A,4715.2832,N,00130.5301,W,8.2,24.9,130917,3.0,W*42
$GPGGA,142405,4715.2832,N,00130.5301,W,1,6,2.40,30,M,,,,*21
$GPGSA,A,3,22,1,11,3,14,17,,,,,,,4.30,2.40,3.60*07
$GPGSV,3,1,12,22,87,229,39,1,80,44,36,11,68,136,26,3,60,239,43*4C
$GPGSV,3,2,12,14,35,61,38,17,32,310,38,32,24,46,,28,22,260,*71
$GPGSV,3,3,12,8,20,162,,23,13,183,,19,11,318,,134,,0,*78
$GPAPB,,,,,,,,,,,,,,*44
$GPGLL,4715.2875,N,00130.5286,W,142407,A*38
$GPRMB,,,,,,,,,,,,,*66
$GPRMC,142407,A,4715.2875,N,00130.5286,W,7.5,4.9,130917,3.0,W*77
$GPGGA,142407,4715.2875,N,00130.5286,W,1,6,2.40,31,M,,,,*2F
$GPGSA,A,3,22,1,11,3,14,17,,,,,,,4.30,2.40,3.60*07
$GPGSV,3,1,12,22,87,229,39,1,80,44,36,11,68,136,26,3,60,239,43*4C
$GPGSV,3,2,12,14,35,61,38,17,32,310,38,32,24,46,,28,22,260,*71
$GPGSV,3,3,12,8,20,162,,23,13,183,,19,11,318,,134,,0,*78
$GPAPB,,,,,,,,,,,,,,*44
$GPGLL,4715.2913,N,00130.5299,W,142409,A*39
$GPRMB,,,,,,,,,,,,,*66
$GPRMC,142409,A,4715.2913,N,00130.5299,W,7.0,335.7,130917,3.0,W*7C
$GPGGA,142409,4715.2913,N,00130.5299,W,1,6,2.80,32,M,,,,*21
$GPGSA,A,3,22,1,11,3,,17,,28,,,,,5.00,2.80,4.10*06
$GPGSV,3,1,12,22,87,229,42,1,80,44,46,11,68,136,39,3,60,239,42*48
$GPGSV,3,2,12,14,35,61,,17,32,310,38,32,24,46,,28,22,260,34*7D
$GPGSV,3,3,12,8,20,162,,23,13,183,,19,11,318,,134,,0,*78
$GPAPB,,,,,,,,,,,,,,*44
$GPGLL,4715.2948,N,00130.5337,W,142411,A*3B
$GPRMB,,,,,,,,,,,,,*66
$GPRMC,142411,A,4715.2948,N,00130.5337,W,8.5,318.9,130917,3.0,W*75
$GPGGA,142411,4715.2948,N,00130.5337,W,1,5,3.20,31,M,,,,*28
$GPGSA,A,3,22,1,11,3,,17,,,,,,,6.50,3.20,5.70*06
$GPGSV,3,1,12,22,87,229,42,1,80,44,46,11,68,136,39,3,60,239,42*48
$GPGSV,3,2,12,14,35,61,,17,32,310,38,32,24,46,,28,22,260,*7A
$GPGSV,3,3,12,8,20,162,,23,13,183,,19,11,318,,134,,0,*78
$GPAPB,,,,,,,,,,,,,,*44
$GPGLL,4715.2987,N,00130.5392,W,142413,A*35
$GPRMB,,,,,,,,,,,,,*66
$GPRMC,142413,A,4715.2987,N,00130.5392,W,10.2,316.0,130917,3.0,W*42
$GPGGA,142413,4715.2987,N,00130.5392,W,1,6,2.80,31,M,,,,*2E
$GPGSA,A,3,22,1,11,3,,17,,28,,,,,5.00,2.80,4.10*06
$GPGSV,3,1,12,22,87,229,42,1,80,44,46,11,68,136,39,3,60,239,42*48
$GPGSV,3,2,12,14,35,61,,17,32,310,38,32,24,46,,28,22,260,34*7D
$GPGSV,3,3,12,8,20,162,,23,13,183,,19,11,318,,134,,0,*78
$GPAPB,,,,,,,,,,,,,,*44
$GPGLL,4715.3030,N,00130.5455,W,142415,A*3B
$GPRMB,,,,,,,,,,,,,*66
$GPRMC,142415,A,4715.3030,N,00130.5455,W,11.3,314.5,130917,3.0,W*4B
$GPGGA,142415,4715.3030,N,00130.5455,W,1,6,2.80,31,M,,,,*20
$GPGSA,A,3,22,1,11,3,,17,,28,,,,,5.00,2.80,4.10*06
$GPGSV,3,1,12,22,87,229,40,1,80,44,42,11,68,136,37,3,60,239,43*41
$GPGSV,3,2,12,14,35,61,,17,32,310,41,32,24,46,,28,22,260,38*7F
$GPGSV,3,3,12,8,20,162,,23,13,183,,19,11,318,,134,,0,*78
$GPAPB,,,,,,,,,,,,,,*44
$GPGLL,4715.3076,N,00130.5517,W,142417,A*3C
$GPRMB,,,,,,,,,,,,,*66
$GPRMC,142417,A,4715.3076,N,00130.5517,W,10.5,324.9,130917,3.0,W*44
$GPGGA,142417,4715.3076,N,00130.5517,W,1,5,3.20,31,M,,,,*2F
$GPGSA,A,3,22,1,11,3,,17,,,,,,,6.50,3.20,5.70*06
$GPGSV,3,1,12,22,87,229,40,1,80,44,42,11,68,136,37,3,60,239,43*41
$GPGSV,3,2,12,14,35,61,,17,32,310,41,32,24,46,,28,22,260,*74
$GPGSV,3,3,12,8,20,162,,23,13,183,,19,11,318,,134,,0,*78
$GPAPB,,,,,,,,,,,,,,*44
$GPGLL,4715.3127,N,00130.5541,W,142419,A*34
$GPRMB,,,,,,,,,,,,,*66
$GPRMC,142419,A,4715.3127,N,00130.5541,W,9.4,3.5,130917,3.0,W*7F
$GPGGA,142419,4715.3127,N,00130.5541,W,1,7,1.80,30,M,,,,*2C
$GPGSA,A,3,22,1,11,3,14,17,,28,,,,,2.70,1.80,2.10*06
$GPGSV,3,1,12,22,87,229,40,1,80,46,44,11,67,136,34,3,60,239,41*4B
$GPGSV,3,2,12,14,35,61,36,17,32,310,38,32,23,46,,28,22,260,33*78
$GPGSV,3,3,12,8,19,162,,23,13,183,,19,11,318,,134,,0,*72
$GPAPB,,,,,,,,,,,,,,*44
$GPGLL,4715.3176,N,00130.5515,W,142421,A*3A
$GPRMB,,,,,,,,,,,,,*66
$GPRMC,142421,A,4715.3176,N,00130.5515,W,8.8,32.3,130917,3.0,W*48
$GPGGA,142421,4715.3176,N,00130.5515,W,1,6,2.40,30,M,,,,*2C
$GPGSA,A,3,22,1,11,3,14,17,,,,,,,4.30,2.40,3.60*07
$GPGSV,3,1,12,22,87,229,40,1,80,46,44,11,67,136,34,3,60,239,41*4B
$GPGSV,3,2,12,14,35,61,36,17,32,310,38,32,23,46,,28,22,260,*78
$GPGSV,3,3,12,8,19,162,,23,13,183,,19,11,318,,134,,0,*72
$GPAPB,,,,,,,,,,,,,,*44
$GPGLL,4715.3210,N,00130.5473,W,142423,A*3A
$GPRMB,,,,,,,,,,,,,*66
$GPRMC,142423,A,4715.3210,N,00130.5473,W,6.2,40.0,130917,3.0,W*4A
$GPGGA,142423,4715.3210,N,00130.5473,W,1,7,1.80,30,M,,,,*22
$GPGSA,A,3,22,1,11,3,14,17,,28,,,,,2.70,1.80,2.10*06
$GPGSV,3,1,12,22,87,229,40,1,80,46,44,11,67,136,34,3,60,239,41*4B
$GPGSV,3,2,12,14,35,61,36,17,32,310,38,32,23,46,,28,22,260,33*78
$GPGSV,3,3,12,8,19,162,,23,13,183,,19,11,318,,134,,0,*72
$GPAPB,,,,,,,,,,,,,,*44
$GPGLL,4715.3229,N,00130.5448,W,142425,A*3E
$GPRMB,,,,,,,,,,,,,*66
$GPRMC,142425,A,4715.3229,N,00130.5448,W,2.8,35.4,130917,3.0,W*46
$GPGGA,142425,4715.3229,N,00130.5448,W,1,5,3.40,29,M,,,,*22
$GPGSV,3,1,12,22,87,229,41,1,80,46,37,11,67,136,38,3,60,239,42*41
$GPGSV,3,2,12,14,35,61,39,17,32,310,,32,23,46,,28,22,260,*7C
$GPGSV,3,3,12,8,19,162,,23,13,183,,19,11,318,,134,,0,*72
$GPAPB,,,,,,,,,,,,,,*44
$GPGLL,4715.3248,N,00130.5420,W,142427,A*35
$GPRMB,,,,,,,,,,,,,*66
$GPRMC,142427,A,4715.3248,N,00130.5420,W,6.8,41.6,130917,3.0,W*48
$GPGGA,142427,4715.3248,N,00130.5420,W,1,5,3.40,29,M,,,,*29
$GPGSV,3,1,12,22,87,229,41,1,80,46,37,11,67,136,38,3,60,239,42*41
$GPGSV,3,2,12,14,35,61,39,17,32,310,,32,23,46,,28,22,260,*7C
$GPGSV,3,3,12,8,19,162,,23,13,183,,19,11,318,,134,,0,*72
$GPAPB,,,,,,,,,,,,,,*44
$GPGLL,4715.3280,N,00130.5377,W,142429,A*3A
$GPRMB,,,,,,,,,,,,,*66
$GPRMC,142429,A,4715.3280,N,00130.5377,W,7.7,38.9,130917,3.0,W*48
$GPGGA,142429,4715.3280,N,00130.5377,W,1,7,1.30,30,M,,,,*29
$GPGSA,A,3,22,1,11,3,14,17,,,,23,,,1.90,1.30,1.50*0C
$GPGSV,3,1,12,22,87,229,41,1,80,46,38,11,67,136,38,3,60,239,43*4F
$GPGSV,3,2,12,14,35,61,39,17,32,310,42,32,23,46,,28,22,260,*7A
$GPGSV,3,3,12,8,19,162,,23,13,183,33,19,11,318,,134,,0,*72
$GPAPB,,,,,,,,,,,,,,*44
$GPGLL,4715.3308,N,00130.5342,W,142431,A*34
$GPRMB,,,,,,,,,,,,,*66
$GPRMC,142431,A,4715.3308,N,00130.5342,W,4.9,42.8,130917,3.0,W*47
$GPGGA,142431,4715.3308,N,00130.5342,W,1,6,2.40,30,M,,,,*22
$GPGSA,A,3,22,1,11,3,14,17,,,,,,,4.30,2.40,3.60*07
$GPGSV,3,1,12,22,87,229,41,1,80,46,38,11,67,136,38,3,60,239,43*4F
$GPGSV,3,2,12,14,35,61,39,17,32,310,42,32,23,46,,28,22,260,*7A
$GPGSV,3,3,12,8,19,162,,23,13,183,,19,11,318,,134,,0,*72
$GPAPB,,,,,,,,,,,,,,*44
$GPGLL,4715.3321,N,00130.5314,W,142433,A*3E
$GPRMB,,,,,,,,,,,,,*66
$GPRMC,142433,A,4715.3321,N,00130.5314,W,4.5,67.1,130917,3.0,W*4F
$GPGGA,142433,4715.3321,N,00130.5314,W,1,6,2.40,30,M,,,,*28
$GPGSA,A,3,22,1,11,3,14,17,,,,,,,4.30,2.40,3.60*07
$GPGSV,3,1,12,22,87,229,41,1,80,46,38,11,67,136,38,3,60,239,43*4F
$GPGSV,3,2,12,14,35,61,39,17,32,310,42,32,23,46,,28,22,260,*7A
$GPGSV,3,3,12,8,19,162,,23,13,183,,19,11,318,,134,,0,*72
$GPAPB,,,,,,,,,,,,,,*44
$GPGLL,4715.3321,N,00130.5263,W,142435,A*39
$GPRMB,,,,,,,,,,,,,*66
$GPRMC,142435,A,4715.3321,N,00130.5263,W,7.6,105.0,130917,3.0,W*7C
$GPGGA,142435,4715.3321,N,00130.5263,W,1,6,2.40,30,M,,,,*2F
$GPGSV,3,1,12,22,87,229,39,1,80,46,40,11,67,136,38,3,60,239,34*4F
$GPGSV,3,2,12,14,35,61,37,17,32,310,39,32,23,46,,28,22,260,*78
$GPGSV,3,3,12,8,19,162,,23,13,183,,19,11,318,,134,,0,*72
$GPAPB,,,,,,,,,,,,,,*44
$GPGLL,4715.3295,N,00130.5197,W,142437,A*3D
$GPRMB,,,,,,,,,,,,,*66
$GPRMC,142437,A,4715.3295,N,00130.5197,W,10.9,127.6,130917,3.0,W*47
$GPGGA,142437,4715.3295,N,00130.5197,W,1,6,2.40,30,M,,,,*2B
$GPGSV,3,1,12,22,87,229,39,1,80,46,40,11,67,136,38,3,60,239,34*4F
$GPGSV,3,2,12,14,35,61,37,17,32,310,39,32,23,46,,28,22,260,*78
$GPGSV,3,3,12,8,19,162,,23,13,183,,19,11,318,,134,,0,*72
$GPAPB,,,,,,,,,,,,,,*44
$GPGLL,4715.3250,N,00130.5114,W,142439,A*31
$GPRMB,,,,,,,,,,,,,*66
$GPRMC,142439,A,4715.3250,N,00130.5114,W,13.9,128.2,130917,3.0,W*43
$GPGGA,142439,4715.3250,N,00130.5114,W,1,7,1.30,30,M,,,,*22
$GPGSA,A,3,22,1,11,3,14,17,,,,23,,,1.90,1.30,1.50*0C
$GPGSV,3,1,12,22,87,229,39,1,80,46,47,11,67,136,38,3,60,239,43*48
$GPGSV,3,2,12,14,35,61,39,17,32,310,31,32,23,46,,28,22,260,*7E
$GPGSV,3,3,12,8,19,162,,23,13,183,31,19,11,318,,134,,0,*70
$GPAPB,,,,,,,,,,,,,,*44
$GPGLL,4715.3198,N,00130.5019,W,142441,A*35
$GPRMB,,,,,,,,,,,,,*66
$GPRMC,142441,A,4715.3198,N,00130.5019,W,14.3,129.4,130917,3.0,W*4D
$GPGGA,142441,4715.3198,N,00130.5019,W,1,6,2.60,31,M,,,,*20
$GPGSA,A,3,22,1,11,3,14,,,,,23,,,3.60,2.60,2.40*03
$GPGSV,3,1,12,22,87,229,39,1,80,46,47,11,67,136,38,3,60,239,43*48
$GPGSV,3,2,12,14,35,61,39,17,32,310,,32,23,46,,28,22,260,*7C
$GPGSV,3,3,12,8,19,162,,23,13,183,31,19,11,318,,134,,0,*70
$GPAPB,,,,,,,,,,,,,,*44
$GPGLL,4715.3141,N,00130.4927,W,142443,A*36
$GPRMB,,,,,,,,,,,,,*66
$GPRMC,142443,A,4715.3141,N,00130.4927,W,15.9,134.4,130917,3.0,W*49
$GPGGA,142443,4715.3141,N,00130.4927,W,1,6,3.10,32,M,,,,*26
$GPGSA,A,3,22,1,11,3,14,,,28,,,,,3.90,3.10,2.30*06
$GPGSV,3,1,12,22,87,229,39,1,80,46,47,11,67,136,38,3,60,239,43*48
$GPGSV,3,2,12,14,35,61,39,17,32,310,,32,23,46,,28,22,260,25*7B
$GPGSV,3,3,12,8,19,162,,23,13,183,,19,11,318,,134,,0,*72
$GPAPB,,,,,,,,,,,,,,*44
$GPGLL,4715.3071,N,00130.4831,W,142445,A*34
$GPRMB,,,,,,,,,,,,,*66
$GPRMC,142445,A,4715.3071,N,00130.4831,W,17.6,137.4,130917,3.0,W*45
$GPGGA,142445,4715.3071,N,00130.4831,W,1,7,1.40,31,M,,,,*21
$GPGSA,A,3,22,1,11,3,14,,,28,,23,,,2.10,1.40,1.50*0C
$GPGSV,3,1,12,22,87,229,40,1,80,46,47,11,67,136,41,3,60,239,41*4A
$GPGSV,3,2,12,14,35,61,41,17,32,310,,32,23,46,,28,22,260,29*78
$GPGSV,3,3,12,8,19,162,,23,13,183,31,19,11,318,,134,,0,*70
$GPAPB,,,,,,,,,,,,,,*44
$GPGLL,4715.2992,N,00130.4734,W,142447,A*39
$GPRMB,,,,,,,,,,,,,*66
$GPRMC,142447,A,4715.2992,N,00130.4734,W,18.8,140.1,130917,3.0,W*4C
$GPGGA,142447,4715.2992,N,00130.4734,W,1,6,2.60,30,M,,,,*2D
$GPGSA,A,3,22,1,11,3,14,,,,,23,,,3.60,2.60,2.40*03
$GPGSV,3,1,12,22,87,229,40,1,80,46,47,11,67,136,41,3,60,239,41*4A
$GPGSV,3,2,12,14,35,61,41,17,32,310,,32,23,46,,28,22,260,*73
$GPGSV,3,3,12,8,19,162,,23,13,183,31,19,11,318,,134,,0,*70
$GPAPB,,,,,,,,,,,,,,*44
$GPGLL,4715.2906,N,00130.4636,W,142449,A*39
$GPRMB,,,,,,,,,,,,,*66
$GPRMC,142449,A,4715.2906,N,00130.4636,W,20.2,141.7,130917,3.0,W*4A
$GPGGA,142449,4715.2906,N,00130.4636,W,1,6,2.60,29,M,,,,*25
$GPGSA,A,3,22,1,11,3,14,,,,,23,,,3.60,2.60,2.40*03
$GPGSV,3,1,12,22,87,229,39,1,80,47,47,11,67,136,42,3,60,240,41*48
$GPGSV,3,2,12,14,35,61,34,17,33,310,,32,23,45,,28,21,260,*70
$GPGSV,3,3,12,8,19,162,,23,13,183,36,19,12,318,,134,,0,*74
$GPAPB,,,,,,,,,,,,,,*44
$GPGLL,4715.2815,N,00130.4533,W,142451,A*35
$GPRMB,,,,,,,,,,,,,*66
$GPRMC,142451,A,4715.2815,N,00130.4533,W,20.5,141.8,130917,3.0,W*4E
$GPGGA,142451,4715.2815,N,00130.4533,W,1,6,2.60,27,M,,,,*27
$GPGSA,A,3,22,1,11,3,14,,,,,23,,,3.60,2.60,2.40*03
$GPGSV,3,1,12,22,87,229,39,1,80,47,47,11,67,136,42,3,60,240,41*48
$GPGSV,3,2,12,14,35,61,34,17,33,310,,32,23,45,,28,21,260,*70
$GPGSV,3,3,12,8,19,162,,23,13,183,36,19,12,318,,134,,0,*74
$GPAPB,,,,,,,,,,,,,,*44
$GPGLL,4715.2722,N,00130.4431,W,142453,A*3F
$GPRMB,,,,,,,,,,,,,*66
$GPRMC,142453,A,4715.2722,N,00130.4431,W,20.9,142.6,130917,3.0,W*45
$GPGGA,142453,4715.2722,N,00130.4431,W,1,6,2.60,26,M,,,,*2C
$GPGSA,A,3,22,1,11,3,14,,,,,23,,,3.60,2.60,2.40*03
$GPGSV,3,1,12,22,87,229,39,1,80,47,47,11,67,136,42,3,60,240,41*48
$GPGSV,3,2,12,14,35,61,34,17,33,310,,32,23,45,,28,21,260,*70
$GPGSV,3,3,12,8,19,162,,23,13,183,36,19,12,318,,134,,0,*74
$GPAPB,,,,,,,,,,,,,,*44
$GPGLL,4715.2626,N,00130.4325,W,142455,A*3E
$GPRMB,,,,,,,,,,,,,*66
$GPRMC,142455,A,4715.2626,N,00130.4325,W,22.1,141.3,130917,3.0,W*48
$GPGGA,142455,4715.2626,N,00130.4325,W,1,6,2.60,25,M,,,,*2E
$GPGSA,A,3,22,1,11,3,14,,,,,23,,,3.60,2.60,2.40*03
$GPGSV,3,1,12,22,87,229,41,1,80,47,47,11,67,136,42,3,60,240,40*46
$GPGSV,3,2,12,14,35,61,39,17,33,310,,32,23,45,,28,21,260,*7D
$GPGSV,3,3,12,8,19,162,,23,13,183,34,19,12,318,,134,,0,*76
$GPAPB,,,,,,,,,,,,,,*44
$GPGLL,4715.2527,N,00130.4214,W,142457,A*3D
$GPRMB,,,,,,,,,,,,,*66
$GPRMC,142457,A,4715.2527,N,00130.4214,W,22.7,141.6,130917,3.0,W*48
$GPGGA,142457,4715.2527,N,00130.4214,W,1,6,2.60,25,M,,,,*2D
$GPGSA,A,3,22,1,11,3,14,,,,,23,,,3.60,2.60,2.40*03
$GPGSV,3,1,12,22,87,229,41,1,80,47,47,11,67,136,42,3,60,240,40*46
$GPGSV,3,2,12,14,35,61,39,17,33,310,,32,23,45,,28,21,260,*7D
$GPGSV,3,3,12,8,19,162,,23,13,183,34,19,12,318,,134,,0,*76
$GPAPB,,,,,,,,,,,,,,*44
$GPGLL,4715.2427,N,00130.4102,W,142459,A*36
$GPRMB,,,,,,,,,,,,,*66
$GPRMC,142459,A,4715.2427,N,00130.4102,W,23.1,142.6,130917,3.0,W*47
$GPGGA,142459,4715.2427,N,00130.4102,W,1,6,2.60,24,M,,,,*27
$GPGSA,A,3,22,1,11,3,14,,,,,23,,,3.60,2.60,2.40*03
$GPGSV,3,1,12,22,87,229,40,1,80,47,47,11,67,136,41,3,60,240,41*45
$GPGSV,3,2,12,14,35,61,41,17,33,310,,32,23,45,,28,21,260,*72
$GPGSV,3,3,12,8,19,162,,23,13,183,29,19,12,318,,134,,0,*7A
$GPAPB,,,,,,,,,,,,,,*44
$GPGLL,4715.2326,N,00130.3991,W,142501,A*39
$GPRMB,,,,,,,,,,,,,*66
$GPRMC,142501,A,4715.2326,N,00130.3991,W,22.6,141.6,130917,3.0,W*4D
$GPGGA,142501,4715.2326,N,00130.3991,W,1,5,3.40,24,M,,,,*28
$GPGSV,3,1,12,22,87,229,40,1,80,47,47,11,67,136,41,3,60,240,41*45
$GPGSV,3,2,12,14,35,61,41,17,33,310,,32,23,45,,28,21,260,*72
$GPGSV,3,3,12,8,19,162,,23,13,183,,19,12,318,,134,,0,*71
$GPAPB,,,,,,,,,,,,,,*44
$GPGLL,4715.2227,N,00130.3879,W,142503,A*3C
$GPRMB,,,,,,,,,,,,,*66
$GPRMC,142503,A,4715.2227,N,00130.3879,W,22.5,142.2,130917,3.0,W*4C
$GPGGA,142503,4715.2227,N,00130.3879,W,1,5,3.40,23,M,,,,*2A
$GPGSV,3,1,12,22,87,229,40,1,80,47,47,11,67,136,41,3,60,240,41*45
$GPGSV,3,2,12,14,35,61,41,17,33,310,,32,23,45,,28,21,260,*72
$GPGSV,3,3,12,8,19,162,,23,13,183,,19,12,318,,134,,0,*71
$GPAPB,,,,,,,,,,,,,,*44
$GPGLL,4715.2124,N,00130.3771,W,142505,A*3D
$GPRMB,,,,,,,,,,,,,*66
$GPRMC,142505,A,4715.2124,N,00130.3771,W,23.1,145.9,130917,3.0,W*44
$GPGGA,142505,4715.2124,N,00130.3771,W,1,5,3.40,24,M,,,,*2C
$GPGSV,3,1,12,22,87,229,40,1,80,47,47,11,67,136,41,3,60,240,40*44
$GPGSV,3,2,12,14,35,61,41,17,33,310,,32,23,45,,28,21,260,*72
$GPGSV,3,3,12,8,19,162,,23,13,183,,19,12,318,,134,,0,*71
$GPAPB,,,,,,,,,,,,,,*44
$GPGLL,4715.2014,N,00130.3668,W,142507,A*34
$GPRMB,,,,,,,,,,,,,*66
$GPRMC,142507,A,4715.2014,N,00130.3668,W,24.1,148.2,130917,3.0,W*4C
$GPGGA,142507,4715.2014,N,00130.3668,W,1,6,2.60,24,M,,,,*25
$GPGSV,3,1,12,22,87,229,40,1,80,47,47,11,67,136,41,3,60,240,40*44
$GPGSV,3,2,12,14,35,61,41,17,33,310,,32,23,45,,28,21,260,*72
$GPGSV,3,3,12,8,19,162,,23,13,183,26,19,12,318,,134,,0,*75
$GPAPB,,,,,,,,,,,,,,*44
$GPGLL,4715.1898,N,00130.3564,W,142509,A*3A
$GPRMB,,,,,,,,,,,,,*66
$GPRMC,142509,A,4715.1898,N,00130.3564,W,25.0,148.3,130917,3.0,W*43
$GPGGA,142509,4715.1898,N,00130.3564,W,1,7,1.40,24,M,,,,*2B
$GPGSA,A,3,22,1,11,3,14,,,28,,23,,,2.10,1.40,1.50*0C
$GPGSV,3,1,12,22,87,229,40,1,80,47,46,11,67,136,41,3,60,240,43*46
$GPGSV,3,2,12,14,35,61,35,17,33,310,,32,23,45,,28,21,260,30*72
$GPGSV,3,3,12,8,19,162,,23,13,183,35,19,12,318,,134,,0,*77
$GPAPB,,,,,,,,,,,,,,*44
$GPGLL,4715.1779,N,00130.3455,W,142511,A*30
$GPRMB,,,,,,,,,,,,,*66
$GPRMC,142511,A,4715.1779,N,00130.3455,W,25.7,148.6,130917,3.0,W*4B
$GPGGA,142511,4715.1779,N,00130.3455,W,1,8,1.10,24,M,,,,*2B
$GPGSA,A,3,22,1,11,3,14,17,,28,,23,,,1.80,1.10,1.40*04
$GPGSV,3,1,12,22,87,229,40,1,80,47,46,11,67,136,41,3,60,240,43*46
$GPGSV,3,2,12,14,35,61,35,17,33,310,22,32,23,45,,28,21,260,30*72
$GPGSV,3,3,12,8,19,162,,23,13,183,35,19,12,318,,134,,0,*77
$GPAPB,,,,,,,,,,,,,,*44
$GPGLL,4715.1658,N,00130.3344,W,142513,A*37
$GPRMB,,,,,,,,,,,,,*66
$GPRMC,142513,A,4715.1658,N,00130.3344,W,25.5,148.3,130917,3.0,W*4B
$GPGGA,142513,4715.1658,N,00130.3344,W,1,8,1.10,25,M,,,,*2D
$GPGSA,A,3,22,1,11,3,14,17,,28,,23,,,1.80,1.10,1.40*04
$GPGSV,3,1,12,22,87,229,40,1,80,47,46,11,67,136,41,3,60,240,43*46
$GPGSV,3,2,12,14,35,61,35,17,33,310,22,32,23,45,,28,21,260,30*72
$GPGSV,3,3,12,8,19,162,,23,13,183,35,19,12,318,,134,,0,*77
$GPAPB,,,,,,,,,,,,,,*44
$GPGLL,4715.1533,N,00130.3231,W,142515,A*3C
$GPRMB,,,,,,,,,,,,,*66
$GPRMC,142515,A,4715.1533,N,00130.3231,W,26.7,148.7,130917,3.0,W*45
$GPGGA,142515,4715.1533,N,00130.3231,W,1,8,1.10,25,M,,,,*26
$GPGSA,A,3,22,1,11,3,14,17,,28,,23,,,1.80,1.10,1.40*04
$GPGSV,3,1,12,22,87,229,40,1,80,47,46,11,67,136,41,3,60,240,43*46
$GPGSV,3,2,12,14,35,61,40,17,33,310,32,32,23,45,,28,21,260,33*72
$GPGSV,3,3,12,8,19,162,,23,13,183,37,19,12,318,,134,,0,*75
$GPAPB,,,,,,,,,,,,,,*44
$GPGLL,4715.1402,N,00130.3112,W,142517,A*3F
$GPRMB,,,,,,,,,,,,,*66
$GPRMC,142517,A,4715.1402,N,00130.3112,W,28.2,148.8,130917,3.0,W*42
$GPGGA,142517,4715.1402,N,00130.3112,W,1,8,1.10,26,M,,,,*26
$GPGSA,A,3,22,1,11,3,14,17,,28,,23,,,1.80,1.10,1.40*04
$GPGSV,3,1,12,22,87,229,40,1,80,47,46,11,67,136,41,3,60,240,43*46
$GPGSV,3,2,12,14,35,61,40,17,33,310,32,32,23,45,,28,21,260,33*72
$GPGSV,3,3,12,8,19,162,,23,13,183,37,19,12,318,,134,,0,*75
$GPAPB,,,,,,,,,,,,,,*44
$GPGLL,4715.1265,N,00130.2989,W,142519,A*3D
$GPRMB,,,,,,,,,,,,,*66
$GPRMC,142519,A,4715.1265,N,00130.2989,W,29.7,148.3,130917,3.0,W*4F
$GPGGA,142519,4715.1265,N,00130.2989,W,1,8,1.10,25,M,,,,*27
$GPGSA,A,3,22,1,11,3,14,17,,28,,23,,,1.80,1.10,1.40*04
$GPGSV,3,1,12,22,88,230,40,1,80,48,47,11,67,136,41,3,61,240,42*4F
$GPGSV,3,2,12,14,35,60,40,17,33,310,28,32,23,45,,28,21,260,28*72
$GPGSV,3,3,12,8,19,162,,23,13,183,36,19,12,318,,134,,0,*74
$GPAPB,,,,,,,,,,,,,,*44
$GPGLL,4715.1125,N,00130.2864,W,142521,A*33
$GPRMB,,,,,,,,,,,,,*66
$GPRMC,142521,A,4715.1125,N,00130.2864,W,29.7,148.7,130917,3.0,W*45
$GPGGA,142521,4715.1125,N,00130.2864,W,1,9,1.10,24,M,,,,*29
$GPGSA,A,3,22,1,11,3,14,17,,28,8,23,,,1.70,1.10,1.30*34
$GPGSV,3,1,12,22,88,230,40,1,80,48,47,11,67,136,41,3,61,240,42*4F
$GPGSV,3,2,12,14,35,60,40,17,33,310,28,32,23,45,,28,21,260,28*72
$GPGSV,3,3,12,8,19,162,35,23,13,183,36,19,12,318,,134,,0,*72
$GPAPB,,,,,,,,,,,,,,*44
$GPGLL,4715.0982,N,00130.2742,W,142523,A*3E
$GPRMB,,,,,,,,,,,,,*66
$GPRMC,142523,A,4715.0982,N,00130.2742,W,29.8,150.8,130917,3.0,W*41
$GPGGA,142523,4715.0982,N,00130.2742,W,1,9,1.10,23,M,,,,*23
$GPGSA,A,3,22,1,11,3,14,17,,28,8,23,,,1.70,1.10,1.30*34
$GPGSV,3,1,12,22,88,230,40,1,80,48,47,11,67,136,41,3,61,240,42*4F
$GPGSV,3,2,12,14,35,60,40,17,33,310,28,32,23,45,,28,21,260,28*72
$GPGSV,3,3,12,8,19,162,35,23,13,183,36,19,12,318,,134,,0,*72
$GPAPB,,,,,,,,,,,,,,*44
$GPGLL,4715.0832,N,00130.2626,W,142525,A*31
$GPRMB,,,,,,,,,,,,,*66
$GPRMC,142525,A,4715.0832,N,00130.2626,W,30.1,154.8,130917,3.0,W*4B
$GPGGA,142525,4715.0832,N,00130.2626,W,1,9,1.10,22,M,,,,*2D
$GPGSA,A,3,22,1,11,3,14,17,,28,8,23,,,1.70,1.10,1.30*34
$GPGSV,3,1,12,22,88,230,41,1,80,49,46,11,67,136,42,3,61,240,44*4B
$GPGSV,3,2,12,14,35,60,41,17,33,310,34,32,23,45,,28,21,260,33*74
$GPGSV,3,3,12,8,19,162,39,23,13,183,38,19,12,318,,134,,0,*70
$GPAPB,,,,,,,,,,,,,,*44
$GPGLL,4715.0673,N,00130.2528,W,142527,A*35
$GPRMB,,,,,,,,,,,,,*66
$GPRMC,142527,A,4715.0673,N,00130.2528,W,30.6,159.4,130917,3.0,W*49
$GPGGA,142527,4715.0673,N,00130.2528,W,1,8,1.10,21,M,,,,*2B
$GPGSA,A,3,22,1,11,3,14,17,,28,8,,,,1.80,1.10,1.40*3D
$GPGSV,3,1,12,22,88,230,41,1,80,49,46,11,67,136,42,3,61,240,44*4B
$GPGSV,3,2,12,14,35,60,41,17,33,310,34,32,23,45,,28,21,260,33*74
$GPGSV,3,3,12,8,19,162,39,23,13,183,,19,12,318,,134,,0,*7B
$GPAPB,,,,,,,,,,,,,,*44
$GPGLL,4715.0510,N,00130.2448,W,142529,A*3A
$GPRMB,,,,,,,,,,,,,*66
$GPRMC,142529,A,4715.0510,N,00130.2448,W,30.2,161.8,130917,3.0,W*45
$GPGGA,142529,4715.0510,N,00130.2448,W,1,8,1.20,20,M,,,,*26
$GPGSA,A,3,22,1,11,3,14,17,,,8,23,,,1.80,1.20,1.40*35
$GPGSV,3,1,12,22,88,230,40,1,80,49,46,11,67,136,41,3,61,240,45*48
$GPGSV,3,2,12,14,35,60,36,17,33,310,29,32,23,45,,28,21,260,*78
$GPGSV,3,3,12,8,19,162,40,23,13,183,32,19,12,318,,134,,0,*74
$GPAPB,,,,,,,,,,,,,,*44
$GPGLL,4715.0348,N,00130.2373,W,142531,A*37
$GPRMB,,,,,,,,,,,,,*66
$GPRMC,142531,A,4715.0348,N,00130.2373,W,29.5,162.0,130917,3.0,W*4C
$GPGGA,142531,4715.0348,N,00130.2373,W,1,9,1.10,19,M,,,,*23
$GPGSA,A,3,22,1,11,3,14,17,,28,8,23,,,1.70,1.10,1.30*34
$GPGSV,3,1,12,22,88,230,40,1,80,49,46,11,67,136,41,3,61,240,45*48
$GPGSV,3,2,12,14,35,60,36,17,33,310,29,32,23,45,,28,21,260,27*7D
$GPGSV,3,3,12,8,19,162,40,23,13,183,32,19,12,318,,134,,0,*74
$GPAPB,,,,,,,,,,,,,,*44
$GPGLL,4715.0193,N,00130.2295,W,142533,A*38
$GPRMB,,,,,,,,,,,,,*66
$GPRMC,142533,A,4715.0193,N,00130.2295,W,28.6,158.2,130917,3.0,W*4A
$GPGGA,142533,4715.0193,N,00130.2295,W,1,8,1.10,19,M,,,,*2D
$GPGSA,A,3,22,1,11,3,14,17,,28,8,,,,1.80,1.10,1.40*3D
$GPGSV,3,1,12,22,88,230,40,1,80,49,46,11,67,136,41,3,61,240,45*48
$GPGSV,3,2,12,14,35,60,36,17,33,310,29,32,23,45,,28,21,260,27*7D
$GPGSV,3,3,12,8,19,162,40,23,13,183,,19,12,318,,134,,0,*75
$GPAPB,,,,,,,,,,,,,,*44
$GPGLL,4715.0057,N,00130.2183,W,142535,A*33
$GPRMB,,,,,,,,,,,,,*66
$GPRMC,142535,A,4715.0057,N,00130.2183,W,27.4,142.0,130917,3.0,W*45
$GPGGA,142535,4715.0057,N,00130.2183,W,1,7,2.30,18,M,,,,*29
$GPGSA,A,3,22,1,11,3,14,,,,8,23,,,3.30,2.30,2.30*3C
$GPGSV,3,1,12,22,88,230,41,1,80,49,46,11,67,136,42,3,61,240,43*4C
$GPGSV,3,2,12,14,35,60,41,17,33,310,,32,23,45,,28,21,260,*73
$GPGSV,3,3,12,8,19,162,39,23,13,183,35,19,12,318,,134,,0,*7D
$GPAPB,,,,,,,,,,,,,,*44
$GPGLL,4714.9953,N,00130.2023,W,142537,A*3F
$GPRMB,,,,,,,,,,,,,*66
$GPRMC,142537,A,4714.9953,N,00130.2023,W,26.2,126.2,130917,3.0,W*4E
$GPGGA,142537,4714.9953,N,00130.2023,W,1,8,1.20,18,M,,,,*28
$GPGSA,A,3,22,1,11,3,14,17,,,8,23,,,1.90,1.20,1.40*34
$GPGSV,3,1,12,22,88,230,41,1,80,49,46,11,67,136,42,3,61,240,43*4C
$GPGSV,3,2,12,14,35,60,41,17,33,310,33,32,23,45,,28,21,260,*73
$GPGSV,3,3,12,8,19,162,39,23,13,183,35,19,12,318,,134,,0,*7D
$GPAPB,,,,,,,,,,,,,,*44
$GPGLL,4714.9885,N,00130.1832,W,142539,A*30
$GPRMB,,,,,,,,,,,,,*66
$GPRMC,142539,A,4714.9885,N,00130.1832,W,26.0,108.8,130917,3.0,W*45
$GPGGA,142539,4714.9885,N,00130.1832,W,1,7,1.30,18,M,,,,*29
$GPGSA,A,3,22,1,11,3,14,17,,,8,,,,2.00,1.30,1.60*3C
$GPGSV,3,1,12,22,88,230,40,1,80,49,46,11,67,136,41,3,61,240,45*48
$GPGSV,3,2,12,14,35,60,36,17,33,310,30,32,23,45,,28,21,260,*70
$GPGSV,3,3,12,8,19,162,37,23,13,183,,19,12,318,,134,,0,*75
$GPAPB,,,,,,,,,,,,,,*44
$GPGLL,4714.9858,N,00130.1616,W,142541,A*37
$GPRMB,,,,,,,,,,,,,*66
$GPRMC,142541,A,4714.9858,N,00130.1616,W,26.3,94.2,130917,3.0,W*7F
$GPGGA,142541,4714.9858,N,00130.1616,W,1,8,1.20,18,M,,,,*20
$GPGSA,A,3,22,1,11,3,14,17,,,8,23,,,1.90,1.20,1.40*34
$GPGSV,3,1,12,22,88,230,40,1,80,49,46,11,67,136,41,3,61,240,45*48
$GPGSV,3,2,12,14,35,60,36,17,33,310,30,32,23,45,,28,21,260,*70
$GPGSV,3,3,12,8,19,162,37,23,13,183,29,19,12,318,,134,,0,*7E
$GPAPB,,,,,,,,,,,,,,*44
$GPGLL,4714.9869,N,00130.1399,W,142543,A*35
$GPRMB,,,,,,,,,,,,,*66
$GPRMC,142543,A,4714.9869,N,00130.1399,W,25.6,79.1,130917,3.0,W*7B
$GPGGA,142543,4714.9869,N,00130.1399,W,1,8,1.20,18,M,,,,*22
$GPGSA,A,3,22,1,11,3,14,17,,,8,23,,,1.90,1.20,1.40*34
$GPGSV,3,1,12,22,88,230,40,1,80,49,46,11,67,136,41,3,61,240,45*48
$GPGSV,3,2,12,14,35,60,36,17,33,310,30,32,23,45,,28,21,260,*70
$GPGSV,3,3,12,8,19,162,37,23,13,183,29,19,12,318,,134,,0,*7E
$GPAPB,,,,,,,,,,,,,,*44
$GPGLL,4714.9921,N,00130.1196,W,142545,A*33
$GPRMB,,,,,,,,,,,,,*66
$GPRMC,142545,A,4714.9921,N,00130.1196,W,26.3,63.6,130917,3.0,W*77
$GPGGA,142545,4714.9921,N,00130.1196,W,1,7,1.30,18,M,,,,*2A
$GPGSA,A,3,22,1,11,3,14,17,,,8,,,,2.00,1.30,1.60*3C
$GPGSV,3,1,12,22,88,230,41,1,80,49,42,11,67,136,40,3,61,240,35*4B
$GPGSV,3,2,12,14,35,60,38,17,33,310,41,32,23,45,,28,21,260,*78
$GPGSV,3,3,12,8,19,162,35,23,13,183,,19,12,318,,134,,0,*77
$GPAPB,,,,,,,,,,,,,,*44
$GPGLL,4714.9998,N,00130.1001,W,142547,A*3C
$GPRMB,,,,,,,,,,,,,*66
$GPRMC,142547,A,4714.9998,N,00130.1001,W,27.4,59.6,130917,3.0,W*77
$GPGGA,142547,4714.9998,N,00130.1001,W,1,8,1.20,19,M,,,,*2A
$GPGSA,A,3,22,1,11,3,14,17,,,8,23,,,1.90,1.20,1.40*34
$GPGSV,3,1,12,22,88,230,41,1,80,49,42,11,67,136,40,3,61,240,35*4B
$GPGSV,3,2,12,14,35,60,38,17,33,310,41,32,23,45,,28,21,260,*78
$GPGSV,3,3,12,8,19,162,35,23,13,183,26,19,12,318,,134,,0,*73
$GPAPB,,,,,,,,,,,,,,*44
$GPGLL,4715.0079,N,00130.0800,W,142549,A*34
$GPRMB,,,,,,,,,,,,,*66
$GPRMC,142549,A,4715.0079,N,00130.0800,W,28.1,60.3,130917,3.0,W*7A
$GPGGA,142549,4715.0079,N,00130.0800,W,1,7,1.30,20,M,,,,*26
$GPGSA,A,3,22,1,11,3,14,17,,,8,,,,2.00,1.30,1.60*3C
$GPGSV,3,1,12,22,88,230,42,1,80,50,42,11,67,136,38,3,61,240,39*43
$GPGSV,3,2,12,14,35,60,37,17,33,310,31,32,23,45,,28,21,260,*70
$GPGSV,3,3,12,8,19,162,35,23,14,183,,19,12,318,,134,,0,*70
$GPAPB,,,,,,,,,,,,,,*44
$GPGLL,4715.0159,N,00130.0595,W,142551,A*3F
$GPRMB,,,,,,,,,,,,,*66
$GPRMC,142551,A,4715.0159,N,00130.0595,W,28.4,61.0,130917,3.0,W*76
$GPGGA,142551,4715.0159,N,00130.0595,W,1,7,1.30,21,M,,,,*2C
$GPGSA,A,3,22,1,11,3,14,17,,,8,,,,2.00,1.30,1.60*3C
$GPGSV,3,1,12,22,88,230,42,1,80,50,42,11,67,136,38,3,61,240,39*43
$GPGSV,3,2,12,14,35,60,37,17,33,310,31,32,23,45,,28,21,260,*70
$GPGSV,3,3,12,8,19,162,35,23,14,183,,19,12,318,,134,,0,*70
$GPAPB,,,,,,,,,,,,,,*44
$GPGLL,4715.0239,N,00130.0390,W,142553,A*3B
$GPRMB,,,,,,,,,,,,,*66
$GPRMC,142553,A,4715.0239,N,00130.0390,W,28.4,61.3,130917,3.0,W*71
$GPGGA,142553,4715.0239,N,00130.0390,W,1,7,1.30,21,M,,,,*28
$GPGSA,A,3,22,1,11,3,14,17,,,8,,,,2.00,1.30,1.60*3C
$GPGSV,3,1,12,22,88,230,42,1,80,50,42,11,67,136,38,3,61,240,39*43
$GPGSV,3,2,12,14,35,60,37,17,33,310,31,32,23,45,,28,21,260,*70
$GPGSV,3,3,12,8,19,162,35,23,14,183,,19,12,318,,134,,0,*70
$GPAPB,,,,,,,,,,,,,,*44
$GPGLL,4715.0319,N,00130.0184,W,142555,A*39
$GPRMB,,,,,,,,,,,,,*66
$GPRMC,142555,A,4715.0319,N,00130.0184,W,28.3,60.8,130917,3.0,W*7E
$GPGGA,142555,4715.0319,N,00130.0184,W,1,8,1.20,21,M,,,,*24
$GPGSA,A,3,22,1,11,3,14,17,,,8,23,,,1.90,1.20,1.40*34
$GPGSV,3,1,12,22,88,230,41,1,80,50,41,11,67,136,40,3,61,240,39*4C
$GPGSV,3,2,12,14,35,60,38,17,33,310,34,32,23,45,,28,21,260,*7A
$GPGSV,3,3,12,8,19,162,36,23,14,183,30,19,12,318,,120,,0,*75
$GPAPB,,,,,,,,,,,,,,*44
$GPGLL,4715.0399,N,00129.9985,W,142557,A*3B
$GPRMB,,,,,,,,,,,,,*66
$GPRMC,142557,A,4715.0399,N,00129.9985,W,27.2,60.7,130917,3.0,W*7D
$GPGGA,142557,4715.0399,N,00129.9985,W,1,7,1.30,21,M,,,,*28
$GPGSA,A,3,22,1,11,3,14,17,,,8,,,,2.00,1.30,1.60*3C
$GPGSV,3,1,12,22,88,230,41,1,80,50,41,11,67,136,40,3,61,240,39*4C
$GPGSV,3,2,12,14,35,60,38,17,33,310,34,32,23,45,,28,21,260,*7A
$GPGSV,3,3,12,8,19,162,36,23,14,183,,19,12,318,,120,,0,*76
$GPAPB,,,,,,,,,,,,,,*44
$GPGLL,4715.0473,N,00129.9797,W,142559,A*3B
$GPRMB,,,,,,,,,,,,,*66
$GPRMC,142559,A,4715.0473,N,00129.9797,W,25.8,60.8,130917,3.0,W*7A
$GPGGA,142559,4715.0473,N,00129.9797,W,1,7,1.30,21,M,,,,*28
$GPGSA,A,3,22,1,11,3,14,17,,,8,,,,2.00,1.30,1.60*3C
$GPGSV,3,1,12,22,88,230,41,1,80,50,42,11,67,136,41,3,61,240,40*40
$GPGSV,3,2,12,14,35,60,37,17,33,310,32,32,23,45,,28,21,260,*73
$GPGSV,3,3,12,8,19,162,36,23,14,183,,19,12,318,,120,,0,*76
$GPAPB,,,,,,,,,,,,,,*44
$GPGLL,4715.0544,N,00129.9621,W,142601,A*3C
$GPRMB,,,,,,,,,,,,,*66
$GPRMC,142601,A,4715.0544,N,00129.9621,W,23.8,60.9,130917,3.0,W*7A
$GPGGA,142601,4715.0544,N,00129.9621,W,1,8,1.20,21,M,,,,*21
$GPGSA,A,3,22,1,11,3,14,17,,,8,23,,,1.90,1.20,1.40*34
$GPGSV,3,1,12,22,88,230,41,1,80,50,42,11,67,136,41,3,61,240,40*40
$GPGSV,3,2,12,14,35,60,37,17,33,310,32,32,23,45,,28,21,260,*73
$GPGSV,3,3,12,8,19,162,36,23,14,183,27,19,12,318,,120,,0,*73
$GPAPB,,,,,,,,,,,,,,*44
$GPGLL,4715.0608,N,00129.9467,W,142603,A*35
$GPRMB,,,,,,,,,,,,,*66
$GPRMC,142603,A,4715.0608,N,00129.9467,W,20.1,59.9,130917,3.0,W*73
$GPGGA,142603,4715.0608,N,00129.9467,W,1,8,1.20,21,M,,,,*28
$GPGSA,A,3,22,1,11,3,14,17,,,8,23,,,1.90,1.20,1.40*34
$GPGSV,3,1,12,22,88,230,41,1,80,50,42,11,67,136,41,3,61,240,40*40
$GPGSV,3,2,12,14,35,60,37,17,33,310,32,32,23,45,,28,21,260,*73
$GPGSV,3,3,12,8,19,162,36,23,14,183,27,19,12,318,,120,,0,*73
$GPAPB,,,,,,,,,,,,,,*44
$GPGLL,4715.0655,N,00129.9346,W,142605,A*3F
$GPRMB,,,,,,,,,,,,,*66
$GPRMC,142605,A,4715.0655,N,00129.9346,W,15.9,64.3,130917,3.0,W*73
$GPGGA,142605,4715.0655,N,00129.9346,W,1,6,2.40,21,M,,,,*29
$GPGSA,A,3,22,1,11,3,14,17,,,,,,,4.40,2.40,3.70*01
$GPGSV,3,1,12,22,88,230,41,1,80,50,42,11,67,136,41,3,61,240,38*4F
$GPGSV,3,2,12,14,35,60,38,17,33,310,33,32,23,45,,28,21,260,*7D
$GPGSV,3,3,12,8,19,162,,23,14,183,,19,12,318,,120,,0,*73
$GPAPB,,,,,,,,,,,,,,*44
$GPGLL,4715.0684,N,00129.9235,W,142607,A*34
$GPRMB,,,,,,,,,,,,,*66
$GPRMC,142607,A,4715.0684,N,00129.9235,W,14.7,78.0,130917,3.0,W*79
$GPGGA,142607,4715.0684,N,00129.9235,W,1,7,1.30,20,M,,,,*26
$GPGSA,A,3,22,1,11,3,14,17,,,8,,,,2.00,1.30,1.60*3C
$GPGSV,3,1,12,22,88,230,41,1,80,50,42,11,67,136,41,3,61,240,38*4F
$GPGSV,3,2,12,14,35,60,38,17,33,310,33,32,23,45,,28,21,260,*7D
$GPGSV,3,3,12,8,19,162,34,23,14,183,,19,12,318,,120,,0,*74
$GPAPB,,,,,,,,,,,,,,*44
$GPGLL,4715.0681,N,00129.9124,W,142609,A*3C
$GPRMB,,,,,,,,,,,,,*66
$GPRMC,142609,A,4715.0681,N,00129.9124,W,14.0,106.5,130917,3.0,W*4B
$GPGGA,142609,4715.0681,N,00129.9124,W,1,6,2.40,19,M,,,,*21
$GPGSA,A,3,22,1,11,3,14,,,,8,,,,3.70,2.40,2.80*35
$GPGSV,3,1,12,22,88,230,39,1,80,50,45,11,67,136,32,3,61,240,44*48
$GPGSV,3,2,12,14,35,60,33,17,33,310,,32,23,45,,28,21,260,*76
$GPGSV,3,3,12,8,19,162,36,23,14,183,,19,12,318,,120,,0,*76
$GPAPB,,,,,,,,,,,,,,*44
$GPGLL,4715.0637,N,00129.9030,W,142611,A*3C
$GPRMB,,,,,,,,,,,,,*66
$GPRMC,142611,A,4715.0637,N,00129.9030,W,15.3,136.9,130917,3.0,W*46
$GPGGA,142611,4715.0637,N,00129.9030,W,1,7,1.40,18,M,,,,*22
$GPGSA,A,3,22,1,11,3,14,,,28,,23,,,2.10,1.40,1.50*0C
$GPGSV,3,1,12,22,88,230,39,1,80,50,45,11,67,136,32,3,61,240,44*48
$GPGSV,3,2,12,14,35,60,33,17,33,310,,32,23,45,,28,21,260,0*46
$GPGSV,3,3,12,8,19,162,,23,14,183,23,19,12,318,,120,,0,*72
$GPAPB,,,,,,,,,,,,,,*44
$GPGLL,4715.0569,N,00129.8944,W,142613,A*3D
$GPRMB,,,,,,,,,,,,,*66
$GPRMC,142613,A,4715.0569,N,00129.8944,W,17.6,136.2,130917,3.0,W*4B
$GPGGA,142613,4715.0569,N,00129.8944,W,1,8,1.30,17,M,,,,*24
$GPGSA,A,3,22,1,11,3,14,,,28,8,23,,,1.90,1.30,1.50*38
$GPGSV,3,1,12,22,88,230,39,1,80,50,45,11,67,136,32,3,61,240,44*48
$GPGSV,3,2,12,14,35,60,33,17,33,310,,32,23,45,,28,21,260,0*46
$GPGSV,3,3,12,8,19,162,36,23,14,183,23,19,12,318,,120,,0,*77
$GPAPB,,,,,,,,,,,,,,*44
$GPGLL,4715.0493,N,00129.8848,W,142615,A*32
$GPRMB,,,,,,,,,,,,,*66
$GPRMC,142615,A,4715.0493,N,00129.8848,W,17.9,138.2,130917,3.0,W*45
$GPGGA,142615,4715.0493,N,00129.8848,W,1,7,1.40,16,M,,,,*22
$GPGSA,A,3,22,1,11,3,14,,,28,8,,,,2.10,1.40,1.50*35
$GPGSV,3,1,12,22,88,230,36,1,80,50,45,11,67,136,38,3,61,240,32*4C
$GPGSV,3,2,12,14,35,60,42,17,33,310,,32,23,45,,28,21,260,32*71
$GPGSV,3,3,12,8,19,162,33,23,14,183,,19,12,318,,120,,0,*73
$GPAPB,,,,,,,,,,,,,,*44
$GPGLL,4715.0420,N,00129.8752,W,142617,A*3C
$GPRMB,,,,,,,,,,,,,*66
$GPRMC,142617,A,4715.0420,N,00129.8752,W,16.9,135.2,130917,3.0,W*47
$GPGGA,142617,4715.0420,N,00129.8752,W,1,7,1.40,17,M,,,,*2D
$GPGSA,A,3,22,1,11,3,14,,,28,8,,,,2.10,1.40,1.50*35
$GPGSV,3,1,12,22,88,230,36,1,80,50,45,11,67,136,38,3,61,240,32*4C
$GPGSV,3,2,12,14,35,60,42,17,33,310,,32,23,45,,28,21,260,32*71
$GPGSV,3,3,12,8,19,162,33,23,14,183,,19,12,318,,120,,0,*73
$GPAPB,,,,,,,,,,,,,,*44
$GPGLL,4715.0358,N,00129.8672,W,142619,A*39
$GPRMB,,,,,,,,,,,,,*66
$GPRMC,142619,A,4715.0358,N,00129.8672,W,12.6,137.4,130917,3.0,W*4D
$GPGGA,142619,4715.0358,N,00129.8672,W,1,8,1.30,16,M,,,,*21
$GPGSA,A,3,22,1,11,3,14,,,28,8,23,,,1.90,1.30,1.50*38
$GPGSV,3,1,12,22,88,231,37,1,80,51,46,11,66,136,40,3,61,240,34*46
$GPGSV,3,2,12,14,34,60,42,17,33,310,,32,23,45,,28,21,259,28*71
$GPGSV,3,3,12,8,18,162,35,23,14,183,38,19,12,318,,120,,0,*7F
$GPAPB,,,,,,,,,,,,,,*44
$GPGLL,4715.0311,N,00129.8618,W,142621,A*33
$GPRMB,,,,,,,,,,,,,*66
$GPRMC,142621,A,4715.0311,N,00129.8618,W,9.4,140.8,130917,3.0,W*73
$GPGGA,142621,4715.0311,N,00129.8618,W,1,7,2.30,15,M,,,,*24
$GPGSA,A,3,22,1,11,3,14,,,,8,23,,,3.20,2.30,2.30*3D
$GPGSV,3,1,12,22,88,231,37,1,80,51,46,11,66,136,40,3,61,240,34*46
$GPGSV,3,2,12,14,34,60,42,17,33,310,,32,23,45,,28,21,259,*7B
$GPGSV,3,3,12,8,18,162,35,23,14,183,38,19,12,318,,120,,0,*7F
$GPAPB,,,,,,,,,,,,,,*44
$GPGLL,4715.0279,N,00129.8593,W,142623,A*3E
$GPRMB,,,,,,,,,,,,,*66
$GPRMC,142623,A,4715.0279,N,00129.8593,W,2.9,147.8,130917,3.0,W*7F
$GPGGA,142623,4715.0279,N,00129.8593,W,1,7,2.30,15,M,,,,*29
$GPGSA,A,3,22,1,11,3,14,,,,8,23,,,3.20,2.30,2.30*3D
$GPGSV,3,1,12,22,88,231,37,1,80,51,46,11,66,136,40,3,61,240,34*46
$GPGSV,3,2,12,14,34,60,42,17,33,310,,32,23,45,,28,21,259,*7B
$GPGSV,3,3,12,8,18,162,35,23,14,183,38,19,12,318,,120,,0,*7F
$GPAPB,,,,,,,,,,,,,,*44
$GPGLL,4715.0268,N,00129.8590,W,142625,A*3B
$GPRMB,,,,,,,,,,,,,*66
$GPRMC,142625,A,4715.0268,N,00129.8590,W,3.3,147.8,130917,3.0,W*71
$GPGGA,142625,4715.0268,N,00129.8590,W,1,7,2.30,14,M,,,,*2D
$GPGSA,A,3,22,1,11,3,14,,,,8,23,,,3.20,2.30,2.30*3D
$GPGSV,3,1,12,22,88,231,41,1,80,51,46,11,66,136,42,3,61,240,41*47
$GPGSV,3,2,12,14,34,60,39,17,33,310,,32,23,45,,28,21,259,*77
$GPGSV,3,3,12,8,18,162,38,23,14,183,35,19,12,318,,120,,0,*7F
$GPAPB,,,,,,,,,,,,,,*44
$GPGLL,4715.0236,N,00129.8588,W,142627,A*3B
$GPRMB,,,,,,,,,,,,,*66
$GPRMC,142627,A,4715.0236,N,00129.8588,W,7.5,180.7,130917,3.0,W*77
$GPGGA,142627,4715.0236,N,00129.8588,W,1,7,2.30,15,M,,,,*2C
$GPGSA,A,3,22,1,11,3,14,,,,8,23,,,3.20,2.30,2.30*3D
$GPGSV,3,1,12,22,88,231,41,1,80,51,46,11,66,136,42,3,61,240,41*47
$GPGSV,3,2,12,14,34,60,39,17,33,310,,32,23,45,,28,21,259,*77
$GPGSV,3,3,12,8,18,162,38,23,14,183,35,19,12,318,,120,,0,*7F
$GPAPB,,,,,,,,,,,,,,*44
$GPGLL,4715.0199,N,00129.8613,W,142629,A*32
$GPRMB,,,,,,,,,,,,,*66
$GPRMC,142629,A,4715.0199,N,00129.8613,W,7.6,214.2,130917,3.0,W*76
$GPGGA,142629,4715.0199,N,00129.8613,W,1,9,1.10,15,M,,,,*2A
$GPGSA,A,3,22,1,11,3,14,17,,28,8,23,,,1.70,1.10,1.30*34
$GPGSV,3,1,12,22,88,231,38,1,80,51,44,11,66,136,39,3,61,240,45*43
$GPGSV,3,2,12,14,34,60,31,17,33,310,35,32,23,45,,28,21,259,35*7F
$GPGSV,3,3,12,8,18,162,36,23,14,183,32,19,12,318,,120,,0,*76
$GPAPB,,,,,,,,,,,,,,*44
$GPGLL,4715.0165,N,00129.8677,W,142631,A*3A
$GPRMB,,,,,,,,,,,,,*66
$GPRMC,142631,A,4715.0165,N,00129.8677,W,11.9,237.8,130917,3.0,W*4D
$GPGGA,142631,4715.0165,N,00129.8677,W,1,8,1.80,15,M,,,,*2A
$GPGSA,A,3,22,1,11,3,,17,,28,8,23,,,2.60,1.80,1.90*30
$GPGSV,3,1,12,22,88,231,38,1,80,51,44,11,66,136,39,3,61,240,45*43
$GPGSV,3,2,12,14,34,60,,17,33,310,35,32,23,45,,28,21,259,35*7D
$GPGSV,3,3,12,8,18,162,36,23,14,183,32,19,12,318,,120,,0,*76
$GPAPB,,,,,,,,,,,,,,*44
$GPGLL,4715.0129,N,00129.8779,W,142633,A*3F
$GPRMB,,,,,,,,,,,,,*66
$GPRMC,142633,A,4715.0129,N,00129.8779,W,15.4,240.4,130917,3.0,W*4D
$GPGGA,142633,4715.0129,N,00129.8779,W,1,7,1.90,15,M,,,,*21
$GPGSA,A,3,22,1,11,3,,17,,28,8,,,,2.70,1.90,2.00*3B
$GPGSV,3,1,12,22,88,231,38,1,80,51,44,11,66,136,39,3,61,240,45*43
$GPGSV,3,2,12,14,34,60,,17,33,310,35,32,23,45,,28,21,259,35*7D
$GPGSV,3,3,12,8,18,162,36,23,14,183,,19,12,318,,120,,0,*77
$GPAPB,,,,,,,,,,,,,,*44
$GPGLL,4715.0087,N,00129.8901,W,142635,A*3D
$GPRMB,,,,,,,,,,,,,*66
$GPRMC,142635,A,4715.0087,N,00129.8901,W,16.4,240.8,130917,3.0,W*40
$GPGGA,142635,4715.0087,N,00129.8901,W,1,7,2.20,14,M,,,,*2A
$GPGSA,A,3,22,1,11,3,,17,,,8,23,,,2.90,2.20,1.90*3C
$GPGSV,3,1,12,22,88,231,41,1,80,51,45,11,66,136,40,3,61,240,46*41
$GPGSV,3,2,12,14,34,60,,17,33,310,39,32,23,45,,28,21,259,*77
$GPGSV,3,3,12,8,18,162,32,23,14,183,29,19,12,318,,120,,0,*78
$GPAPB,,,,,,,,,,,,,,*44
$GPGLL,4715.0039,N,00129.9029,W,142637,A*38
$GPRMB,,,,,,,,,,,,,*66
$GPRMC,142637,A,4715.0039,N,00129.9029,W,18.9,238.9,130917,3.0,W*48
$GPGGA,142637,4715.0039,N,00129.9029,W,1,6,2.40,15,M,,,,*29
$GPGSV,3,1,12,22,88,231,41,1,80,51,45,11,66,136,40,3,61,240,46*41
$GPGSV,3,2,12,14,34,60,,17,33,310,39,32,23,45,,28,21,259,*77
$GPGSV,3,3,12,8,18,162,,23,14,183,29,19,12,318,,120,,0,*79
$GPAPB,,,,,,,,,,,,,,*44
$GPGLL,4714.9982,N,00129.9175,W,142639,A*3F
$GPRMB,,,,,,,,,,,,,*66
$GPRMC,142639,A,4714.9982,N,00129.9175,W,21.7,240.3,130917,3.0,W*4E
$GPGGA,142639,4714.9982,N,00129.9175,W,1,8,1.80,14,M,,,,*2E
$GPGSA,A,3,22,1,11,3,,17,,28,8,23,,,2.70,1.80,1.90*31
$GPGSV,3,1,12,22,88,231,41,1,80,51,45,11,66,136,41,3,61,240,46*40
$GPGSV,3,2,12,14,34,60,,17,33,310,34,32,23,45,,28,21,259,30*79
$GPGSV,3,3,12,8,18,162,35,23,14,183,30,19,12,318,,120,,0,*77
$GPAPB,,,,,,,,,,,,,,*44
$GPGLL,4714.9918,N,00129.9341,W,142641,A*36
$GPRMB,,,,,,,,,,,,,*66
$GPRMC,142641,A,4714.9918,N,00129.9341,W,24.1,240.4,130917,3.0,W*43
$GPGGA,142641,4714.9918,N,00129.9341,W,1,8,1.80,13,M,,,,*20
$GPGSA,A,3,22,1,11,3,,17,,28,8,23,,,2.70,1.80,1.90*31
$GPGSV,3,1,12,22,88,231,41,1,80,51,45,11,66,136,41,3,61,240,46*40
$GPGSV,3,2,12,14,34,60,,17,33,310,34,32,23,45,,28,21,259,30*79
$GPGSV,3,3,12,8,18,162,35,23,14,183,30,19,12,318,,120,,0,*77
$GPAPB,,,,,,,,,,,,,,*44
$GPGLL,4714.9850,N,00129.9517,W,142643,A*3C
$GPRMB,,,,,,,,,,,,,*66
$GPRMC,142643,A,4714.9850,N,00129.9517,W,24.3,239.9,130917,3.0,W*48
$GPGGA,142643,4714.9850,N,00129.9517,W,1,8,1.80,12,M,,,,*2B
$GPGSA,A,3,22,1,11,3,,17,,28,8,23,,,2.70,1.80,1.90*31
$GPGSV,3,1,12,22,88,231,41,1,80,51,45,11,66,136,41,3,61,240,46*40
$GPGSV,3,2,12,14,34,60,,17,33,310,34,32,23,45,,28,21,259,30*79
$GPGSV,3,3,12,8,18,162,35,23,14,183,30,19,12,318,,120,,0,*77
$GPAPB,,,,,,,,,,,,,,*44
$GPGLL,4714.9781,N,00129.9695,W,142645,A*30
$GPRMB,,,,,,,,,,,,,*66
$GPRMC,142645,A,4714.9781,N,00129.9695,W,25.3,240.6,130917,3.0,W*44
$GPGGA,142645,4714.9781,N,00129.9695,W,1,8,1.90,12,M,,,,*26
$GPGSA,A,3,22,1,11,3,,17,,28,8,23,,,2.70,1.90,1.90*30
$GPGSV,3,1,12,22,88,231,42,1,80,51,45,11,66,136,41,3,61,240,45*40
$GPGSV,3,2,12,14,34,60,,17,33,310,37,32,23,45,,28,21,259,35*7F
$GPGSV,3,3,12,8,18,162,36,23,14,183,32,19,12,318,,120,,0,*76
$GPAPB,,,,,,,,,,,,,,*44
$GPGLL,4714.9710,N,00129.9884,W,142647,A*34
$GPRMB,,,,,,,,,,,,,*66
$GPRMC,142647,A,4714.9710,N,00129.9884,W,26.7,240.6,130917,3.0,W*47
$GPGGA,142647,4714.9710,N,00129.9884,W,1,7,1.90,12,M,,,,*2D
$GPGSA,A,3,22,1,11,3,,17,,28,8,,,,2.70,1.90,2.00*3B
$GPGSV,3,1,12,22,88,231,42,1,80,51,45,11,66,136,41,3,61,240,45*40
$GPGSV,3,2,12,14,34,60,,17,33,310,37,32,23,45,,28,21,259,35*7F
$GPGSV,3,3,12,8,18,162,36,23,14,183,,19,12,318,,120,,0,*77
$GPAPB,,,,,,,,,,,,,,*44
$GPGLL,4714.9636,N,00130.0082,W,142649,A*30
$GPRMB,,,,,,,,,,,,,*66
$GPRMC,142649,A,4714.9636,N,00130.0082,W,27.8,240.9,130917,3.0,W*42
$GPGGA,142649,4714.9636,N,00130.0082,W,1,7,1.90,12,M,,,,*29
$GPGSA,A,3,22,1,11,3,,17,,28,8,,,,2.70,1.90,2.00*3B
$GPGSV,3,1,12,22,88,231,41,1,80,52,44,11,66,136,40,3,61,241,46*42
$GPGSV,3,2,12,14,34,60,,17,33,310,38,32,23,45,,28,21,259,35*70
$GPGSV,3,3,12,8,18,162,32,23,14,183,,19,12,318,,120,,0,*73
$GPAPB,,,,,,,,,,,,,,*44
$GPGLL,4714.9560,N,00130.0288,W,142651,A*31
$GPRMB,,,,,,,,,,,,,*66
$GPRMC,142651,A,4714.9560,N,00130.0288,W,28.6,241.5,130917,3.0,W*4F
$GPGGA,142651,4714.9560,N,00130.0288,W,1,8,1.90,12,M,,,,*27
$GPGSA,A,3,22,1,11,3,,17,,28,8,23,,,2.70,1.90,1.90*30
$GPGSV,3,1,12,22,88,231,41,1,80,52,44,11,66,136,40,3,61,241,46*42
$GPGSV,3,2,12,14,34,60,,17,33,310,38,32,23,45,,28,21,259,35*70
$GPGSV,3,3,12,8,18,162,32,23,14,183,24,19,12,318,,120,,0,*75
$GPAPB,,,,,,,,,,,,,,*44
$GPGLL,4714.9486,N,00130.0495,W,142653,A*30
$GPRMB,,,,,,,,,,,,,*66
$GPRMC,142653,A,4714.9486,N,00130.0495,W,27.6,241.8,130917,3.0,W*4C
$GPGGA,142653,4714.9486,N,00130.0495,W,1,7,1.90,14,M,,,,*2F
$GPGSA,A,3,22,1,11,3,,17,,28,8,,,,2.70,1.90,2.00*3B
$GPGSV,3,1,12,22,88,231,41,1,80,52,44,11,66,136,40,3,61,241,46*42
$GPGSV,3,2,12,14,34,60,,17,33,310,38,32,23,45,,28,21,259,35*70
$GPGSV,3,3,12,8,18,162,32,23,14,183,,19,12,318,,120,,0,*73
$GPAPB,,,,,,,,,,,,,,*44
$GPGLL,4714.9413,N,00130.0695,W,142655,A*38
$GPRMB,,,,,,,,,,,,,*66
$GPRMC,142655,A,4714.9413,N,00130.0695,W,27.3,241.4,130917,3.0,W*4D
$GPGGA,142655,4714.9413,N,00130.0695,W,1,7,1.90,14,M,,,,*27
$GPGSA,A,3,22,1,11,3,,17,,28,8,,,,2.70,1.90,2.00*3B
$GPGSV,3,1,12,22,88,231,41,1,80,52,45,11,66,136,40,3,61,241,45*40
$GPGSV,3,2,12,14,34,60,,17,33,310,38,32,23,45,,28,21,259,35*70
$GPGSV,3,3,12,8,18,162,35,23,14,183,,19,12,318,,120,,0,*74
$GPAPB,,,,,,,,,,,,,,*44
$GPGLL,4714.9341,N,00130.0892,W,142657,A*33
$GPRMB,,,,,,,,,,,,,*66
$GPRMC,142657,A,4714.9341,N,00130.0892,W,26.4,241.4,130917,3.0,W*40
$GPGGA,142657,4714.9341,N,00130.0892,W,1,7,1.90,14,M,,,,*2C
$GPGSA,A,3,22,1,11,3,,17,,28,8,,,,2.70,1.90,2.00*3B
$GPGSV,3,1,12,22,88,231,41,1,80,52,45,11,66,136,40,3,61,241,45*40
$GPGSV,3,2,12,14,34,60,,17,33,310,38,32,23,45,,28,21,259,35*70
$GPGSV,3,3,12,8,18,162,35,23,14,183,,19,12,318,,120,,0,*74
$GPAPB,,,,,,,,,,,,,,*44
$GPGLL,4714.9272,N,00130.1081,W,142659,A*37
$GPRMB,,,,,,,,,,,,,*66
$GPRMC,142659,A,4714.9272,N,00130.1081,W,25.6,240.9,130917,3.0,W*49
$GPGGA,142659,4714.9272,N,00130.1081,W,1,7,1.90,15,M,,,,*29
$GPGSA,A,3,22,1,11,3,,17,,28,8,,,,2.70,1.90,2.00*3B
$GPGSV,3,1,12,22,88,231,41,1,80,52,45,11,66,136,40,3,61,241,45*40
$GPGSV,3,2,12,14,34,60,,17,33,310,36,32,23,45,,28,21,259,32*79
$GPGSV,3,3,12,8,18,162,35,23,14,183,,19,12,318,,120,,0,*74
$GPAPB,,,,,,,,,,,,,,*44
$GPGLL,4714.9204,N,00130.1264,W,142701,A*33
$GPRMB,,,,,,,,,,,,,*66
$GPRMC,142701,A,4714.9204,N,00130.1264,W,24.7,240.7,130917,3.0,W*43
$GPGGA,142701,4714.9204,N,00130.1264,W,1,8,1.90,16,M,,,,*21
$GPGSA,A,3,22,1,11,3,,17,,28,8,23,,,2.70,1.90,1.90*30
$GPGSV,3,1,12,22,88,231,41,1,80,52,45,11,66,136,40,3,61,241,45*40
$GPGSV,3,2,12,14,34,60,,17,33,310,36,32,23,45,,28,21,259,32*79
$GPGSV,3,3,12,8,18,162,35,23,14,183,25,19,12,318,,120,,0,*73
$GPAPB,,,,,,,,,,,,,,*44
$GPGLL,4714.9135,N,00130.1434,W,142703,A*33
$GPRMB,,,,,,,,,,,,,*66
$GPRMC,142703,A,4714.9135,N,00130.1434,W,23.5,237.2,130917,3.0,W*43
$GPGGA,142703,4714.9135,N,00130.1434,W,1,8,1.90,16,M,,,,*21
$GPGSA,A,3,22,1,11,3,,17,,28,8,23,,,2.70,1.90,1.90*30
$GPGSV,3,1,12,22,88,231,41,1,80,52,45,11,66,136,40,3,61,241,45*40
$GPGSV,3,2,12,14,34,60,,17,33,310,36,32,23,45,,28,21,259,32*79
$GPGSV,3,3,12,8,18,162,35,23,14,183,25,19,12,318,,120,,0,*73
$GPAPB,,,,,,,,,,,,,,*44
$GPGLL,4714.9059,N,00130.1590,W,142705,A*31
$GPRMB,,,,,,,,,,,,,*66
$GPRMC,142705,A,4714.9059,N,00130.1590,W,22.6,231.9,130917,3.0,W*4E
$GPGGA,142705,4714.9059,N,00130.1590,W,1,9,1.10,15,M,,,,*29
$GPGSA,A,3,22,1,11,3,14,17,,28,8,23,,,1.70,1.10,1.30*34
$GPGSV,3,1,12,22,88,231,41,1,80,52,44,11,66,136,39,3,61,241,44*4E
$GPGSV,3,2,12,14,34,60,30,17,33,310,25,32,23,45,,28,21,259,34*7E
$GPGSV,3,3,12,8,18,162,34,23,14,183,37,19,12,318,,120,,0,*71
$GPAPB,,,,,,,,,,,,,,*44
$GPGLL,4714.8983,N,00130.1726,W,142707,A*33
$GPRMB,,,,,,,,,,,,,*66
$GPRMC,142707,A,4714.8983,N,00130.1726,W,19.3,229.0,130917,3.0,W*41
$GPGGA,142707,4714.8983,N,00130.1726,W,1,8,1.90,15,M,,,,*22
$GPGSA,A,3,22,1,11,3,,17,,28,8,23,,,2.70,1.90,1.90*30
$GPGSV,3,1,12,22,88,231,41,1,80,52,44,11,66,136,39,3,61,241,44*4E
$GPGSV,3,2,12,14,34,60,,17,33,310,25,32,23,45,,28,21,259,34*7D
$GPGSV,3,3,12,8,18,162,34,23,14,183,37,19,12,318,,120,,0,*71
$GPAPB,,,,,,,,,,,,,,*44
$GPGLL,4714.8918,N,00130.1833,W,142709,A*34
$GPRMB,,,,,,,,,,,,,*66
$GPRMC,142709,A,4714.8918,N,00130.1833,W,15.7,228.6,130917,3.0,W*49
$GPGGA,142709,4714.8918,N,00130.1833,W,1,7,2.20,14,M,,,,*23
$GPGSA,A,3,22,1,11,3,,17,,,8,23,,,2.90,2.20,1.90*3C
$GPGSV,3,1,12,22,88,231,41,1,80,52,45,11,66,136,41,3,61,241,42*46
$GPGSV,3,2,12,14,34,60,,17,33,310,28,32,23,45,,28,21,259,*77
$GPGSV,3,3,12,8,18,162,35,23,14,183,39,19,12,318,,120,,0,*7E
$GPAPB,,,,,,,,,,,,,,*44
$GPGLL,4714.8879,N,00130.1899,W,142711,A*3B
$GPRMB,,,,,,,,,,,,,*66
$GPRMC,142711,A,4714.8879,N,00130.1899,W,5.0,230.4,130917,3.0,W*7B
$GPGGA,142711,4714.8879,N,00130.1899,W,1,8,1.30,13,M,,,,*26
$GPGSA,A,3,22,1,11,3,14,,,28,8,23,,,1.90,1.30,1.50*38
$GPGSV,3,1,12,22,88,231,41,1,80,52,45,11,66,136,41,3,61,241,42*46
$GPGSV,3,2,12,14,34,60,24,17,33,310,,32,23,45,,28,21,259,29*70
$GPGSV,3,3,12,8,18,162,35,23,14,183,39,19,12,318,,120,,0,*7E
$GPAPB,,,,,,,,,,,,,,*44
$GPGLL,4714.8863,N,00130.1926,W,142713,A*37
$GPRMB,,,,,,,,,,,,,*66
$GPRMC,142713,A,4714.8863,N,00130.1926,W,6.7,234.5,130917,3.0,W*76
$GPGGA,142713,4714.8863,N,00130.1926,W,1,9,1.10,12,M,,,,*28
$GPGSA,A,3,22,1,11,3,14,17,,28,8,23,,,1.70,1.10,1.30*34
$GPGSV,3,1,12,22,88,231,41,1,80,52,45,11,66,136,41,3,61,241,42*46
$GPGSV,3,2,12,14,34,60,24,17,33,310,28,32,23,45,,28,21,259,29*7A
$GPGSV,3,3,12,8,18,162,35,23,14,183,39,19,12,318,,120,,0,*7E
$GPAPB,,,,,,,,,,,,,,*44
$GPGLL,4714.8827,N,00130.1977,W,142715,A*35
$GPRMB,,,,,,,,,,,,,*66
$GPRMC,142715,A,4714.8827,N,00130.1977,W,12.1,218.8,130917,3.0,W*44
$GPGGA,142715,4714.8827,N,00130.1977,W,1,8,1.90,12,M,,,,*23
$GPGSA,A,3,22,1,11,3,,17,,28,8,23,,,2.70,1.90,1.90*30
$GPGSV,3,1,12,22,88,231,40,1,80,52,45,11,66,136,40,3,61,241,43*47
$GPGSV,3,2,12,14,34,60,,17,33,310,32,32,23,45,,28,21,259,34*7B
$GPGSV,3,3,12,8,18,162,32,23,14,183,36,19,12,318,,120,,0,*76
$GPAPB,,,,,,,,,,,,,,*44
$GPGLL,4714.8766,N,00130.2028,W,142717,A*3D
$GPRMB,,,,,,,,,,,,,*66
$GPRMC,142717,A,4714.8766,N,00130.2028,W,13.4,208.0,130917,3.0,W*41
$GPGGA,142717,4714.8766,N,00130.2028,W,1,6,2.40,13,M,,,,*2A
$GPGSA,A,3,22,1,11,3,,17,,,8,,,,3.10,2.40,2.00*38
$GPGSV,3,1,12,22,88,231,40,1,80,52,45,11,66,136,40,3,61,241,43*47
$GPGSV,3,2,12,14,34,60,,17,33,310,32,32,23,45,,28,21,259,*7C
$GPGSV,3,3,12,8,18,162,32,23,14,183,,19,12,318,,120,,0,*73
$GPAPB,,,,,,,,,,,,,,*44
$GPGLL,4714.8697,N,00130.2088,W,142719,A*36
$GPRMB,,,,,,,,,,,,,*66
$GPRMC,142719,A,4714.8697,N,00130.2088,W,14.1,211.4,130917,3.0,W*44
$GPGGA,142719,4714.8697,N,00130.2088,W,1,4,7.30,13,M,,,,*21
$GPGSA,A,3,22,1,11,3,,,,,,,,,26.30,7.30,25.20*06
$GPGSV,3,1,12,22,88,231,39,1,80,52,41,11,66,136,36,3,61,241,28*41
$GPGSV,3,2,12,14,34,60,,17,33,310,,32,23,45,,28,21,259,*7D
$GPGSV,3,3,12,8,18,162,,23,14,183,,19,12,318,,120,,0,*72
$GPAPB,,,,,,,,,,,,,,*44
$GPGLL,4714.8632,N,00130.2152,W,142721,A*34
$GPRMB,,,,,,,,,,,,,*66
$GPRMC,142721,A,4714.8632,N,00130.2152,W,14.3,220.6,130917,3.0,W*44
$GPGGA,142721,4714.8632,N,00130.2152,W,1,3,18.50,13,M,,,,*1C
$GPGSA,A,2,,,,3,,,,,8,23,,,27.20,18.50,20.00*30
$GPGSV,3,1,12,22,88,231,,1,80,52,,11,66,136,,3,61,241,28*4B
$GPGSV,3,2,12,14,34,60,,17,33,310,,32,23,45,,28,21,259,*7D
$GPGSV,3,3,12,8,18,162,31,23,14,183,23,19,12,318,,120,,0,*71
$GPAPB,,,,,,,,,,,,,,*44
$GPGLL,4714.8560,N,00130.2271,W,142723,A*30
$GPRMB,,,,,,,,,,,,,*66
$GPRMC,142723,A,4714.8560,N,00130.2271,W,17.5,230.9,130917,3.0,W*4B
$GPGGA,142723,4714.8560,N,00130.2271,W,1,7,3.00,12,M,,,,*22
$GPGSA,A,3,22,1,11,3,,,,28,8,23,,,4.40,3.00,3.20*31
$GPGSV,3,1,12,22,88,231,39,1,80,52,41,11,66,136,36,3,61,241,28*41
$GPGSV,3,2,12,14,34,60,,17,33,310,,32,23,45,,28,21,259,28*77
$GPGSV,3,3,12,8,18,162,31,23,14,183,23,19,12,318,,120,,0,*71
$GPAPB,,,,,,,,,,,,,,*44
$GPGLL,4714.8502,N,00130.2384,W,142725,A*39
$GPRMB,,,,,,,,,,,,,*66
$GPRMC,142725,A,4714.8502,N,00130.2384,W,16.2,232.7,130917,3.0,W*48
$GPGGA,142725,4714.8502,N,00130.2384,W,1,8,1.90,11,M,,,,*2C
$GPGSA,A,3,22,1,11,3,,17,,28,8,23,,,2.70,1.90,1.90*30
$GPGSV,3,1,12,22,88,231,40,1,80,52,43,11,66,136,40,3,61,241,45*47
$GPGSV,3,2,12,14,34,60,,17,33,310,38,32,23,45,,28,21,259,35*70
$GPGSV,3,3,12,8,18,162,33,23,14,183,37,19,12,318,,120,,0,*76
$GPAPB,,,,,,,,,,,,,,*44
$GPGLL,4714.8425,N,00130.2462,W,142727,A*30
$GPRMB,,,,,,,,,,,,,*66
$GPRMC,142727,A,4714.8425,N,00130.2462,W,17.1,204.2,130917,3.0,W*43
$GPGGA,142727,4714.8425,N,00130.2462,W,1,9,1.10,11,M,,,,*2C
$GPGSA,A,3,22,1,11,3,14,17,,28,8,23,,,1.70,1.10,1.30*34
$GPGSV,3,1,12,22,88,231,40,1,80,52,43,11,66,136,40,3,61,241,45*47
$GPGSV,3,2,12,14,34,60,27,17,33,310,38,32,23,45,,28,21,259,35*75
$GPGSV,3,3,12,8,18,162,33,23,14,183,37,19,12,318,,120,,0,*76
$GPAPB,,,,,,,,,,,,,,*44
$GPGLL,4714.8341,N,00130.2536,W,142729,A*3B
$GPRMB,,,,,,,,,,,,,*66
$GPRMC,142729,A,4714.8341,N,00130.2536,W,18.2,218.1,130917,3.0,W*4A
$GPGGA,142729,4714.8341,N,00130.2536,W,1,8,1.90,11,M,,,,*2E
$GPGSA,A,3,22,1,11,3,,17,,28,8,23,,,2.70,1.90,1.90*30
$GPGSV,3,1,12,22,88,231,40,1,80,52,44,11,66,136,40,3,61,241,44*41
$GPGSV,3,2,12,14,34,60,,17,33,310,35,32,23,45,,28,21,259,33*7B
$GPGSV,3,3,12,8,18,162,37,23,14,183,37,19,12,318,,120,,0,*72
$GPAPB,,,,,,,,,,,,,,*44
$GPGLL,4714.8260,N,00130.2643,W,142731,A*31
$GPRMB,,,,,,,,,,,,,*66
$GPRMC,142731,A,4714.8260,N,00130.2643,W,20.6,223.2,130917,3.0,W*44
$GPGGA,142731,4714.8260,N,00130.2643,W,1,7,3.00,11,M,,,,*20
$GPGSA,A,3,22,1,11,3,,,,28,8,23,,,4.40,3.00,3.20*31
$GPGSV,3,1,12,22,88,231,40,1,80,52,44,11,66,136,40,3,61,241,44*41
$GPGSV,3,2,12,14,34,60,,17,33,310,,32,23,45,,28,21,259,33*7D
$GPGSV,3,3,12,8,18,162,37,23,14,183,37,19,12,318,,120,,0,*72
$GPAPB,,,,,,,,,,,,,,*44
$GPGLL,4714.8169,N,00130.2763,W,142733,A*3A
$GPRMB,,,,,,,,,,,,,*66
$GPRMC,142733,A,4714.8169,N,00130.2763,W,22.9,221.4,130917,3.0,W*46
$GPGGA,142733,4714.8169,N,00130.2763,W,1,7,2.20,12,M,,,,*2B
$GPGSA,A,3,22,1,11,3,,17,,,8,23,,,2.90,2.20,1.90*3C
$GPGSV,3,1,12,22,88,231,40,1,80,52,44,11,66,136,40,3,61,241,44*41
$GPGSV,3,2,12,14,34,60,,17,33,310,35,32,23,45,,28,21,259,*7B
$GPGSV,3,3,12,8,18,162,37,23,14,183,37,19,12,318,,120,,0,*72
$GPAPB,,,,,,,,,,,,,,*44
$GPGLL,4714.8069,N,00130.2892,W,142735,A*3C
$GPRMB,,,,,,,,,,,,,*66
$GPRMC,142735,A,4714.8069,N,00130.2892,W,24.0,221.2,130917,3.0,W*49
$GPGGA,142735,4714.8069,N,00130.2892,W,1,7,2.20,12,M,,,,*2D
$GPGSA,A,3,22,1,11,3,,17,,,8,23,,,2.90,2.20,1.90*3C
$GPGSV,3,1,12,22,88,231,41,1,80,52,45,11,66,136,40,3,61,241,44*41
$GPGSV,3,2,12,14,34,60,,17,33,310,28,32,23,45,,28,21,259,*77
$GPGSV,3,3,12,8,18,162,31,23,14,183,37,19,12,318,,120,,0,*74
$GPAPB,,,,,,,,,,,,,,*44
$GPGLL,4714.7968,N,00130.3019,W,142737,A*33
$GPRMB,,,,,,,,,,,,,*66
$GPRMC,142737,A,4714.7968,N,00130.3019,W,23.5,218.4,130917,3.0,W*48
$GPGGA,142737,4714.7968,N,00130.3019,W,1,8,1.90,12,M,,,,*25
$GPGSA,A,3,22,1,11,3,,17,,28,8,23,,,2.70,1.90,1.90*30
$GPGSV,3,1,12,22,88,231,41,1,80,52,45,11,66,136,40,3,61,241,44*41
$GPGSV,3,2,12,14,34,60,,17,33,310,28,32,23,45,,28,21,259,28*7D
$GPGSV,3,3,12,8,18,162,31,23,14,183,37,19,12,318,,120,,0,*74
$GPAPB,,,,,,,,,,,,,,*44
$GPGLL,4714.7859,N,00130.3137,W,142739,A*33
$GPRMB,,,,,,,,,,,,,*66
$GPRMC,142739,A,4714.7859,N,00130.3137,W,24.6,215.3,130917,3.0,W*46
$GPGGA,142739,4714.7859,N,00130.3137,W,1,8,1.90,12,M,,,,*25
$GPGSA,A,3,22,1,11,3,,17,,28,8,23,,,2.70,1.90,1.90*30
$GPGSV,3,1,12,22,88,231,41,1,80,52,45,11,66,136,42,3,61,241,44*43
$GPGSV,3,2,12,14,34,60,,17,33,310,34,32,23,45,,28,21,259,38*71
$GPGSV,3,3,12,8,18,162,38,23,14,183,32,19,12,318,,120,,0,*78
$GPAPB,,,,,,,,,,,,,,*44
$GPGLL,4714.7743,N,00130.3253,W,142741,A*39
$GPRMB,,,,,,,,,,,,,*66
$GPRMC,142741,A,4714.7743,N,00130.3253,W,25.0,214.6,130917,3.0,W*4F
$GPGGA,142741,4714.7743,N,00130.3253,W,1,7,2.20,12,M,,,,*28
$GPGSA,A,3,22,1,11,3,,17,,,8,23,,,2.90,2.20,1.90*3C
$GPGSV,3,1,12,22,88,231,41,1,80,52,45,11,66,136,42,3,61,241,44*43
$GPGSV,3,2,12,14,34,60,,17,33,310,34,32,23,45,,28,21,259,*7A
$GPGSV,3,3,12,8,18,162,38,23,14,183,32,19,12,318,,120,,0,*78
$GPAPB,,,,,,,,,,,,,,*44
$GPGLL,4714.7628,N,00130.3367,W,142743,A*31
