$GPAPB,,,,,,,,,,,,,,*44
$GPGLL,4714.3208,N,00131.5363,W,061319,A*3B
$GPRMB,,,,,,,,,,,,,*66
$GPRMC,061319,A,4714.3208,N,00131.5363,W,0.0,0.0,130917,3.0,W*7B
$GPGGA,061319,4714.3208,N,00131.5363,W,1,4,8.80,45,M,,,,*2B
$GPGSA,A,3,29,31,25,,,21,,,,,,,19.40,8.80,17.20*07
$GPGSV,3,1,10,29,71,56,41,31,65,268,41,25,44,94,37,2,31,56,*74
$GPGSV,3,2,10,26,31,290,,21,25,170,26,14,21,303,,12,12,284,*7A
$GPGSV,3,3,10,32,5,217,,120,,0,*7B
$GPAPB,,,,,,,,,,,,,,*44
$GPGLL,4714.3213,N,00131.5364,W,061321,A*3D
$GPRMB,,,,,,,,,,,,,*66
$GPRMC,061321,A,4714.3213,N,00131.5364,W,0.0,0.0,130917,3.0,W*7D
$GPGGA,061321,4714.3213,N,00131.5364,W,1,4,8.80,43,M,,,,*2B
$GPGSA,A,3,29,31,25,,,21,,,,,,,19.40,8.80,17.30*06
$GPGSV,3,1,10,29,71,56,41,31,65,268,41,25,44,94,37,2,31,56,*74
$GPGSV,3,2,10,26,31,290,,21,25,170,26,14,21,303,,12,12,284,*7A
$GPGSV,3,3,10,32,5,217,,120,,0,*7B
$GPAPB,,,,,,,,,,,,,,*44
$GPGLL,4714.3217,N,00131.5365,W,061323,A*3A
$GPRMB,,,,,,,,,,,,,*66
$GPRMC,061323,A,4714.3217,N,00131.5365,W,0.3,0.0,130917,3.0,W*79
$GPGGA,061323,4714.3217,N,00131.5365,W,1,4,8.80,42,M,,,,*2D
$GPGSA,A,3,29,31,25,,,21,,,,,,,19.40,8.80,17.30*06
$GPGSV,3,1,10,29,71,56,43,31,65,268,41,25,44,94,37,26,31,290,*78
$GPGSV,3,2,10,2,31,56,,21,26,170,29,14,21,302,,12,12,284,*79
$GPGSV,3,3,10,32,5,217,,120,,0,*7B
$GPAPB,,,,,,,,,,,,,,*44
$GPGLL,4714.3222,N,00131.5366,W,061325,A*39
$GPRMB,,,,,,,,,,,,,*66
$GPRMC,061325,A,4714.3222,N,00131.5366,W,0.0,0.0,130917,3.0,W*79
$GPGGA,061325,4714.3222,N,00131.5366,W,1,4,8.80,41,M,,,,*2D
$GPGSA,A,3,29,31,25,,,21,,,,,,,19.50,8.80,17.30*07
$GPGSV,3,1,10,29,71,56,43,31,65,268,41,25,44,94,37,26,31,290,*78
$GPGSV,3,2,10,2,31,56,,21,26,170,29,14,21,302,,12,12,284,*79
$GPGSV,3,3,10,32,5,217,,120,,0,*7B
$GPAPB,,,,,,,,,,,,,,*44
$GPGLL,4714.3227,N,00131.5368,W,061327,A*30
$GPRMB,,,,,,,,,,,,,*66
$GPRMC,061327,A,4714.3227,N,00131.5368,W,0.3,0.0,130917,3.0,W*73
$GPGGA,061327,4714.3227,N,00131.5368,W,1,4,8.80,40,M,,,,*25
$GPGSV,3,1,10,29,71,56,42,31,65,268,41,25,44,94,37,26,31,290,*79
$GPGSV,3,2,10,2,31,56,,21,26,170,29,14,21,302,,12,12,284,*79
$GPGSV,3,3,10,32,5,217,,120,,0,*7B
$GPAPB,,,,,,,,,,,,,,*44
$GPGLL,4714.3233,N,00131.5370,W,061329,A*32
$GPRMB,,,,,,,,,,,,,*66
$GPRMC,061329,A,4714.3233,N,00131.5370,W,0.4,0.0,130917,3.0,W*76
$GPGGA,061329,4714.3233,N,00131.5370,W,1,4,8.90,39,M,,,,*28
$GPGSA,A,3,29,31,25,,,21,,,,,,,19.50,8.90,17.40*01
$GPGSV,3,1,10,29,71,56,42,31,65,268,41,25,44,94,37,26,31,290,*79
$GPGSV,3,2,10,2,31,56,,21,26,170,29,14,21,302,,12,12,284,*79
$GPGSV,3,3,10,32,5,217,,120,,0,*7B
$GPAPB,,,,,,,,,,,,,,*44
$GPGLL,4714.3241,N,00131.5372,W,061331,A*3C
$GPRMB,,,,,,,,,,,,,*66
$GPRMC,061331,A,4714.3241,N,00131.5372,W,0.4,0.0,130917,3.0,W*78
$GPGGA,061331,4714.3241,N,00131.5372,W,1,4,8.90,37,M,,,,*28
$GPGSA,A,3,29,31,25,,,21,,,,,,,19.60,8.90,17.40*02
$GPGSV,3,1,10,29,71,56,42,31,65,268,41,25,44,94,37,26,31,290,*79
$GPGSV,3,2,10,2,31,56,,21,26,170,29,14,21,302,,12,12,284,*79
$GPGSV,3,3,10,32,5,217,,120,,0,*7B
$GPAPB,,,,,,,,,,,,,,*44
$GPGLL,4714.3246,N,00131.5374,W,061333,A*3F
$GPRMB,,,,,,,,,,,,,*66
$GPRMC,061333,A,4714.3246,N,00131.5374,W,0.3,0.0,130917,3.0,W*7C
$GPGGA,061333,4714.3246,N,00131.5374,W,1,4,8.90,36,M,,,,*2A
$GPGSA,A,3,29,31,25,,,21,,,,,,,19.60,8.90,17.50*03
$GPGSV,3,1,10,29,71,56,41,31,65,268,41,25,44,94,38,26,31,290,*75
$GPGSV,3,2,10,2,31,56,,21,26,170,28,14,21,302,,12,12,284,*78
$GPGSV,3,3,10,32,5,217,,120,,0,*7B
$GPAPB,,,,,,,,,,,,,,*44
$GPGLL,4714.3250,N,00131.5375,W,061335,A*3F
$GPRMB,,,,,,,,,,,,,*66
$GPRMC,061335,A,4714.3250,N,00131.5375,W,0.3,0.0,130917,3.0,W*7C
$GPGGA,061335,4714.3250,N,00131.5375,W,1,4,8.90,35,M,,,,*29
$GPGSA,A,3,29,31,25,,,21,,,,,,,19.60,8.90,17.50*03
$GPGSV,3,1,10,29,71,56,41,31,65,268,41,25,44,94,38,26,31,290,*75
$GPGSV,3,2,10,2,31,56,,21,26,170,28,14,21,302,,12,12,284,*78
$GPGSV,3,3,10,32,5,217,,120,,0,*7B
$GPAPB,,,,,,,,,,,,,,*44
$GPGLL,4714.3253,N,00131.5377,W,061337,A*3C
$GPRMB,,,,,,,,,,,,,*66
$GPRMC,061337,A,4714.3253,N,00131.5377,W,0.4,0.0,130917,3.0,W*78
$GPGGA,061337,4714.3253,N,00131.5377,W,1,4,8.90,34,M,,,,*2B
$GPGSA,A,3,29,31,25,,,21,,,,,,,19.70,8.90,17.50*02
$GPGSV,3,1,10,29,71,56,42,31,65,268,42,25,44,94,38,26,31,290,*75
$GPGSV,3,2,10,2,31,56,,21,26,170,31,14,21,302,,12,12,284,*70
$GPGSV,3,3,10,32,5,217,,120,,0,*7B
$GPAPB,,,,,,,,,,,,,,*44
$GPGLL,4714.3260,N,00131.5379,W,061339,A*3C
$GPRMB,,,,,,,,,,,,,*66
$GPRMC,061339,A,4714.3260,N,00131.5379,W,0.4,0.0,130917,3.0,W*78
$GPGGA,061339,4714.3260,N,00131.5379,W,1,4,8.90,32,M,,,,*2D
$GPGSA,A,3,29,31,25,,,21,,,,,,,19.70,8.90,17.60*01
$GPGSV,3,1,10,29,71,56,42,31,65,268,42,25,44,94,38,26,31,290,*75
$GPGSV,3,2,10,2,31,56,,21,26,170,31,14,21,302,,12,12,284,*70
$GPGSV,3,3,10,32,5,217,,120,,0,*7B
$GPAPB,,,,,,,,,,,,,,*44
$GPGLL,4714.3269,N,00131.5381,W,061341,A*3D
$GPRMB,,,,,,,,,,,,,*66
$GPRMC,061341,A,4714.3269,N,00131.5381,W,0.4,0.0,130917,3.0,W*79
$GPGGA,061341,4714.3269,N,00131.5381,W,1,4,8.90,30,M,,,,*2E
$GPGSA,A,3,29,31,25,,,21,,,,,,,19.70,8.90,17.60*01
$GPGSV,3,1,10,29,71,56,42,31,65,268,42,25,44,94,38,26,31,290,*75
$GPGSV,3,2,10,2,31,56,,21,26,170,31,14,21,302,,12,12,284,*70
$GPGSV,3,3,10,32,5,217,,120,,0,*7B
$GPAPB,,,,,,,,,,,,,,*44
$GPGLL,4714.3274,N,00131.5383,W,061343,A*31
$GPRMB,,,,,,,,,,,,,*66
$GPRMC,061343,A,4714.3274,N,00131.5383,W,0.6,0.0,130917,3.0,W*77
$GPGGA,061343,4714.3274,N,00131.5383,W,1,4,9.00,28,M,,,,*23
$GPGSA,A,3,29,31,25,,,21,,,,,,,19.80,9.00,17.60*06
$GPGSV,3,1,10,29,71,56,43,31,65,268,41,25,44,94,37,26,31,290,*78
$GPGSV,3,2,10,2,31,56,,21,26,170,30,14,21,302,,12,12,284,*71
$GPGSV,3,3,10,32,5,217,,120,,0,*7B
$GPAPB,,,,,,,,,,,,,,*44
$GPGLL,4714.3280,N,00131.5385,W,061345,A*3A
$GPRMB,,,,,,,,,,,,,*66
$GPRMC,061345,A,4714.3280,N,00131.5385,W,0.3,0.0,130917,3.0,W*79
$GPGGA,061345,4714.3280,N,00131.5385,W,2,4,50.00,25,M,,,1,0*1B
$GPGSA,A,2,29,31,25,,,,,,,120,,,50.00,50.00,50.00*0B
$GPGSV,3,1,10,29,71,56,43,31,65,268,41,25,44,94,37,26,31,290,*78
$GPGSV,3,2,10,2,31,56,,21,26,170,,14,21,302,,12,12,284,*72
$GPGSV,3,3,10,32,5,217,,120,,0,26*7F
$GPAPB,,,,,,,,,,,,,,*44
$GPGLL,4714.3286,N,00131.5387,W,061347,A*3C
$GPRMB,,,,,,,,,,,,,*66
$GPRMC,061347,A,4714.3286,N,00131.5387,W,0.4,0.0,130917,3.0,W*78
$GPGGA,061347,4714.3286,N,00131.5387,W,2,4,9.00,24,M,,,2,0*23
$GPGSA,A,3,29,31,25,,,21,,,,,,,19.90,9.00,17.70*06
$GPGSV,3,1,10,29,71,56,42,31,65,268,41,25,44,94,38,26,31,290,*76
$GPGSV,3,2,10,2,31,56,,21,26,170,29,14,21,302,,12,12,284,*79
$GPGSV,3,3,10,32,5,217,,120,,0,*7B
$GPAPB,,,,,,,,,,,,,,*44
$GPGLL,4714.3293,N,00131.5390,W,061349,A*30
$GPRMB,,,,,,,,,,,,,*66
$GPRMC,061349,A,4714.3293,N,00131.5390,W,0.5,0.0,130917,3.0,W*75
$GPGGA,061349,4714.3293,N,00131.5390,W,2,4,9.00,22,M,,,0,0*2B
$GPGSA,A,3,29,31,25,,,21,,,,,,,19.90,9.00,17.70*06
$GPGSV,3,1,10,29,71,56,42,31,65,268,41,25,44,94,38,26,31,290,*76
$GPGSV,3,2,10,2,31,56,,21,26,170,29,14,21,302,,12,12,284,*79
$GPGSV,3,3,10,32,5,217,,120,,0,*7B
$GPAPB,,,,,,,,,,,,,,*44
$GPGLL,4714.3301,N,00131.5393,W,061351,A*30
$GPRMB,,,,,,,,,,,,,*66
$GPRMC,061351,A,4714.3301,N,00131.5393,W,0.4,0.0,130917,3.0,W*74
$GPGGA,061351,4714.3301,N,00131.5393,W,2,4,9.00,19,M,,,2,0*21
$GPGSA,A,3,29,31,25,,,21,,,,,,,19.90,9.00,17.80*09
$GPGSV,3,1,10,29,71,56,42,31,65,268,41,25,44,94,38,26,31,290,*76
$GPGSV,3,2,10,2,31,56,,21,26,170,29,14,21,302,,12,12,284,*79
$GPGSV,3,3,10,32,5,217,,120,,0,*7B
$GPAPB,,,,,,,,,,,,,,*44
$GPGLL,4714.3307,N,00131.5396,W,061353,A*31
$GPRMB,,,,,,,,,,,,,*66
$GPRMC,061353,A,4714.3307,N,00131.5396,W,0.5,0.0,130917,3.0,W*74
$GPGGA,061353,4714.3307,N,00131.5396,W,2,4,9.00,17,M,,,0,0*2C
$GPGSA,A,3,29,31,25,,,21,,,,,,,20.00,9.00,17.80*0A
$GPGSV,3,1,10,29,71,56,42,31,65,267,42,25,43,94,37,26,31,290,*72
$GPGSV,3,2,10,2,31,56,,21,26,170,29,14,21,302,,12,12,284,*79
$GPGSV,3,3,10,32,5,217,,120,,0,*7B
$GPAPB,,,,,,,,,,,,,,*44
$GPGLL,4714.3307,N,00131.5402,W,061355,A*3D
$GPRMB,,,,,,,,,,,,,*66
$GPRMC,061355,A,4714.3307,N,00131.5402,W,1.0,343.0,130917,3.0,W*78
$GPGGA,061355,4714.3307,N,00131.5402,W,2,4,50.00,15,M,,,2,0*1C
$GPGSA,A,2,29,31,25,,,,,,,120,,,50.00,50.00,50.00*0B
$GPGSV,3,1,10,29,71,56,42,31,65,267,42,25,43,94,37,26,31,290,*72
$GPGSV,3,2,10,2,31,56,,21,26,170,,14,21,302,,12,12,284,*72
$GPGSV,3,3,10,32,5,217,,120,,0,27*7E
$GPAPB,,,,,,,,,,,,,,*44
$GPGLL,4714.3298,N,00131.5406,W,061357,A*3C
$GPRMB,,,,,,,,,,,,,*66
$GPRMC,061357,A,4714.3298,N,00131.5406,W,1.7,212.0,130917,3.0,W*7B
$GPGGA,061357,4714.3298,N,00131.5406,W,1,4,9.10,15,M,,,,*21
$GPGSA,A,3,29,31,25,,,21,,,,,,,20.00,9.10,17.90*0A
$GPGSV,3,1,10,29,71,56,41,31,65,267,40,25,43,94,38,26,31,290,*7C
$GPGSV,3,2,10,2,31,56,,21,26,170,30,14,21,302,,12,12,284,*71
$GPGSV,3,3,10,32,5,217,,120,,0,*7B
$GPAPB,,,,,,,,,,,,,,*44
$GPGLL,4714.3279,N,00131.5409,W,061359,A*32
$GPRMB,,,,,,,,,,,,,*66
$GPRMC,061359,A,4714.3279,N,00131.5409,W,2.8,193.0,130917,3.0,W*73
$GPGGA,061359,4714.3279,N,00131.5409,W,1,4,9.10,15,M,,,,*2F
$GPGSA,A,3,29,31,25,,,21,,,,,,,20.10,9.10,17.90*0B
$GPGSV,3,1,10,29,71,56,41,31,65,267,40,25,43,94,38,26,31,290,*7C
$GPGSV,3,2,10,2,31,56,,21,26,170,30,14,21,302,,12,12,284,*71
$GPGSV,3,3,10,32,5,217,,120,,0,*7B
$GPAPB,,,,,,,,,,,,,,*44
$GPGLL,4714.3254,N,00131.5414,W,061401,A*3B
$GPRMB,,,,,,,,,,,,,*66
$GPRMC,061401,A,4714.3254,N,00131.5414,W,3.2,197.0,130917,3.0,W*75
$GPGGA,061401,4714.3254,N,00131.5414,W,1,4,9.10,16,M,,,,*25
$GPGSA,A,3,29,31,25,,,21,,,,,,,20.10,9.10,17.90*0B
$GPGSV,3,1,10,29,71,56,41,31,65,267,40,25,43,94,38,26,31,290,*7C
$GPGSV,3,2,10,2,31,56,,21,26,170,30,14,21,302,,12,12,284,*71
$GPGSV,3,3,10,32,5,217,,120,,0,*7B
$GPAPB,,,,,,,,,,,,,,*44
$GPGLL,4714.3220,N,00131.5424,W,061403,A*39
$GPRMB,,,,,,,,,,,,,*66
$GPRMC,061403,A,4714.3220,N,00131.5424,W,4.3,212.2,130917,3.0,W*7D
$GPGGA,061403,4714.3220,N,00131.5424,W,2,4,50.00,18,M,,,2,0*15
$GPGSA,A,2,29,31,25,,,,,,,120,,,50.00,50.00,50.00*0B
$GPGSV,3,1,10,29,71,56,42,31,65,267,40,25,43,94,40,26,31,290,*70
$GPGSV,3,2,10,2,31,56,,21,26,170,,14,21,302,,12,12,284,*72
$GPGSV,3,3,10,32,5,217,,120,,0,28*71
$GPAPB,,,,,,,,,,,,,,*44
$GPGLL,4714.3196,N,00131.5447,W,061405,A*34
$GPRMB,,,,,,,,,,,,,*66
$GPRMC,061405,A,4714.3196,N,00131.5447,W,5.8,211.9,130917,3.0,W*72
$GPGGA,061405,4714.3196,N,00131.5447,W,2,4,50.00,18,M,,,1,0*1B
$GPGSA,A,2,29,31,25,,,,,,,120,,,50.00,50.00,50.00*0B
$GPGSV,3,1,10,29,71,56,42,31,65,267,40,25,43,94,40,26,31,290,*70
$GPGSV,3,2,10,2,31,56,,21,26,170,,14,21,302,,12,12,284,*72
$GPGSV,3,3,10,32,5,217,,120,,0,28*71
$GPAPB,,,,,,,,,,,,,,*44
$GPGLL,4714.3171,N,00131.5472,W,061407,A*39
$GPRMB,,,,,,,,,,,,,*66
$GPRMC,061407,A,4714.3171,N,00131.5472,W,5.4,210.5,130917,3.0,W*7E
$GPGGA,061407,4714.3171,N,00131.5472,W,2,4,50.00,17,M,,,1,0*19
$GPGSA,A,2,29,31,25,,,,,,,120,,,50.00,50.00,50.00*0B
$GPGSV,3,1,10,29,71,56,40,31,65,267,40,25,43,94,39,26,31,290,*7C
$GPGSV,3,2,10,2,31,56,,21,26,170,,14,21,302,,12,12,284,*72
$GPGSV,3,3,10,32,5,217,,120,,0,28*71
$GPAPB,,,,,,,,,,,,,,*44
$GPGLL,4714.3144,N,00131.5497,W,061409,A*3A
$GPRMB,,,,,,,,,,,,,*66
$GPRMC,061409,A,4714.3144,N,00131.5497,W,5.8,212.1,130917,3.0,W*77
$GPGGA,061409,4714.3144,N,00131.5497,W,2,4,50.00,16,M,,,1,0*1B
$GPGSA,A,2,29,31,25,,,,,,,120,,,50.00,50.00,50.00*0B
$GPGSV,3,1,10,29,71,56,40,31,65,267,40,25,43,94,39,26,31,290,*7C
$GPGSV,3,2,10,2,31,56,,21,26,170,,14,21,302,,12,12,284,*72
$GPGSV,3,3,10,32,5,217,,120,,0,27*7E
$GPAPB,,,,,,,,,,,,,,*44
$GPGLL,4714.3117,N,00131.5524,W,061411,A*3C
$GPRMB,,,,,,,,,,,,,*66
$GPRMC,061411,A,4714.3117,N,00131.5524,W,6.1,211.4,130917,3.0,W*7D
$GPGGA,061411,4714.3117,N,00131.5524,W,2,4,50.00,15,M,,,2,0*1D
$GPGSA,A,2,29,31,25,,,,,,,120,,,50.00,50.00,50.00*0B
$GPGSV,3,1,10,29,71,56,40,31,65,267,40,25,43,94,39,26,31,290,*7C
$GPGSV,3,2,10,2,31,56,,21,26,170,,14,21,302,,12,12,284,*72
$GPGSV,3,3,10,32,5,217,,120,,0,27*7E
$GPAPB,,,,,,,,,,,,,,*44
$GPGLL,4714.3089,N,00131.5551,W,061413,A*3A
$GPRMB,,,,,,,,,,,,,*66
$GPRMC,061413,A,4714.3089,N,00131.5551,W,6.2,210.0,130917,3.0,W*7D
$GPGGA,061413,4714.3089,N,00131.5551,W,2,4,50.00,14,M,,,1,0*19
$GPGSA,A,2,29,31,25,,,,,,,120,,,50.00,50.00,50.00*0B
$GPGSV,3,1,10,29,71,56,39,31,65,267,40,25,43,94,38,26,31,290,*73
$GPGSV,3,2,10,2,31,56,,21,26,170,,14,21,302,,12,12,284,*72
$GPGSV,3,3,10,32,5,217,,120,,0,27*7E
$GPAPB,,,,,,,,,,,,,,*44
$GPGLL,4714.3059,N,00131.5578,W,061415,A*3A
$GPRMB,,,,,,,,,,,,,*66
$GPRMC,061415,A,4714.3059,N,00131.5578,W,6.4,211.4,130917,3.0,W*7E
$GPGGA,061415,4714.3059,N,00131.5578,W,2,4,50.00,14,M,,,2,0*1A
$GPGSA,A,2,29,31,25,,,,,,,120,,,50.00,50.00,50.00*0B
$GPGSV,3,1,10,29,71,56,39,31,65,267,40,25,43,94,38,26,31,290,*73
$GPGSV,3,2,10,2,31,56,,21,26,170,,14,21,302,,12,12,284,*72
$GPGSV,3,3,10,32,5,217,,120,,0,27*7E
$GPAPB,,,,,,,,,,,,,,*44
$GPGLL,4714.3026,N,00131.5606,W,061417,A*3A
$GPRMB,,,,,,,,,,,,,*66
$GPRMC,061417,A,4714.3026,N,00131.5606,W,6.9,212.7,130917,3.0,W*73
$GPGGA,061417,4714.3026,N,00131.5606,W,2,4,50.00,14,M,,,1,0*19
$GPGSA,A,2,29,31,25,,,,,,,120,,,50.00,50.00,50.00*0B
$GPGSV,3,1,10,29,71,56,39,31,65,267,40,25,43,94,33,26,31,290,*78
$GPGSV,3,2,10,2,31,56,,21,26,170,,14,21,302,,12,12,284,*72
$GPGSV,3,3,10,32,5,217,,120,,0,27*7E
$GPAPB,,,,,,,,,,,,,,*44
$GPGLL,4714.2994,N,00131.5638,W,061419,A*38
$GPRMB,,,,,,,,,,,,,*66
$GPRMC,061419,A,4714.2994,N,00131.5638,W,7.0,214.4,130917,3.0,W*7C
$GPGGA,061419,4714.2994,N,00131.5638,W,2,4,50.00,13,M,,,2,0*1F
$GPGSA,A,2,29,31,25,,,,,,,120,,,50.00,50.00,50.00*0B
$GPGSV,3,1,10,29,71,56,39,31,65,267,40,25,43,94,33,26,31,290,*78
$GPGSV,3,2,10,2,31,56,,21,26,170,,14,21,302,,12,12,284,*72
$GPGSV,3,3,10,32,5,217,,120,,0,28*71
$GPAPB,,,,,,,,,,,,,,*44
$GPGLL,4714.2973,N,00131.5657,W,061421,A*33
$GPRMB,,,,,,,,,,,,,*66
$GPRMC,061421,A,4714.2973,N,00131.5657,W,2.8,200.0,130917,3.0,W*7B
$GPGGA,061421,4714.2973,N,00131.5657,W,2,4,50.00,13,M,,,1,0*17
$GPGSA,A,2,29,31,25,,,,,,,120,,,50.00,50.00,50.00*0B
$GPGSV,3,1,10,29,71,56,39,31,65,267,40,25,43,94,33,26,31,290,*78
$GPGSV,3,2,10,2,31,56,,21,26,170,,14,21,302,,12,12,284,*72
$GPGSV,3,3,10,32,5,217,,120,,0,28*71
$GPAPB,,,,,,,,,,,,,,*44
$GPGLL,4714.2975,N,00131.5662,W,061423,A*31
$GPRMB,,,,,,,,,,,,,*66
$GPRMC,061423,A,4714.2975,N,00131.5662,W,0.5,200.0,130917,3.0,W*76
$GPGGA,061423,4714.2975,N,00131.5662,W,2,5,9.20,13,M,,,2,0*29
$GPGSA,A,3,29,31,25,,,21,,,,120,,,20.50,9.20,18.30*3A
$GPGSV,3,1,10,29,70,56,40,31,65,267,40,25,43,94,38,26,31,290,*7C
$GPGSV,3,2,10,2,30,56,,21,26,170,31,14,21,302,,12,8,98,*75
$GPGSV,3,3,10,32,5,217,,120,,0,30*78
$GPAPB,,,,,,,,,,,,,,*44
$GPGLL,4714.2956,N,00131.5670,W,061425,A*35
$GPRMB,,,,,,,,,,,,,*66
$GPRMC,061425,A,4714.2956,N,00131.5670,W,3.0,201.0,130917,3.0,W*75
$GPGGA,061425,4714.2956,N,00131.5670,W,2,5,9.30,14,M,,,1,0*28
$GPGSA,A,3,29,31,25,,,21,,,,120,,,20.60,9.30,18.40*3F
$GPGSV,3,1,10,29,70,56,40,31,65,267,40,25,43,94,38,26,31,290,*7C
$GPGSV,3,2,10,2,30,56,,21,26,170,31,14,21,302,,12,8,98,*75
$GPGSV,3,3,10,32,5,217,,120,,0,30*78
$GPAPB,,,,,,,,,,,,,,*44
$GPGLL,4714.2944,N,00131.5688,W,061427,A*33
$GPRMB,,,,,,,,,,,,,*66
$GPRMC,061427,A,4714.2944,N,00131.5688,W,2.4,230.0,130917,3.0,W*74
$GPGGA,061427,4714.2944,N,00131.5688,W,2,4,50.00,14,M,,,1,0*10
$GPGSA,A,2,29,31,25,,,,,,,120,,,50.00,50.00,50.00*0B
$GPGSV,3,1,10,29,70,56,40,31,65,267,41,25,43,94,40,26,31,290,*72
$GPGSV,3,2,10,2,30,56,,21,26,170,,14,21,302,,12,8,98,*77
$GPGSV,3,3,10,32,5,217,,120,,0,30*78
$GPAPB,,,,,,,,,,,,,,*44
$GPGLL,4714.2942,N,00131.5705,W,061429,A*3F
$GPRMB,,,,,,,,,,,,,*66
$GPRMC,061429,A,4714.2942,N,00131.5705,W,2.4,259.0,130917,3.0,W*77
$GPGGA,061429,4714.2942,N,00131.5705,W,2,4,50.00,13,M,,,1,0*1B
$GPGSA,A,2,29,31,25,,,,,,,120,,,50.00,50.00,50.00*0B
$GPGSV,3,1,10,29,70,56,40,31,65,267,41,25,43,94,40,26,31,290,*72
$GPGSV,3,2,10,2,30,56,,21,26,170,,14,21,302,,12,8,98,*77
$GPGSV,3,3,10,32,5,217,,120,,0,27*7E
$GPAPB,,,,,,,,,,,,,,*44
$GPGLL,4714.2942,N,00131.5732,W,061431,A*32
$GPRMB,,,,,,,,,,,,,*66
$GPRMC,061431,A,4714.2942,N,00131.5732,W,4.5,288.4,130917,3.0,W*75
$GPGGA,061431,4714.2942,N,00131.5732,W,2,5,9.30,14,M,,,3,0*2D
$GPGSA,A,3,29,31,25,,,21,,,,120,,,20.70,9.30,18.50*3F
$GPGSV,3,1,10,29,70,56,40,31,65,267,41,25,43,94,40,26,31,290,*72
$GPGSV,3,2,10,2,30,56,,21,26,170,26,14,21,302,,12,8,98,*73
$GPGSV,3,3,10,32,5,217,,120,,0,27*7E
$GPAPB,,,,,,,,,,,,,,*44
$GPGLL,4714.2954,N,00131.5770,W,061433,A*31
$GPRMB,,,,,,,,,,,,,*66
$GPRMC,061433,A,4714.2954,N,00131.5770,W,5.8,300.4,130917,3.0,W*7B
$GPGGA,061433,4714.2954,N,00131.5770,W,2,4,49.80,14,M,,,5,0*16
$GPGSA,A,2,29,31,25,,,,,,,120,,,50.00,49.80,50.00*0B
$GPGSV,3,1,10,29,70,56,41,31,65,267,41,25,43,94,34,26,31,290,*70
$GPGSV,3,2,10,2,30,56,,21,26,170,,14,21,302,,12,8,98,*77
$GPGSV,3,3,10,32,5,217,,120,,0,24*7D
$GPAPB,,,,,,,,,,,,,,*44
$GPGLL,4714.2981,N,00131.5814,W,061435,A*32
$GPRMB,,,,,,,,,,,,,*66
$GPRMC,061435,A,4714.2981,N,00131.5814,W,7.8,310.8,130917,3.0,W*77
$GPGGA,061435,4714.2981,N,00131.5814,W,2,4,49.70,14,M,,,7,0*18
$GPGSA,A,2,29,31,25,,,,,,,120,,,50.00,49.70,50.00*04
$GPGSV,3,1,10,29,70,56,41,31,65,267,41,25,43,94,34,26,31,290,*70
$GPGSV,3,2,10,2,30,56,,21,26,170,,14,21,302,,12,8,98,*77
$GPGSV,3,3,10,32,5,217,,120,,0,24*7D
$GPAPB,,,,,,,,,,,,,,*44
$GPGLL,4714.3011,N,00131.5860,W,061437,A*32
$GPRMB,,,,,,,,,,,,,*66
$GPRMC,061437,A,4714.3011,N,00131.5860,W,7.8,314.6,130917,3.0,W*7D
$GPGGA,061437,4714.3011,N,00131.5860,W,2,4,49.70,14,M,,,9,0*16
$GPGSA,A,2,29,31,25,,,,,,,120,,,50.00,49.70,50.00*04
$GPGSV,3,1,10,29,70,56,37,31,65,267,42,25,43,94,35,26,31,290,*73
$GPGSV,3,2,10,2,30,56,,21,26,170,,14,21,302,,12,8,98,*77
$GPGSV,3,3,10,32,5,217,,120,,0,24*7D
$GPAPB,,,,,,,,,,,,,,*44
$GPGLL,4714.3050,N,00131.5909,W,061439,A*37
$GPRMB,,,,,,,,,,,,,*66
$GPRMC,061439,A,4714.3050,N,00131.5909,W,9.0,313.9,130917,3.0,W*76
$GPGGA,061439,4714.3050,N,00131.5909,W,2,5,9.40,14,M,,,11,0*1C
$GPGSA,A,3,29,31,25,,,21,,,,120,,,20.80,9.40,18.60*34
$GPGSV,3,1,10,29,70,56,37,31,65,267,42,25,43,94,35,26,31,290,*73
$GPGSV,3,2,10,2,30,56,,21,26,170,25,14,21,302,,12,8,98,*70
$GPGSV,3,3,10,32,5,217,,120,,0,24*7D
$GPAPB,,,,,,,,,,,,,,*44
$GPGLL,4714.3085,N,00131.5965,W,061441,A*3A
$GPRMB,,,,,,,,,,,,,*66
$GPRMC,061441,A,4714.3085,N,00131.5965,W,10.0,312.4,130917,3.0,W*4F
$GPGGA,061441,4714.3085,N,00131.5965,W,2,5,9.40,13,M,,,13,0*14
$GPGSA,A,3,29,31,25,,,21,,,,120,,,20.90,9.40,18.60*35
$GPGSV,3,1,10,29,70,56,37,31,65,267,42,25,43,94,35,26,31,290,*73
$GPGSV,3,2,10,2,30,56,,21,26,170,25,14,21,302,,12,8,98,*70
$GPGSV,3,3,10,32,5,217,,120,,0,24*7D
$GPAPB,,,,,,,,,,,,,,*44
$GPGLL,4714.3121,N,00131.6027,W,061443,A*3B
$GPRMB,,,,,,,,,,,,,*66
$GPRMC,061443,A,4714.3121,N,00131.6027,W,11.0,313.2,130917,3.0,W*48
$GPGGA,061443,4714.3121,N,00131.6027,W,2,5,9.40,13,M,,,15,0*13
$GPGSA,A,3,29,31,25,,,21,,,,120,,,20.90,9.40,18.70*34
$GPGSV,3,1,10,29,70,56,32,31,65,267,43,25,43,94,32,26,31,290,*70
$GPGSV,3,2,10,2,30,56,,21,26,170,29,14,21,302,,12,8,98,*7C
$GPGSV,3,3,10,32,5,217,,120,,0,0*4B
$GPAPB,,,,,,,,,,,,,,*44
$GPGLL,4714.3161,N,00131.6093,W,061445,A*36
$GPRMB,,,,,,,,,,,,,*66
$GPRMC,061445,A,4714.3161,N,00131.6093,W,11.3,312.1,130917,3.0,W*44
$GPGGA,061445,4714.3161,N,00131.6093,W,2,4,31.10,13,M,,,17,0*23
$GPGSA,A,2,29,31,,,,21,,,,120,,,50.00,31.10,50.00*09
$GPGSV,3,1,10,29,70,56,32,31,65,267,43,25,43,94,,26,31,290,*71
$GPGSV,3,2,10,2,30,56,,21,26,170,29,14,21,302,,12,8,98,*7C
$GPGSV,3,3,10,32,5,217,,120,,0,0*4B
$GPAPB,,,,,,,,,,,,,,*44
$GPGLL,4714.3205,N,00131.6156,W,061447,A*3D
$GPRMB,,,,,,,,,,,,,*66
$GPRMC,061447,A,4714.3205,N,00131.6156,W,10.7,315.4,130917,3.0,W*48
$GPGGA,061447,4714.3205,N,00131.6156,W,2,2,0.00,13,M,,,18,0*12
$GPGSA,A,2,29,31,,,,,,,,,,,0.00,0.00,0.00*0A
$GPGSV,3,1,10,29,70,56,37,31,65,267,43,25,43,94,,26,31,290,*74
$GPGSV,3,2,10,2,30,56,,21,26,170,,14,21,302,,12,8,98,*77
$GPGSV,3,3,10,32,5,217,,120,,0,*7B
$GPAPB,,,,,,,,,,,,,,*44
$GPGLL,4714.3248,N,00131.6214,W,061449,A*3F
$GPRMB,,,,,,,,,,,,,*66
$GPRMC,061449,A,4714.3248,N,00131.6214,W,10.3,319.7,130917,3.0,W*41
$GPGGA,061449,4714.3248,N,00131.6214,W,2,2,0.00,13,M,,,18,0*10
$GPGSA,A,2,29,31,,,,,,,,,,,0.00,0.00,0.00*0A
$GPGSV,3,1,10,29,70,56,37,31,65,267,43,25,43,94,,26,31,290,*74
$GPGSV,3,2,10,2,30,56,,21,26,170,,14,21,302,,12,8,98,*77
$GPGSV,3,3,10,32,5,217,,120,,0,*7B
$GPAPB,,,,,,,,,,,,,,*44
$GPGLL,4714.3278,N,00131.6255,W,061451,A*30
$GPRMB,,,,,,,,,,,,,*66
$GPRMC,061451,A,4714.3278,N,00131.6255,W,7.3,315.1,130917,3.0,W*72
$GPGGA,061451,4714.3278,N,00131.6255,W,2,4,9.40,13,M,,,22,0*1D
$GPGSV,3,1,10,29,70,56,37,31,65,267,43,25,43,94,24,26,31,290,*72
$GPGSV,3,2,10,2,30,56,,21,26,170,27,14,21,302,,12,8,98,*72
$GPGSV,3,3,10,32,5,217,,120,,0,*7B
$GPAPB,,,,,,,,,,,,,,*44
$GPGLL,4714.3305,N,00131.6297,W,061453,A*37
$GPRMB,,,,,,,,,,,,,*66
$GPRMC,061453,A,4714.3305,N,00131.6297,W,8.1,313.7,130917,3.0,W*78
$GPGGA,061453,4714.3305,N,00131.6297,W,2,4,9.50,13,M,,,22,0*1B
$GPGSV,3,1,9,29,70,56,36,31,65,266,43,25,43,94,27,26,31,291,*48
$GPGSV,3,2,9,2,30,55,,21,26,170,28,14,21,302,,12,8,98,*46
$GPGSV,3,3,9,120,,0,*43
$GPAPB,,,,,,,,,,,,,,*44
$GPGLL,4714.3332,N,00131.6344,W,061455,A*3A
$GPRMB,,,,,,,,,,,,,*66
$GPRMC,061455,A,4714.3332,N,00131.6344,W,8.2,312.1,130917,3.0,W*71
$GPGGA,061455,4714.3332,N,00131.6344,W,1,4,9.50,13,M,,,,*25
$GPGSA,A,3,29,31,25,,,21,,,,,,,21.10,9.50,18.90*01
$GPGSV,3,1,9,29,70,56,36,31,65,266,43,25,43,94,27,26,31,291,*48
$GPGSV,3,2,9,2,30,55,,21,26,170,28,14,21,302,,12,8,98,*46
$GPGSV,3,3,9,120,,0,*43
$GPAPB,,,,,,,,,,,,,,*44
$GPGLL,4714.3362,N,00131.6393,W,061457,A*37
$GPRMB,,,,,,,,,,,,,*66
$GPRMC,061457,A,4714.3362,N,00131.6393,W,8.7,312.9,130917,3.0,W*71
$GPGGA,061457,4714.3362,N,00131.6393,W,1,4,9.50,14,M,,,,*2F
$GPGSA,A,3,29,31,25,,,21,,,,,,,21.20,9.50,18.90*02
$GPGSV,3,1,9,29,70,56,37,31,65,266,42,25,43,94,31,26,31,291,*4F
$GPGSV,3,2,9,2,30,55,,21,26,170,32,14,21,302,,12,8,98,*4D
$GPGSV,3,3,9,120,,0,*43
$GPAPB,,,,,,,,,,,,,,*44
$GPGLL,4714.3398,N,00131.6449,W,061459,A*3C
$GPRMB,,,,,,,,,,,,,*66
$GPRMC,061459,A,4714.3398,N,00131.6449,W,10.8,313.2,130917,3.0,W*46
$GPGGA,061459,4714.3398,N,00131.6449,W,1,4,9.50,13,M,,,,*23
$GPGSA,A,3,29,31,25,,,21,,,,,,,21.20,9.50,18.90*02
$GPGSV,3,1,9,29,70,56,37,31,65,266,42,25,43,94,31,26,31,291,*4F
$GPGSV,3,2,9,2,30,55,,21,26,170,32,14,21,302,,12,8,98,*4D
$GPGSV,3,3,9,120,,0,*43
$GPAPB,,,,,,,,,,,,,,*44
$GPGLL,4714.3443,N,00131.6516,W,061501,A*3A
$GPRMB,,,,,,,,,,,,,*66
$GPRMC,061501,A,4714.3443,N,00131.6516,W,12.9,314.7,130917,3.0,W*41
$GPGGA,061501,4714.3443,N,00131.6516,W,1,4,9.50,13,M,,,,*25
$GPGSA,A,3,29,31,25,,,21,,,,,,,21.20,9.50,19.00*0A
$GPGSV,3,1,9,29,70,56,37,31,65,266,42,25,43,94,31,26,31,291,*4F
$GPGSV,3,2,9,2,30,55,,21,26,170,32,14,21,302,,12,8,98,*4D
$GPGSV,3,3,9,120,,0,*43
$GPAPB,,,,,,,,,,,,,,*44
$GPGLL,4714.3500,N,00131.6595,W,061503,A*35
$GPRMB,,,,,,,,,,,,,*66
$GPRMC,061503,A,4714.3500,N,00131.6595,W,14.6,315.6,130917,3.0,W*47
$GPGGA,061503,4714.3500,N,00131.6595,W,1,4,9.50,13,M,,,,*2A
$GPGSA,A,3,29,31,25,,,21,,,,,,,21.30,9.50,19.00*0B
$GPGSV,3,1,9,29,70,56,35,31,65,266,43,25,43,94,35,26,31,291,*48
$GPGSV,3,2,9,2,30,55,,21,26,170,30,14,21,302,,12,8,98,*4F
$GPGSV,3,3,9,120,,0,*43
$GPAPB,,,,,,,,,,,,,,*44
$GPGLL,4714.3561,N,00131.6680,W,061505,A*33
$GPRMB,,,,,,,,,,,,,*66
$GPRMC,061505,A,4714.3561,N,00131.6680,W,14.5,316.1,130917,3.0,W*46
$GPGGA,061505,4714.3561,N,00131.6680,W,1,4,9.60,14,M,,,,*28
$GPGSA,A,3,29,31,25,,,21,,,,,,,21.30,9.60,19.10*09
$GPGSV,3,1,9,29,70,56,35,31,65,266,43,25,43,94,35,26,31,291,*48
$GPGSV,3,2,9,2,30,55,,21,26,170,30,14,21,302,,12,8,98,*4F
$GPGSV,3,3,9,120,,0,*43
$GPAPB,,,,,,,,,,,,,,*44
$GPGLL,4714.3619,N,00131.6763,W,061507,A*31
$GPRMB,,,,,,,,,,,,,*66
$GPRMC,061507,A,4714.3619,N,00131.6763,W,14.9,314.4,130917,3.0,W*4F
$GPGGA,061507,4714.3619,N,00131.6763,W,1,3,48.50,14,M,,,,*1B
$GPGSA,A,2,29,31,25,,,,,,,,,,50.00,48.50,50.00*34
$GPGSV,3,1,9,29,70,56,36,31,65,266,45,25,43,94,36,26,31,291,*4E
$GPGSV,3,2,9,2,30,55,,21,26,170,,14,21,302,,12,8,98,*4C
$GPGSV,3,3,9,120,,0,*43
$GPAPB,,,,,,,,,,,,,,*44
$GPGLL,4714.3678,N,00131.6858,W,061509,A*3F
$GPRMB,,,,,,,,,,,,,*66
$GPRMC,061509,A,4714.3678,N,00131.6858,W,17.0,312.5,130917,3.0,W*4C
$GPGGA,061509,4714.3678,N,00131.6858,W,1,4,9.60,16,M,,,,*26
$GPGSA,A,3,29,31,25,,,21,,,,,,,21.40,9.60,19.10*0E
$GPGSV,3,1,9,29,70,56,36,31,65,266,45,25,43,94,36,26,31,291,*4E
$GPGSV,3,2,9,2,30,55,,21,26,170,23,14,21,302,,12,8,98,*4D
$GPGSV,3,3,9,120,,0,*43
$GPAPB,,,,,,,,,,,,,,*44
$GPGLL,4714.3748,N,00131.6964,W,061511,A*3A
$GPRMB,,,,,,,,,,,,,*66
$GPRMC,061511,A,4714.3748,N,00131.6964,W,18.6,316.0,130917,3.0,W*41
$GPGGA,061511,4714.3748,N,00131.6964,W,1,4,9.60,16,M,,,,*23
$GPGSA,A,3,29,31,25,,,21,,,,,,,21.40,9.60,19.20*0D
$GPGSV,3,1,9,29,70,56,36,31,65,266,45,25,43,94,36,26,31,291,*4E
$GPGSV,3,2,9,2,30,55,,21,26,170,23,14,21,302,,12,8,98,*4D
$GPGSV,3,3,9,120,,0,*43
$GPAPB,,,,,,,,,,,,,,*44
$GPGLL,4714.3829,N,00131.7068,W,061513,A*34
$GPRMB,,,,,,,,,,,,,*66
$GPRMC,061513,A,4714.3829,N,00131.7068,W,20.0,320.4,130917,3.0,W*43
$GPGGA,061513,4714.3829,N,00131.7068,W,1,4,9.60,16,M,,,,*2D
$GPGSA,A,3,29,31,25,,,21,,,,,,,21.50,9.60,19.20*0C
$GPGSV,3,1,9,29,70,56,39,31,65,266,43,25,43,94,35,26,31,291,*44
$GPGSV,3,2,9,2,30,55,,21,26,170,30,14,21,302,,12,8,98,*4F
$GPGSV,3,3,9,120,,0,*43
$GPAPB,,,,,,,,,,,,,,*44
$GPGLL,4714.3918,N,00131.7179,W,061515,A*30
$GPRMB,,,,,,,,,,,,,*66
$GPRMC,061515,A,4714.3918,N,00131.7179,W,21.7,319.1,130917,3.0,W*4E
$GPGGA,061515,4714.3918,N,00131.7179,W,1,3,48.20,16,M,,,,*1F
$GPGSA,A,2,29,31,25,,,,,,,,,,50.00,48.20,50.00*33
$GPGSV,3,1,9,29,70,56,39,31,65,266,43,25,43,94,35,26,31,291,*44
$GPGSV,3,2,9,2,30,55,,21,26,170,,14,21,302,,12,8,98,*4C
$GPGSV,3,3,9,120,,0,*43
$GPAPB,,,,,,,,,,,,,,*44
$GPGLL,4714.4011,N,00131.7301,W,061517,A*38
$GPRMB,,,,,,,,,,,,,*66
$GPRMC,061517,A,4714.4011,N,00131.7301,W,22.4,317.9,130917,3.0,W*40
$GPGGA,061517,4714.4011,N,00131.7301,W,1,4,9.60,17,M,,,,*20
$GPGSA,A,3,29,31,25,,,21,,,,,,,21.60,9.60,19.30*0E
$GPGSV,3,1,9,29,70,56,38,31,65,266,44,25,43,94,35,26,31,291,*42
$GPGSV,3,2,9,2,30,55,,21,26,170,30,14,21,302,,12,8,98,*4F
$GPGSV,3,3,9,120,,0,*43
$GPAPB,,,,,,,,,,,,,,*44
$GPGLL,4714.4103,N,00131.7422,W,061519,A*32
$GPRMB,,,,,,,,,,,,,*66
$GPRMC,061519,A,4714.4103,N,00131.7422,W,21.5,318.1,130917,3.0,W*4F
$GPGGA,061519,4714.4103,N,00131.7422,W,1,4,9.70,16,M,,,,*2A
$GPGSA,A,3,29,31,25,,,21,,,,,,,21.60,9.70,19.30*0F
$GPGSV,3,1,9,29,70,56,38,31,65,266,44,25,43,94,35,26,31,291,*42
$GPGSV,3,2,9,2,30,55,,21,26,170,30,14,21,302,,12,8,98,*4F
$GPGSV,3,3,9,120,,0,*43
$GPAPB,,,,,,,,,,,,,,*44
$GPGLL,4714.4191,N,00131.7539,W,061521,A*39
$GPRMB,,,,,,,,,,,,,*66
$GPRMC,061521,A,4714.4191,N,00131.7539,W,21.0,316.8,130917,3.0,W*46
$GPGGA,061521,4714.4191,N,00131.7539,W,1,4,9.70,17,M,,,,*20
$GPGSA,A,3,29,31,25,,,21,,,,,,,21.60,9.70,19.30*0F
$GPGSV,3,1,9,29,70,56,38,31,65,266,44,25,43,94,35,26,31,291,*42
$GPGSV,3,2,9,2,30,55,,21,26,170,30,14,21,302,,12,8,98,*4F
$GPGSV,3,3,9,120,,0,*43
$GPAPB,,,,,,,,,,,,,,*44
$GPGLL,4714.4272,N,00131.7659,W,061523,A*30
$GPRMB,,,,,,,,,,,,,*66
$GPRMC,061523,A,4714.4272,N,00131.7659,W,20.4,313.4,130917,3.0,W*43
$GPGGA,061523,4714.4272,N,00131.7659,W,1,3,47.90,17,M,,,,*1A
$GPGSA,A,2,29,31,25,,,,,,,,,,50.00,47.90,50.00*37
$GPGSV,3,1,9,29,70,55,37,31,65,265,43,25,43,94,35,26,32,291,*49
$GPGSV,3,2,9,2,30,55,,21,26,170,,14,15,231,,12,8,98,*4A
$GPGSV,3,3,9,120,,0,*43
$GPAPB,,,,,,,,,,,,,,*44
$GPGLL,4714.4331,N,00131.7773,W,061525,A*39
$GPRMB,,,,,,,,,,,,,*66
$GPRMC,061525,A,4714.4331,N,00131.7773,W,17.8,307.6,130917,3.0,W*45
$GPGGA,061525,4714.4331,N,00131.7773,W,1,4,4.40,20,M,,,,*2A
$GPGSA,A,3,29,31,25,26,,,,,,,,,5.40,4.40,3.20*08
$GPGSV,3,1,9,29,70,55,37,31,65,265,43,25,43,94,35,26,32,291,32*48
$GPGSV,3,2,9,2,30,55,,21,26,170,,14,15,231,,12,8,98,*4A
$GPGSV,3,3,9,120,,0,*43
$GPAPB,,,,,,,,,,,,,,*44
$GPGLL,4714.4379,N,00131.7885,W,061527,A*31
$GPRMB,,,,,,,,,,,,,*66
$GPRMC,061527,A,4714.4379,N,00131.7885,W,15.4,303.8,130917,3.0,W*49
$GPGGA,061527,4714.4379,N,00131.7885,W,1,4,4.40,23,M,,,,*21
$GPGSA,A,3,29,31,25,26,,,,,,,,,5.40,4.40,3.20*08
$GPGSV,3,1,9,29,70,55,37,31,65,265,42,25,43,95,36,26,32,291,34*4D
$GPGSV,3,2,9,2,30,55,,21,27,170,,14,15,231,,12,8,98,*4B
$GPGSV,3,3,9,120,,0,*43
$GPAPB,,,,,,,,,,,,,,*44
$GPGLL,4714.4418,N,00131.7978,W,061529,A*3C
$GPRMB,,,,,,,,,,,,,*66
$GPRMC,061529,A,4714.4418,N,00131.7978,W,12.2,304.0,130917,3.0,W*4A
$GPGGA,061529,4714.4418,N,00131.7978,W,1,4,4.40,24,M,,,,*2B
$GPGSA,A,3,29,31,25,26,,,,,,,,,5.40,4.40,3.20*08
$GPGSV,3,1,9,29,70,55,37,31,65,265,42,25,43,95,36,26,32,291,34*4D
$GPGSV,3,2,9,2,30,55,,21,27,170,,14,15,231,,12,8,98,*4B
$GPGSV,3,3,9,120,,0,*43
$GPAPB,,,,,,,,,,,,,,*44
$GPGLL,4714.4448,N,00131.8034,W,061531,A*3E
$GPRMB,,,,,,,,,,,,,*66
$GPRMC,061531,A,4714.4448,N,00131.8034,W,6.8,316.2,130917,3.0,W*76
$GPGGA,061531,4714.4448,N,00131.8034,W,1,4,4.40,25,M,,,,*28
$GPGSA,A,3,29,31,25,26,,,,,,,,,5.40,4.40,3.20*08
$GPGSV,3,1,9,29,70,55,37,31,65,265,42,25,43,95,36,26,32,291,34*4D
$GPGSV,3,2,9,2,30,55,,21,27,170,,14,15,231,,12,8,98,*4B
$GPGSV,3,3,9,120,,0,*43
$GPAPB,,,,,,,,,,,,,,*44
$GPGLL,4714.4461,N,00131.8050,W,061533,A*35
$GPRMB,,,,,,,,,,,,,*66
$GPRMC,061533,A,4714.4461,N,00131.8050,W,2.1,324.3,130917,3.0,W*70
$GPGGA,061533,4714.4461,N,00131.8050,W,1,4,4.40,26,M,,,,*20
$GPGSA,A,3,29,31,25,26,,,,,,,,,5.40,4.40,3.20*08
$GPGSV,3,1,9,29,70,55,37,31,65,265,42,25,43,95,35,26,32,291,31*4B
$GPGSV,3,2,9,2,30,55,,21,27,170,,14,15,231,,12,8,98,*4B
$GPGSV,3,3,9,120,,0,*43
$GPAPB,,,,,,,,,,,,,,*44
$GPGLL,4714.4462,N,00131.8048,W,061535,A*39
$GPRMB,,,,,,,,,,,,,*66
$GPRMC,061535,A,4714.4462,N,00131.8048,W,0.0,324.3,130917,3.0,W*7F
$GPGGA,061535,4714.4462,N,00131.8048,W,1,4,4.40,27,M,,,,*2D
$GPGSA,A,3,29,31,25,26,,,,,,,,,5.40,4.40,3.20*08
$GPGSV,3,1,9,29,70,55,37,31,65,265,42,25,43,95,35,26,32,291,31*4B
$GPGSV,3,2,9,2,30,55,,21,27,170,,14,15,231,,12,8,98,*4B
$GPGSV,3,3,9,120,,0,*43
$GPAPB,,,,,,,,,,,,,,*44
$GPGLL,4714.4459,N,00131.8047,W,061537,A*3C
$GPRMB,,,,,,,,,,,,,*66
$GPRMC,061537,A,4714.4459,N,00131.8047,W,0.0,324.3,130917,3.0,W*7A
$GPGGA,061537,4714.4459,N,00131.8047,W,1,4,4.40,27,M,,,,*28
$GPGSA,A,3,29,31,25,26,,,,,,,,,5.40,4.40,3.20*08
$GPGSV,3,1,9,29,70,55,39,31,65,265,42,25,43,95,35,26,32,291,30*44
$GPGSV,3,2,9,2,30,55,,21,27,170,,14,15,231,,12,8,98,*4B
$GPGSV,3,3,9,120,,0,*43
$GPAPB,,,,,,,,,,,,,,*44
$GPGLL,4714.4466,N,00131.8057,W,061539,A*3F
$GPRMB,,,,,,,,,,,,,*66
$GPRMC,061539,A,4714.4466,N,00131.8057,W,3.9,326.1,130917,3.0,W*73
$GPGGA,061539,4714.4466,N,00131.8057,W,1,4,4.30,27,M,,,,*2C
$GPGSA,A,3,29,31,25,26,,,,,,,,,5.40,4.30,3.20*0F
$GPGSV,3,1,9,29,70,55,39,31,65,265,42,25,43,95,35,26,32,291,30*44
$GPGSV,3,2,9,2,30,55,,21,27,170,,14,15,231,,12,8,98,*4B
$GPGSV,3,3,9,120,,0,*43
$GPAPB,,,,,,,,,,,,,,*44
$GPGLL,4714.4496,N,00131.8071,W,061541,A*3B
$GPRMB,,,,,,,,,,,,,*66
$GPRMC,061541,A,4714.4496,N,00131.8071,W,7.0,356.2,130917,3.0,W*7E
$GPGGA,061541,4714.4496,N,00131.8071,W,1,3,15.80,27,M,,,,*14
$GPGSA,A,2,29,31,25,,,,,,,,,,25.50,15.80,20.00*31
$GPGSV,3,1,9,29,70,55,39,31,65,265,42,25,43,95,35,26,32,291,*47
$GPGSV,3,2,9,2,30,55,,21,27,170,,14,15,231,,12,8,98,*4B
$GPGSV,3,3,9,120,,0,*43
$GPAPB,,,,,,,,,,,,,,*44
$GPGLL,4714.4535,N,00131.8061,W,061543,A*30
$GPRMB,,,,,,,,,,,,,*66
$GPRMC,061543,A,4714.4535,N,00131.8061,W,8.4,19.4,130917,3.0,W*40
$GPGGA,061543,4714.4535,N,00131.8061,W,1,3,15.80,27,M,,,,*1F
$GPGSA,A,2,29,31,25,,,,,,,,,,25.50,15.80,20.00*31
$GPGSV,3,1,9,29,70,55,42,31,65,265,37,25,43,95,37,26,32,291,*4B
$GPGSV,3,2,9,2,30,55,,21,27,170,,14,15,231,,12,8,98,*4B
$GPGSV,3,3,9,122,,0,*41
$GPAPB,,,,,,,,,,,,,,*44
$GPGLL,4714.4586,N,00131.8022,W,061545,A*39
$GPRMB,,,,,,,,,,,,,*66
$GPRMC,061545,A,4714.4586,N,00131.8022,W,12.1,33.5,130917,3.0,W*7E
$GPGGA,061545,4714.4586,N,00131.8022,W,1,3,15.80,27,M,,,,*16
$GPGSA,A,2,29,31,25,,,,,,,,,,25.50,15.80,20.00*31
$GPGSV,3,1,9,29,70,55,42,31,65,265,37,25,43,95,37,26,32,291,*4B
$GPGSV,3,2,9,2,30,55,,21,27,170,,14,15,231,,12,8,98,*4B
$GPGSV,3,3,9,122,,0,*41
$GPAPB,,,,,,,,,,,,,,*44
$GPGLL,4714.4649,N,00131.7953,W,061547,A*3B
$GPRMB,,,,,,,,,,,,,*66
$GPRMC,061547,A,4714.4649,N,00131.7953,W,14.7,38.3,130917,3.0,W*71
$GPGGA,061547,4714.4649,N,00131.7953,W,1,3,15.80,27,M,,,,*14
$GPGSA,A,2,29,31,25,,,,,,,,,,25.50,15.80,20.00*31
$GPGSV,3,1,9,29,70,55,41,31,65,265,39,25,43,95,38,26,32,291,*49
$GPGSV,3,2,9,2,30,55,,21,27,170,,14,15,231,,12,8,98,*4B
$GPGSV,3,3,9,122,,0,*41
$GPAPB,,,,,,,,,,,,,,*44
$GPGLL,4714.4720,N,00131.7878,W,061549,A*33
$GPRMB,,,,,,,,,,,,,*66
$GPRMC,061549,A,4714.4720,N,00131.7878,W,16.2,34.2,130917,3.0,W*73
$GPGGA,061549,4714.4720,N,00131.7878,W,1,3,15.70,27,M,,,,*13
$GPGSA,A,2,29,31,25,,,,,,,,,,25.40,15.70,20.00*3F
$GPGSV,3,1,9,29,70,55,41,31,65,265,39,25,43,95,38,26,32,291,*49
$GPGSV,3,2,9,2,30,55,,21,27,170,,14,15,231,,12,8,98,*4B
$GPGSV,3,3,9,122,,0,*41
$GPAPB,,,,,,,,,,,,,,*44
$GPGLL,4714.4799,N,00131.7795,W,061551,A*34
$GPRMB,,,,,,,,,,,,,*66
$GPRMC,061551,A,4714.4799,N,00131.7795,W,17.2,37.8,130917,3.0,W*7C
$GPGGA,061551,4714.4799,N,00131.7795,W,1,3,15.70,27,M,,,,*14
$GPGSA,A,2,29,31,25,,,,,,,,,,25.40,15.70,20.00*3F
$GPGSV,3,1,9,29,70,55,41,31,65,265,39,25,43,95,38,26,32,291,*49
$GPGSV,3,2,9,2,30,55,,21,27,170,,14,15,231,,12,8,98,*4B
$GPGSV,3,3,9,122,,0,*41
$GPAPB,,,,,,,,,,,,,,*44
$GPGLL,4714.4876,N,00131.7707,W,061553,A*33
$GPRMB,,,,,,,,,,,,,*66
$GPRMC,061553,A,4714.4876,N,00131.7707,W,16.8,37.8,130917,3.0,W*70
$GPGGA,061553,4714.4876,N,00131.7707,W,1,3,15.70,27,M,,,,*13
$GPGSA,A,2,29,31,25,,,,,,,,,,25.40,15.70,20.00*3F
$GPGSV,3,1,9,29,70,55,41,31,65,265,40,25,43,95,39,26,32,291,*46
$GPGSV,3,2,9,2,30,55,,21,27,170,,14,15,231,,12,8,98,*4B
$GPGSV,3,3,9,122,,0,*41
$GPAPB,,,,,,,,,,,,,,*44
$GPGLL,4714.4944,N,00131.7630,W,061555,A*30
$GPRMB,,,,,,,,,,,,,*66
$GPRMC,061555,A,4714.4944,N,00131.7630,W,14.5,36.7,130917,3.0,W*72
$GPGGA,061555,4714.4944,N,00131.7630,W,1,3,15.70,27,M,,,,*10
$GPGSA,A,2,29,31,25,,,,,,,,,,25.40,15.70,20.00*3F
$GPGSV,3,1,9,29,70,55,41,31,65,265,40,25,43,95,39,26,32,291,*46
$GPGSV,3,2,9,2,30,55,,21,27,170,,14,15,231,,12,8,98,*4B
$GPGSV,3,3,9,122,,0,*41
$GPAPB,,,,,,,,,,,,,,*44
$GPGLL,4714.4999,N,00131.7554,W,061557,A*33
$GPRMB,,,,,,,,,,,,,*66
$GPRMC,061557,A,4714.4999,N,00131.7554,W,13.7,38.2,130917,3.0,W*7F
$GPGGA,061557,4714.4999,N,00131.7554,W,1,4,4.30,28,M,,,,*2F
$GPGSA,A,3,29,31,25,26,,,,,,,,,5.40,4.30,3.20*0F
$GPGSV,3,1,9,29,70,55,41,31,65,265,40,25,43,95,36,26,32,291,29*42
$GPGSV,3,2,9,2,30,55,,21,27,170,,14,15,231,,12,8,98,*4B
$GPGSV,3,3,9,122,,0,*41
$GPAPB,,,,,,,,,,,,,,*44
$GPGLL,4714.5059,N,00131.7477,W,061559,A*39
$GPRMB,,,,,,,,,,,,,*66
$GPRMC,061559,A,4714.5059,N,00131.7477,W,15.8,36.0,130917,3.0,W*70
$GPGGA,061559,4714.5059,N,00131.7477,W,1,4,4.30,29,M,,,,*24
$GPGSA,A,3,29,31,25,26,,,,,,,,,5.40,4.30,3.20*0F
$GPGSV,3,1,9,29,70,55,41,31,65,265,40,25,43,95,36,26,32,291,29*42
$GPGSV,3,2,9,2,30,55,,21,27,170,,14,15,231,,12,8,98,*4B
$GPGSV,3,3,9,122,,0,*41
$GPAPB,,,,,,,,,,,,,,*44
$GPGLL,4714.5126,N,00131.7390,W,061601,A*30
$GPRMB,,,,,,,,,,,,,*66
$GPRMC,061601,A,4714.5126,N,00131.7390,W,16.5,40.7,130917,3.0,W*71
$GPGGA,061601,4714.5126,N,00131.7390,W,1,4,4.30,30,M,,,,*25
$GPGSA,A,3,29,31,25,26,,,,,,,,,5.40,4.30,3.20*0F
$GPGSV,3,1,9,29,70,55,41,31,65,265,40,25,43,95,36,26,32,291,29*42
$GPGSV,3,2,9,2,30,55,,21,27,170,,14,15,231,,12,8,98,*4B
$GPGSV,3,3,9,122,,0,*41
$GPAPB,,,,,,,,,,,,,,*44
$GPGLL,4714.5195,N,00131.7297,W,061603,A*3C
$GPRMB,,,,,,,,,,,,,*66
$GPRMC,061603,A,4714.5195,N,00131.7297,W,16.9,41.5,130917,3.0,W*72
$GPGGA,061603,4714.5195,N,00131.7297,W,1,4,4.30,29,M,,,,*21
$GPGSA,A,3,29,31,25,26,,,,,,,,,5.30,4.30,3.20*08
$GPGSV,3,1,9,29,70,55,40,31,65,265,35,25,43,95,39,26,32,291,23*44
$GPGSV,3,2,9,2,30,55,,21,27,170,,14,15,231,,12,8,98,*4B
$GPGSV,3,3,9,122,,0,*41
$GPAPB,,,,,,,,,,,,,,*44
$GPGLL,4714.5266,N,00131.7206,W,061605,A*3D
$GPRMB,,,,,,,,,,,,,*66
$GPRMC,061605,A,4714.5266,N,00131.7206,W,16.6,38.3,130917,3.0,W*74
$GPGGA,061605,4714.5266,N,00131.7206,W,1,3,15.60,29,M,,,,*12
$GPGSA,A,2,29,31,25,,,,,,,,,,25.30,15.60,20.00*39
$GPGSV,3,1,9,29,70,55,40,31,65,265,35,25,43,95,39,26,32,291,*45
$GPGSV,3,2,9,2,30,55,,21,27,170,,14,15,231,,12,8,98,*4B
$GPGSV,3,3,9,122,,0,*41
$GPAPB,,,,,,,,,,,,,,*44
$GPGLL,4714.5335,N,00131.7126,W,061607,A*39
$GPRMB,,,,,,,,,,,,,*66
$GPRMC,061607,A,4714.5335,N,00131.7126,W,14.2,36.9,130917,3.0,W*72
$GPGGA,061607,4714.5335,N,00131.7126,W,1,3,15.50,29,M,,,,*15
$GPGSA,A,2,29,31,25,,,,,,,,,,25.30,15.50,20.00*3A
$GPGSV,3,1,9,29,70,55,40,31,65,265,40,25,43,95,39,26,32,291,*47
$GPGSV,3,2,9,2,30,55,,21,27,170,,14,15,231,,12,8,98,*4B
$GPGSV,3,3,9,122,,0,*41
$GPAPB,,,,,,,,,,,,,,*44
$GPGLL,4714.5385,N,00131.7070,W,061609,A*3E
$GPRMB,,,,,,,,,,,,,*66
$GPRMC,061609,A,4714.5385,N,00131.7070,W,9.8,36.0,130917,3.0,W*4A
$GPGGA,061609,4714.5385,N,00131.7070,W,1,4,4.20,30,M,,,,*2A
$GPGSA,A,3,29,31,25,26,,,,,,,,,5.30,4.20,3.20*09
$GPGSV,3,1,9,29,70,55,40,31,65,265,40,25,43,95,39,26,32,291,27*42
$GPGSV,3,2,9,2,30,55,,21,27,170,,14,15,231,,12,8,98,*4B
$GPGSV,3,3,9,122,,0,*41
$GPAPB,,,,,,,,,,,,,,*44
$GPGLL,4714.5416,N,00131.7030,W,061611,A*3E
$GPRMB,,,,,,,,,,,,,*66
$GPRMC,061611,A,4714.5416,N,00131.7030,W,6.5,35.8,130917,3.0,W*43
$GPGGA,061611,4714.5416,N,00131.7030,W,1,4,4.20,32,M,,,,*28
$GPGSA,A,3,29,31,25,26,,,,,,,,,5.30,4.20,3.20*09
$GPGSV,3,1,9,29,70,55,40,31,65,265,40,25,43,95,39,26,32,291,27*42
$GPGSV,3,2,9,2,30,55,,21,27,170,,14,15,231,,12,8,98,*4B
$GPGSV,3,3,9,122,,0,*41
$GPAPB,,,,,,,,,,,,,,*44
$GPGLL,4714.5454,N,00131.6986,W,061608,A*35
$GPRMB,,,,,,,,,,,,,*66
$GPRMC,061608,A,4714.5454,N,00131.6986,W,6.2,41.8,130917,3.0,W*4C
$GPGGA,061608,4714.5454,N,00131.6986,W,1,4,4.20,32,M,,,,*23
$GPGSA,A,3,29,31,25,26,,,,,,,,,5.30,4.20,3.20*09
$GPGSV,3,1,9,29,70,55,40,31,65,265,40,25,43,95,37,26,32,291,35*4F
$GPGSV,3,2,9,2,30,55,,21,27,170,,14,15,231,,12,8,98,*4B
$GPGSV,3,3,9,122,,0,*41
$GPAPB,,,,,,,,,,,,,,*44
$GPGLL,4714.5482,N,00131.6956,W,061610,A*3A
$GPRMB,,,,,,,,,,,,,*66
$GPRMC,061610,A,4714.5482,N,00131.6956,W,5.9,41.8,130917,3.0,W*4B
$GPGGA,061610,4714.5482,N,00131.6956,W,1,4,4.20,31,M,,,,*2F
$GPGSA,A,3,29,31,25,26,,,,,,,,,5.30,4.20,3.20*09
$GPGSV,3,1,9,29,70,55,40,31,65,265,40,25,43,95,37,26,32,291,35*4F
$GPGSV,3,2,9,2,30,55,,21,27,170,,14,15,231,,12,8,98,*4B
$GPGSV,3,3,9,122,,0,*41
$GPAPB,,,,,,,,,,,,,,*44
$GPGLL,4714.5503,N,00131.6928,W,061612,A*39
$GPRMB,,,,,,,,,,,,,*66
$GPRMC,061612,A,4714.5503,N,00131.6928,W,4.3,41.5,130917,3.0,W*4E
$GPGGA,061612,4714.5503,N,00131.6928,W,1,4,4.20,31,M,,,,*2C
$GPGSA,A,3,29,31,25,26,,,,,,,,,5.30,4.20,3.20*09
$GPGSV,3,1,9,29,70,55,41,31,65,265,39,25,43,95,38,26,32,291,32*48
$GPGSV,3,2,9,2,30,55,,21,27,170,,14,15,231,,12,8,98,*4B
$GPGSV,3,3,9,122,,0,*41
$GPAPB,,,,,,,,,,,,,,*44
$GPGLL,4714.5509,N,00131.6917,W,061614,A*39
$GPRMB,,,,,,,,,,,,,*66
$GPRMC,061614,A,4714.5509,N,00131.6917,W,3.4,41.5,130917,3.0,W*4E
$GPGGA,061614,4714.5509,N,00131.6917,W,1,3,15.40,31,M,,,,*1D
$GPGSA,A,3,29,31,25,,,,,,,,,,25.20,15.40,20.00*3B
$GPGSV,3,1,9,29,70,55,41,31,65,265,39,25,43,95,38,26,32,291,*49
$GPGSV,3,2,9,2,30,55,,21,27,170,,14,15,231,,12,8,98,*4B
$GPGSV,3,3,9,122,,0,*41
$GPAPB,,,,,,,,,,,,,,*44
$GPGLL,4714.5528,N,00131.6885,W,061616,A*32
$GPRMB,,,,,,,,,,,,,*66
$GPRMC,061616,A,4714.5528,N,00131.6885,W,7.1,45.6,130917,3.0,W*43
$GPGGA,061616,4714.5528,N,00131.6885,W,1,4,4.20,32,M,,,,*24
$GPGSA,A,3,29,31,25,26,,,,,,,,,5.30,4.20,3.20*09
$GPGSV,3,1,9,29,70,55,41,31,65,265,39,25,43,95,38,26,32,291,32*48
$GPGSV,3,2,9,2,30,55,,21,27,170,,14,15,231,,12,8,98,*4B
$GPGSV,3,3,9,122,,0,*41
$GPAPB,,,,,,,,,,,,,,*44
$GPGLL,4714.5570,N,00131.6835,W,061618,A*3A
$GPRMB,,,,,,,,,,,,,*66
$GPRMC,061618,A,4714.5570,N,00131.6835,W,11.7,38.3,130917,3.0,W*75
$GPGGA,061618,4714.5570,N,00131.6835,W,1,4,4.20,31,M,,,,*2F
$GPGSA,A,3,29,31,25,26,,,,,,,,,5.30,4.20,3.20*09
$GPGSV,3,1,10,29,69,55,41,31,65,264,40,25,42,95,40,26,32,291,33*78
$GPGSV,3,2,10,2,30,55,,21,27,170,,14,15,231,,12,7,99,*7D
$GPGSV,3,3,10,16,5,284,,122,,0,*75
$GPAPB,,,,,,,,,,,,,,*44
$GPGLL,4714.5630,N,00131.6767,W,061620,A*3E
$GPRMB,,,,,,,,,,,,,*66
$GPRMC,061620,A,4714.5630,N,00131.6767,W,14.2,38.2,130917,3.0,W*70
$GPGGA,061620,4714.5630,N,00131.6767,W,1,4,4.20,30,M,,,,*2A
$GPGSA,A,3,29,31,25,26,,,,,,,,,5.30,4.20,3.20*09
$GPGSV,3,1,10,29,69,55,41,31,65,264,40,25,42,95,40,26,32,291,33*78
$GPGSV,3,2,10,2,30,55,,21,27,170,,14,15,231,,12,7,99,*7D
$GPGSV,3,3,10,16,5,284,,122,,0,*75
$GPAPB,,,,,,,,,,,,,,*44
$GPGLL,4714.5694,N,00131.6699,W,061622,A*32
$GPRMB,,,,,,,,,,,,,*66
$GPRMC,061622,A,4714.5694,N,00131.6699,W,14.5,38.2,130917,3.0,W*7B
$GPGGA,061622,4714.5694,N,00131.6699,W,1,4,4.20,29,M,,,,*2E
$GPGSA,A,3,29,31,25,26,,,,,,,,,5.30,4.20,3.20*09
$GPGSV,3,1,10,29,69,55,41,31,65,264,40,25,42,95,38,26,32,291,35*71
$GPGSV,3,2,10,2,30,55,,21,27,170,,14,15,231,,12,7,99,*7D
$GPGSV,3,3,10,16,5,284,,122,,0,*75
$GPAPB,,,,,,,,,,,,,,*44
$GPGLL,4714.5758,N,00131.6625,W,061624,A*32
$GPRMB,,,,,,,,,,,,,*66
$GPRMC,061624,A,4714.5758,N,00131.6625,W,15.0,38.4,130917,3.0,W*79
$GPGGA,061624,4714.5758,N,00131.6625,W,1,3,15.30,28,M,,,,*19
$GPGSA,A,2,29,31,25,,,,,,,,,,25.20,15.30,20.00*3D
$GPGSV,3,1,10,29,69,55,41,31,65,264,40,25,42,95,38,26,32,291,*77
$GPGSV,3,2,10,2,30,55,,21,27,170,,14,15,231,,12,7,99,*7D
$GPGSV,3,3,10,16,5,284,,122,,0,*75
$GPAPB,,,,,,,,,,,,,,*44
$GPGLL,4714.5821,N,00131.6552,W,061626,A*32
$GPRMB,,,,,,,,,,,,,*66
$GPRMC,061626,A,4714.5821,N,00131.6552,W,14.1,38.6,130917,3.0,W*7B
$GPGGA,061626,4714.5821,N,00131.6552,W,1,3,15.30,29,M,,,,*18
$GPGSA,A,2,29,31,25,,,,,,,,,,25.20,15.30,20.00*3D
$GPGSV,3,1,10,29,69,55,41,31,65,264,40,25,42,95,38,26,32,291,*77
$GPGSV,3,2,10,2,30,55,,21,27,170,,14,15,231,,12,7,99,*7D
$GPGSV,3,3,10,16,5,284,,122,,0,*75
$GPAPB,,,,,,,,,,,,,,*44
$GPGLL,4714.5875,N,00131.6480,W,061628,A*33
$GPRMB,,,,,,,,,,,,,*66
$GPRMC,061628,A,4714.5875,N,00131.6480,W,12.3,46.3,130917,3.0,W*72
$GPGGA,061628,4714.5875,N,00131.6480,W,1,3,15.20,29,M,,,,*18
$GPGSA,A,2,29,31,25,,,,,,,,,,25.10,15.20,20.00*3F
$GPGSV,3,1,10,29,69,55,41,31,65,264,38,25,42,95,38,26,32,291,*78
$GPGSV,3,2,10,2,30,55,,21,27,170,,14,15,231,,12,7,99,*7D
$GPGSV,3,3,10,16,5,284,,122,,0,*75
$GPAPB,,,,,,,,,,,,,,*44
$GPGLL,4714.5913,N,00131.6401,W,061630,A*32
$GPRMB,,,,,,,,,,,,,*66
$GPRMC,061630,A,4714.5913,N,00131.6401,W,11.7,53.8,130917,3.0,W*7B
$GPGGA,061630,4714.5913,N,00131.6401,W,1,3,15.20,29,M,,,,*19
$GPGSA,A,2,29,31,25,,,,,,,,,,25.10,15.20,20.00*3F
$GPGSV,3,1,10,29,69,55,41,31,65,264,38,25,42,95,38,26,32,291,*78
$GPGSV,3,2,10,2,30,55,,21,27,170,,14,15,231,,12,7,99,*7D
$GPGSV,3,3,10,16,5,284,,122,,0,*75
$GPAPB,,,,,,,,,,,,,,*44
$GPGLL,4714.5965,N,00131.6337,W,061632,A*33
$GPRMB,,,,,,,,,,,,,*66
$GPRMC,061632,A,4714.5965,N,00131.6337,W,12.3,23.3,130917,3.0,W*71
$GPGGA,061632,4714.5965,N,00131.6337,W,1,5,2.70,29,M,,,,*2D
$GPGSA,A,3,29,31,25,26,,,2,,,,,,4.10,2.70,3.10*38
$GPGSV,3,1,10,29,69,55,41,31,65,264,40,25,42,95,38,26,32,291,33*77
$GPGSV,3,2,10,21,27,170,,14,15,230,,2,14,39,33,12,7,99,*70
$GPGSV,3,3,10,16,5,284,,122,,0,*75
$GPAPB,,,,,,,,,,,,,,*44
$GPGLL,4714.6032,N,00131.6289,W,061634,A*39
$GPRMB,,,,,,,,,,,,,*66
$GPRMC,061634,A,4714.6032,N,00131.6289,W,14.8,31.9,130917,3.0,W*7F
$GPGGA,061634,4714.6032,N,00131.6289,W,1,5,2.70,29,M,,,,*27
$GPGSA,A,3,29,31,25,26,,,2,,,,,,4.10,2.70,3.10*38
$GPGSV,3,1,10,29,69,55,41,31,65,264,40,25,42,95,38,26,32,291,33*77
$GPGSV,3,2,10,21,27,170,,14,15,230,,2,14,39,33,12,7,99,*70
$GPGSV,3,3,10,16,5,284,,122,,0,*75
$GPAPB,,,,,,,,,,,,,,*44
$GPGLL,4714.6107,N,00131.6212,W,061636,A*3E
$GPRMB,,,,,,,,,,,,,*66
$GPRMC,061636,A,4714.6107,N,00131.6212,W,17.7,36.6,130917,3.0,W*7C
$GPGGA,061636,4714.6107,N,00131.6212,W,1,5,2.70,29,M,,,,*20
$GPGSA,A,3,29,31,25,26,,,2,,,,,,4.10,2.70,3.10*38
$GPGSV,3,1,10,29,69,55,41,31,65,264,40,25,42,95,38,26,32,291,33*77
$GPGSV,3,2,10,21,27,170,,14,15,230,,2,14,39,33,12,7,99,*70
$GPGSV,3,3,10,16,5,284,,122,,0,*75
$GPAPB,,,,,,,,,,,,,,*44
$GPGLL,4714.6191,N,00131.6117,W,061638,A*39
$GPRMB,,,,,,,,,,,,,*66
$GPRMC,061638,A,4714.6191,N,00131.6117,W,20.0,37.8,130917,3.0,W*77
$GPGGA,061638,4714.6191,N,00131.6117,W,1,4,3.10,29,M,,,,*21
$GPGSA,A,3,29,31,25,,,,2,,,,,,4.90,3.10,3.80*3A
$GPGSV,3,1,10,29,69,55,41,31,65,264,40,25,42,95,39,26,32,291,*76
$GPGSV,3,2,10,21,27,170,,14,15,230,,2,14,39,34,12,7,99,*77
$GPGSV,3,3,10,16,5,284,,122,,0,*75
$GPAPB,,,,,,,,,,,,,,*44
$GPGLL,4714.6284,N,00131.6015,W,061640,A*32
$GPRMB,,,,,,,,,,,,,*66
$GPRMC,061640,A,4714.6284,N,00131.6015,W,21.6,36.6,130917,3.0,W*74
$GPGGA,061640,4714.6284,N,00131.6015,W,1,5,2.70,29,M,,,,*2C
$GPGSA,A,3,29,31,25,26,,,2,,,,,,4.10,2.70,3.10*38
$GPGSV,3,1,10,29,69,55,41,31,65,264,40,25,42,95,39,26,32,291,28*7C
$GPGSV,3,2,10,21,27,170,,14,15,230,,2,14,39,34,12,7,99,*77
$GPGSV,3,3,10,16,5,284,,122,,0,*75
$GPAPB,,,,,,,,,,,,,,*44
$GPGLL,4714.6383,N,00131.5914,W,061642,A*3D
$GPRMB,,,,,,,,,,,,,*66
$GPRMC,061642,A,4714.6383,N,00131.5914,W,21.4,35.0,130917,3.0,W*7C
$GPGGA,061642,4714.6383,N,00131.5914,W,1,5,2.70,28,M,,,,*22
$GPGSA,A,3,29,31,25,26,,,2,,,,,,4.10,2.70,3.10*38
$GPGSV,3,1,10,29,69,55,41,31,65,264,41,25,42,95,36,26,32,291,36*7D
$GPGSV,3,2,10,21,27,170,,14,15,230,,2,14,39,33,12,7,99,*70
$GPGSV,3,3,10,16,5,284,,122,,0,*75
$GPAPB,,,,,,,,,,,,,,*44
$GPGLL,4714.6481,N,00131.5814,W,061644,A*3F
$GPRMB,,,,,,,,,,,,,*66
$GPRMC,061644,A,4714.6481,N,00131.5814,W,21.9,35.1,130917,3.0,W*72
$GPGGA,061644,4714.6481,N,00131.5814,W,1,4,4.10,28,M,,,,*21
$GPGSA,A,3,29,31,25,26,,,,,,,,,5.20,4.10,3.20*0B
$GPGSV,3,1,10,29,69,55,41,31,65,264,41,25,42,95,36,26,32,291,36*7D
$GPGSV,3,2,10,21,27,170,,14,15,230,,2,14,39,,12,7,99,*70
$GPGSV,3,3,10,16,5,284,,122,,0,*75
$GPAPB,,,,,,,,,,,,,,*44
$GPGLL,4714.6581,N,00131.5709,W,061646,A*3F
$GPRMB,,,,,,,,,,,,,*66
$GPRMC,061646,A,4714.6581,N,00131.5709,W,22.3,36.5,130917,3.0,W*7C
$GPGGA,061646,4714.6581,N,00131.5709,W,1,3,15.10,28,M,,,,*16
$GPGSA,A,2,29,31,25,,,,,,,,,,25.00,15.10,20.00*3D
$GPGSV,3,1,10,29,69,55,41,31,65,264,41,25,42,95,36,26,32,291,*78
$GPGSV,3,2,10,21,27,170,,14,15,230,,2,14,39,,12,7,99,*70
$GPGSV,3,3,10,16,5,284,,122,,0,*75
$GPAPB,,,,,,,,,,,,,,*44
$GPGLL,4714.6679,N,00131.5603,W,061648,A*3E
$GPRMB,,,,,,,,,,,,,*66
$GPRMC,061648,A,4714.6679,N,00131.5603,W,21.3,37.7,130917,3.0,W*7D
$GPGGA,061648,4714.6679,N,00131.5603,W,1,3,15.00,28,M,,,,*16
$GPGSA,A,2,29,31,25,,,,,,,,,,25.00,15.00,20.00*3C
$GPGSV,3,1,10,29,69,55,38,31,65,264,40,25,42,95,31,26,32,291,*70
$GPGSV,3,2,10,21,27,170,,14,15,230,,2,14,38,,12,7,99,*71
$GPGSV,3,3,10,16,5,284,,122,,0,*75
$GPAPB,,,,,,,,,,,,,,*44
$GPGLL,4714.6772,N,00131.5498,W,061650,A*3D
$GPRMB,,,,,,,,,,,,,*66
$GPRMC,061650,A,4714.6772,N,00131.5498,W,20.9,37.2,130917,3.0,W*70
$GPGGA,061650,4714.6772,N,00131.5498,W,1,3,15.00,28,M,,,,*15
$GPGSA,A,2,29,31,25,,,,,,,,,,25.00,15.00,20.00*3C
$GPGSV,3,1,10,29,69,55,38,31,65,264,40,25,42,95,31,26,32,291,*70
$GPGSV,3,2,10,21,27,170,,14,15,230,,2,14,38,,12,7,99,*71
$GPGSV,3,3,10,16,5,284,,122,,0,*75
$GPAPB,,,,,,,,,,,,,,*44
$GPGLL,4714.6866,N,00131.5393,W,061652,A*39
$GPRMB,,,,,,,,,,,,,*66
$GPRMC,061652,A,4714.6866,N,00131.5393,W,21.2,37.0,130917,3.0,W*7C
$GPGGA,061652,4714.6866,N,00131.5393,W,1,3,15.00,29,M,,,,*10
$GPGSA,A,2,29,31,25,,,,,,,,,,25.00,15.00,20.00*3C
$GPGSV,3,1,10,29,69,55,39,31,65,264,37,25,42,95,35,26,32,291,*75
$GPGSV,3,2,10,21,27,170,,14,15,230,,2,14,38,,12,7,99,*71
$GPGSV,3,3,10,16,5,284,,122,,0,*75
$GPAPB,,,,,,,,,,,,,,*44
$GPGLL,4714.6961,N,00131.5286,W,061654,A*3C
$GPRMB,,,,,,,,,,,,,*66
$GPRMC,061654,A,4714.6961,N,00131.5286,W,20.8,36.0,130917,3.0,W*73
$GPGGA,061654,4714.6961,N,00131.5286,W,1,5,2.70,29,M,,,,*22
$GPGSA,A,3,29,31,25,26,,,2,,,,,,4.10,2.70,3.10*38
$GPGSV,3,1,10,29,69,55,39,31,65,264,37,25,42,95,35,26,32,291,28*7F
$GPGSV,3,2,10,21,27,170,,14,15,230,,2,14,38,26,12,7,99,*75
$GPGSV,3,3,10,16,5,284,,122,,0,*75
$GPAPB,,,,,,,,,,,,,,*44
$GPGLL,4714.7050,N,00131.5189,W,061656,A*38
$GPRMB,,,,,,,,,,,,,*66
$GPRMC,061656,A,4714.7050,N,00131.5189,W,19.5,37.1,130917,3.0,W*70
$GPGGA,061656,4714.7050,N,00131.5189,W,1,4,3.10,30,M,,,,*28
$GPGSA,A,3,29,31,25,,,,2,,,,,,4.90,3.10,3.80*3A
$GPGSV,3,1,10,29,69,55,39,31,65,264,37,25,42,95,35,26,32,291,*75
$GPGSV,3,2,10,21,27,170,,14,15,230,,2,14,38,26,12,7,99,*75
$GPGSV,3,3,10,16,5,284,,122,,0,*75
$GPAPB,,,,,,,,,,,,,,*44
$GPGLL,4714.7134,N,00131.5092,W,061658,A*3E
$GPRMB,,,,,,,,,,,,,*66
$GPRMC,061658,A,4714.7134,N,00131.5092,W,19.3,37.7,130917,3.0,W*76
$GPGGA,061658,4714.7134,N,00131.5092,W,1,4,3.10,30,M,,,,*2E
$GPGSA,A,3,29,31,25,,,,2,,,,,,4.90,3.10,3.80*3A
$GPGSV,3,1,10,29,69,55,41,31,65,264,40,25,42,95,33,26,32,291,*7C
$GPGSV,3,2,10,21,27,170,,14,15,230,,2,14,38,29,12,7,99,*7A
$GPGSV,3,3,10,16,5,284,,122,,0,*75
$GPAPB,,,,,,,,,,,,,,*44
$GPGLL,4714.7218,N,00131.4994,W,061700,A*31
$GPRMB,,,,,,,,,,,,,*66
$GPRMC,061700,A,4714.7218,N,00131.4994,W,19.4,39.5,130917,3.0,W*72
$GPGGA,061700,4714.7218,N,00131.4994,W,1,5,2.70,31,M,,,,*26
$GPGSA,A,3,29,31,25,26,,,2,,,,,,4.10,2.70,3.10*38
$GPGSV,3,1,10,29,69,55,41,31,65,264,40,25,42,95,33,26,32,291,31*7E
$GPGSV,3,2,10,21,27,170,,14,15,230,,2,14,38,29,12,7,99,*7A
$GPGSV,3,3,10,16,5,284,,122,,0,*75
$GPAPB,,,,,,,,,,,,,,*44
$GPGLL,4714.7301,N,00131.4894,W,061702,A*3B
$GPRMB,,,,,,,,,,,,,*66
$GPRMC,061702,A,4714.7301,N,00131.4894,W,19.2,39.2,130917,3.0,W*79
$GPGGA,061702,4714.7301,N,00131.4894,W,1,5,2.70,31,M,,,,*2C
$GPGSA,A,3,29,31,25,26,,,2,,,,,,4.10,2.70,3.10*38
$GPGSV,3,1,10,29,69,55,42,31,65,264,40,25,42,95,40,26,32,291,32*7A
$GPGSV,3,2,10,21,27,170,,14,15,230,,2,14,38,34,12,7,99,*76
$GPGSV,3,3,10,16,5,284,,122,,0,*75
$GPAPB,,,,,,,,,,,,,,*44
$GPGLL,4714.7384,N,00131.4797,W,061704,A*3C
$GPRMB,,,,,,,,,,,,,*66
$GPRMC,061704,A,4714.7384,N,00131.4797,W,19.1,38.0,130917,3.0,W*7E
$GPGGA,061704,4714.7384,N,00131.4797,W,1,4,3.10,31,M,,,,*2D
$GPGSA,A,3,29,31,25,,,,2,,,,,,4.90,3.10,3.80*3A
$GPGSV,3,1,10,29,69,55,42,31,65,264,40,25,42,95,40,26,32,291,*7B
$GPGSV,3,2,10,21,27,170,,14,15,230,,2,14,38,34,12,7,99,*76
$GPGSV,3,3,10,16,5,284,,122,,0,*75
$GPAPB,,,,,,,,,,,,,,*44
$GPGLL,4714.7467,N,00131.4700,W,061706,A*3A
$GPRMB,,,,,,,,,,,,,*66
$GPRMC,061706,A,4714.7467,N,00131.4700,W,19.0,37.6,130917,3.0,W*70
$GPGGA,061706,4714.7467,N,00131.4700,W,1,4,3.10,31,M,,,,*2B
$GPGSA,A,3,29,31,25,,,,2,,,,,,4.90,3.10,3.80*3A
$GPGSV,3,1,10,29,69,55,42,31,65,264,40,25,42,95,40,26,32,291,*7B
$GPGSV,3,2,10,21,27,170,,14,15,230,,2,14,38,34,12,7,99,*76
$GPGSV,3,3,10,16,5,284,,122,,0,*75
$GPAPB,,,,,,,,,,,,,,*44
$GPGLL,4714.7554,N,00131.4606,W,061708,A*32
$GPRMB,,,,,,,,,,,,,*66
$GPRMC,061708,A,4714.7554,N,00131.4606,W,19.6,36.4,130917,3.0,W*7D
$GPGGA,061708,4714.7554,N,00131.4606,W,1,4,4.10,32,M,,,,*27
$GPGSA,A,3,29,31,25,26,,,,,,,,,5.20,4.10,3.20*0B
$GPGSV,3,1,10,29,69,55,42,31,65,264,40,25,42,95,35,26,32,291,34*7E
$GPGSV,3,2,10,21,27,170,,14,15,230,,2,14,38,,12,7,99,*71
$GPGSV,3,3,10,16,5,284,,122,,0,*75
$GPAPB,,,,,,,,,,,,,,*44
$GPGLL,4714.7640,N,00131.4512,W,061710,A*3B
$GPRMB,,,,,,,,,,,,,*66
$GPRMC,061710,A,4714.7640,N,00131.4512,W,18.6,37.1,130917,3.0,W*71
$GPGGA,061710,4714.7640,N,00131.4512,W,1,3,14.80,32,M,,,,*11
$GPGSA,A,2,29,31,25,,,,,,,,,,24.90,14.80,20.00*3D
$GPGSV,3,1,10,29,69,55,42,31,65,264,40,25,42,95,35,26,32,291,*79
$GPGSV,3,2,10,21,27,170,,14,15,230,,2,14,38,,12,7,99,*71
$GPGSV,3,3,10,16,5,284,,122,,0,*75
$GPAPB,,,,,,,,,,,,,,*44
$GPGLL,4714.7726,N,00131.4425,W,061712,A*3D
$GPRMB,,,,,,,,,,,,,*66
$GPRMC,061712,A,4714.7726,N,00131.4425,W,17.6,33.1,130917,3.0,W*7C
$GPGGA,061712,4714.7726,N,00131.4425,W,1,4,4.00,33,M,,,,*28
$GPGSA,A,3,29,31,25,26,,,,,,,,,5.20,4.00,3.20*0A
$GPGSV,3,1,10,29,69,55,38,31,65,264,40,25,42,95,31,26,32,291,28*7A
$GPGSV,3,2,10,21,27,170,,14,15,230,,2,14,38,,12,7,99,*71
$GPGSV,3,3,10,16,5,284,,122,,0,*75
$GPAPB,,,,,,,,,,,,,,*44
$GPGLL,4714.7789,N,00131.4356,W,061714,A*3D
$GPRMB,,,,,,,,,,,,,*66
$GPRMC,061714,A,4714.7789,N,00131.4356,W,13.1,32.6,130917,3.0,W*79
$GPGGA,061714,4714.7789,N,00131.4356,W,1,4,4.00,34,M,,,,*2F
$GPGSA,A,3,29,31,25,26,,,,,,,,,5.20,4.00,3.20*0A
$GPGSV,3,1,10,29,69,55,38,31,65,264,40,25,42,95,31,26,32,291,28*7A
$GPGSV,3,2,10,21,27,170,,14,15,230,,2,14,38,,12,7,99,*71
$GPGSV,3,3,10,16,5,284,,122,,0,*75
$GPAPB,,,,,,,,,,,,,,*44
$GPGLL,4714.7828,N,00131.4312,W,061716,A*3B
$GPRMB,,,,,,,,,,,,,*66
$GPRMC,061716,A,4714.7828,N,00131.4312,W,6.7,33.4,130917,3.0,W*4E
$GPGGA,061716,4714.7828,N,00131.4312,W,1,3,14.80,34,M,,,,*17
$GPGSA,A,2,29,31,25,,,,,,,,,,24.90,14.80,20.00*3D
$GPGSV,3,1,10,29,69,55,38,31,65,264,40,25,42,95,31,26,32,291,*70
$GPGSV,3,2,10,21,27,170,,14,15,230,,2,14,38,,12,7,99,*71
$GPGSV,3,3,10,16,5,284,,122,,0,*75
$GPAPB,,,,,,,,,,,,,,*44
$GPGLL,4714.7835,N,00131.4305,W,061718,A*3F
$GPRMB,,,,,,,,,,,,,*66
$GPRMC,061718,A,4714.7835,N,00131.4305,W,3.0,29.8,130917,3.0,W*4F
$GPGGA,061718,4714.7835,N,00131.4305,W,1,4,4.00,34,M,,,,*2D
$GPGSA,A,3,29,31,25,26,,,,,,,,,5.20,4.00,3.20*0A
$GPGSV,3,1,10,29,69,55,37,31,65,263,41,25,42,95,35,26,32,291,22*7D
$GPGSV,3,2,10,21,27,170,,14,14,230,,2,14,38,,12,7,99,*70
$GPGSV,3,3,10,16,6,284,,122,,0,*76
$GPAPB,,,,,,,,,,,,,,*44
$GPGLL,4714.7843,N,00131.4301,W,061720,A*31
$GPRMB,,,,,,,,,,,,,*66
$GPRMC,061720,A,4714.7843,N,00131.4301,W,0.6,29.8,130917,3.0,W*44
$GPGGA,061720,4714.7843,N,00131.4301,W,1,4,4.00,32,M,,,,*25
$GPGSA,A,3,29,31,25,26,,,,,,,,,5.20,4.00,3.20*0A
$GPGSV,3,1,10,29,69,55,37,31,65,263,41,25,42,95,35,26,32,291,22*7D
$GPGSV,3,2,10,21,27,170,,14,14,230,,2,14,38,,12,7,99,*70
$GPGSV,3,3,10,16,6,284,,122,,0,*76
$GPAPB,,,,,,,,,,,,,,*44
$GPGLL,4714.7842,N,00131.4304,W,061722,A*37
$GPRMB,,,,,,,,,,,,,*66
$GPRMC,061722,A,4714.7842,N,00131.4304,W,0.0,29.8,130917,3.0,W*44
$GPGGA,061722,4714.7842,N,00131.4304,W,1,3,14.70,32,M,,,,*12
$GPGSA,A,2,29,31,25,,,,,,,,,,24.80,14.70,20.00*33
$GPGSV,3,1,10,29,69,55,36,31,65,263,39,25,42,95,33,26,32,291,*75
$GPGSV,3,2,10,21,27,170,,14,14,230,,2,14,38,,12,7,99,*70
$GPGSV,3,3,10,16,6,284,,122,,0,*76
$GPAPB,,,,,,,,,,,,,,*44
$GPGLL,4714.7841,N,00131.4296,W,061724,A*38
$GPRMB,,,,,,,,,,,,,*66
$GPRMC,061724,A,4714.7841,N,00131.4296,W,4.5,53.9,130917,3.0,W*46
$GPGGA,061724,4714.7841,N,00131.4296,W,1,3,14.70,32,M,,,,*1D
$GPGSA,A,2,29,31,25,,,,,,,,,,24.80,14.70,20.00*33
$GPGSV,3,1,10,29,69,55,36,31,65,263,39,25,42,95,33,26,32,291,*75
$GPGSV,3,2,10,21,27,170,,14,14,230,,2,14,38,,12,7,99,*70
$GPGSV,3,3,10,16,6,284,,134,,0,*71
$GPAPB,,,,,,,,,,,,,,*44
$GPGLL,4714.7869,N,00131.4260,W,061726,A*39
$GPRMB,,,,,,,,,,,,,*66
$GPRMC,061726,A,4714.7869,N,00131.4260,W,6.3,40.5,130917,3.0,W*4D
$GPGGA,061726,4714.7869,N,00131.4260,W,1,4,4.00,31,M,,,,*2E
$GPGSA,A,3,29,31,25,26,,,,,,,,,5.10,4.00,3.20*09
$GPGSV,3,1,10,29,69,55,36,31,65,263,39,25,42,95,33,26,32,291,27*70
$GPGSV,3,2,10,21,27,170,,14,14,230,,2,14,38,,12,7,99,*70
$GPGSV,3,3,10,16,6,284,,134,,0,*71
$GPAPB,,,,,,,,,,,,,,*44
$GPGLL,4714.7895,N,00131.4222,W,061728,A*32
$GPRMB,,,,,,,,,,,,,*66
$GPRMC,061728,A,4714.7895,N,00131.4222,W,6.8,36.0,130917,3.0,W*49
$GPGGA,061728,4714.7895,N,00131.4222,W,1,4,4.00,32,M,,,,*26
$GPGSA,A,3,29,31,25,26,,,,,,,,,5.10,4.00,3.20*09
$GPGSV,3,1,10,29,69,55,36,31,65,263,40,25,42,95,35,26,32,291,28*77
$GPGSV,3,2,10,21,27,170,,14,14,230,,2,14,38,,12,7,99,*70
$GPGSV,3,3,10,16,6,284,,134,,0,*71
$GPAPB,,,,,,,,,,,,,,*44
$GPGLL,4714.7932,N,00131.4184,W,061730,A*38
$GPRMB,,,,,,,,,,,,,*66
$GPRMC,061730,A,4714.7932,N,00131.4184,W,9.2,32.6,130917,3.0,W*44
$GPGGA,061730,4714.7932,N,00131.4184,W,1,4,4.00,32,M,,,,*2C
$GPGSA,A,3,29,31,25,26,,,,,,,,,5.10,4.00,3.20*09
$GPGSV,3,1,10,29,69,55,36,31,65,263,40,25,42,95,35,26,32,291,28*77
$GPGSV,3,2,10,21,27,170,,14,14,230,,2,14,38,,12,7,99,*70
$GPGSV,3,3,10,16,6,284,,134,,0,*71
$GPAPB,,,,,,,,,,,,,,*44
$GPGLL,4714.7977,N,00131.4143,W,061732,A*30
$GPRMB,,,,,,,,,,,,,*66
$GPRMC,061732,A,4714.7977,N,00131.4143,W,9.1,33.4,130917,3.0,W*4C
$GPGGA,061732,4714.7977,N,00131.4143,W,1,3,14.60,32,M,,,,*14
$GPGSA,A,2,29,31,25,,,,,,,,,,24.80,14.60,20.00*32
$GPGSV,3,1,10,29,69,55,40,31,65,263,39,25,42,95,35,26,32,291,*72
$GPGSV,3,2,10,21,27,170,,14,14,230,,2,14,38,,12,7,99,*70
$GPGSV,3,3,10,16,6,284,,134,,0,*71
$GPAPB,,,,,,,,,,,,,,*44
$GPGLL,4714.8010,N,00131.4108,W,061734,A*3E
$GPRMB,,,,,,,,,,,,,*66
$GPRMC,061734,A,4714.8010,N,00131.4108,W,6.6,35.6,130917,3.0,W*4E
$GPGGA,061734,4714.8010,N,00131.4108,W,1,5,2.70,30,M,,,,*28
$GPGSA,A,3,29,31,25,26,,,2,,,,,,4.10,2.70,3.00*39
$GPGSV,3,1,10,29,69,55,40,31,65,263,39,25,42,95,35,26,32,291,24*74
$GPGSV,3,2,10,21,27,170,,14,14,230,,2,14,38,26,12,7,99,*74
$GPGSV,3,3,10,16,6,284,,134,,0,*71
$GPAPB,,,,,,,,,,,,,,*44
$GPGLL,4714.8031,N,00131.4093,W,061736,A*3C
$GPRMB,,,,,,,,,,,,,*66
$GPRMC,061736,A,4714.8031,N,00131.4093,W,2.9,28.0,130917,3.0,W*4D
$GPGGA,061736,4714.8031,N,00131.4093,W,1,5,2.70,32,M,,,,*28
$GPGSA,A,3,29,31,25,26,,,2,,,,,,4.10,2.70,3.00*39
$GPGSV,3,1,10,29,69,55,40,31,65,263,39,25,42,95,35,26,32,291,24*74
$GPGSV,3,2,10,21,27,170,,14,14,230,,2,14,38,26,12,7,99,*74
$GPGSV,3,3,10,16,6,284,,134,,0,*71
$GPAPB,,,,,,,,,,,,,,*44
$GPGLL,4714.8040,N,00131.4091,W,061738,A*36
$GPRMB,,,,,,,,,,,,,*66
$GPRMC,061738,A,4714.8040,N,00131.4091,W,0.5,24.0,130917,3.0,W*45
$GPGGA,061738,4714.8040,N,00131.4091,W,1,4,10.10,33,M,,,,*17
$GPGSA,A,3,29,31,,26,,,2,,,,,,13.10,10.10,8.30*35
$GPGSV,3,1,10,29,69,55,41,31,65,263,40,25,42,95,,26,32,291,35*7D
$GPGSV,3,2,10,21,27,170,,14,14,230,,2,14,38,29,12,7,99,*7B
$GPGSV,3,3,10,16,6,284,,134,,0,*71
$GPAPB,,,,,,,,,,,,,,*44
$GPGLL,4714.8040,N,00131.4094,W,061740,A*3C
$GPRMB,,,,,,,,,,,,,*66
$GPRMC,061740,A,4714.8040,N,00131.4094,W,0.0,24.0,130917,3.0,W*4A
$GPGGA,061740,4714.8040,N,00131.4094,W,1,4,10.10,33,M,,,,*1D
$GPGSA,A,3,29,31,,26,,,2,,,,,,13.00,10.10,8.30*34
$GPGSV,3,1,10,29,69,55,41,31,65,263,40,25,42,95,,26,32,291,35*7D
$GPGSV,3,2,10,21,27,170,,14,14,230,,2,14,38,29,12,7,99,*7B
$GPGSV,3,3,10,16,6,284,,134,,0,*71
$GPAPB,,,,,,,,,,,,,,*44
$GPGLL,4714.8040,N,00131.4093,W,061742,A*39
$GPRMB,,,,,,,,,,,,,*66
$GPRMC,061742,A,4714.8040,N,00131.4093,W,0.0,24.0,130917,3.0,W*4F
$GPGGA,061742,4714.8040,N,00131.4093,W,1,5,2.70,33,M,,,,*2C
$GPGSA,A,3,29,31,25,26,,,2,,,,,,4.00,2.70,3.00*38
$GPGSV,3,1,10,29,69,55,38,31,65,263,38,25,42,95,32,26,32,291,36*7E
$GPGSV,3,2,10,21,27,170,,14,14,230,,2,14,38,30,12,7,99,*73
$GPGSV,3,3,10,16,6,284,,134,,0,*71
$GPAPB,,,,,,,,,,,,,,*44
$GPGLL,4714.8040,N,00131.4088,W,061744,A*35
$GPRMB,,,,,,,,,,,,,*66
$GPRMC,061744,A,4714.8040,N,00131.4088,W,0.0,24.0,130917,3.0,W*43
$GPGGA,061744,4714.8040,N,00131.4088,W,1,5,2.70,33,M,,,,*20
$GPGSA,A,3,29,31,25,26,,,2,,,,,,4.00,2.70,3.00*38
$GPGSV,3,1,10,29,69,55,38,31,65,263,38,25,42,95,32,26,32,291,36*7E
$GPGSV,3,2,10,21,27,170,,14,14,230,,2,14,38,30,12,7,99,*73
$GPGSV,3,3,10,16,6,284,,134,,0,*71
$GPAPB,,,,,,,,,,,,,,*44
$GPGLL,4714.8040,N,00131.4086,W,061746,A*39
$GPRMB,,,,,,,,,,,,,*66
$GPRMC,061746,A,4714.8040,N,00131.4086,W,0.0,24.0,130917,3.0,W*4F
$GPGGA,061746,4714.8040,N,00131.4086,W,1,3,16.60,33,M,,,,*1E
$GPGSA,A,2,29,31,,26,,,,,,,,,26.00,16.60,20.00*39
$GPGSV,3,1,10,29,69,55,38,31,65,263,38,25,42,95,,26,32,291,36*7F
$GPGSV,3,2,10,21,27,170,,14,14,230,,2,14,38,,12,7,99,*70
$GPGSV,3,3,10,16,6,284,,134,,0,*71
$GPAPB,,,,,,,,,,,,,,*44
$GPGLL,4714.8045,N,00131.4089,W,061748,A*3D
$GPRMB,,,,,,,,,,,,,*66
$GPRMC,061748,A,4714.8045,N,00131.4089,W,0.0,24.0,130917,3.0,W*4B
$GPGGA,061748,4714.8045,N,00131.4089,W,1,4,3.90,34,M,,,,*21
$GPGSA,A,3,29,31,25,26,,,,,,,,,5.10,3.90,3.20*07
$GPGSV,3,1,10,29,69,55,39,31,65,263,38,25,42,95,32,26,33,291,38*70
$GPGSV,3,2,10,21,28,170,,14,14,230,,2,14,38,,12,7,99,*7F
$GPGSV,3,3,10,16,6,285,,134,,0,*70
$GPAPB,,,,,,,,,,,,,,*44
$GPGLL,4714.8048,N,00131.4095,W,061750,A*34
$GPRMB,,,,,,,,,,,,,*66
$GPRMC,061750,A,4714.8048,N,00131.4095,W,0.0,24.0,130917,3.0,W*42
$GPGGA,061750,4714.8048,N,00131.4095,W,1,5,2.70,35,M,,,,*27
$GPGSA,A,3,29,31,25,26,,,2,,,,,,4.00,2.70,3.00*38
$GPGSV,3,1,10,29,69,55,39,31,65,263,38,25,42,95,32,26,33,291,38*70
