$GPGSV,3,2,12,17,37,307,36,14,32,055,20,32,19,042,29,23,19,182,33*78
$GPGSV,3,3,12,28,17,255,34,19,17,317,28,08,13,163,29,31,04,089,24*76
$GPRMC,144628.000,A,4715.2652,N,00130.5556,W,0.16,3.46,110917,,,A*7D
$GPGGA,144629.000,4715.2652,N,00130.5556,W,1,06,3.2,33.6,M,48.5,M,,0000*7F
$GPGSA,A,3,03,11,22,01,28,23,,,,,,,5.0,3.2,3.8*34
$GPRMC,144629.000,A,4715.2652,N,00130.5556,W,0.17,3.16,110917,,,A*78
$GPGGA,144630.000,4715.2653,N,00130.5556,W,1,07,2.3,33.6,M,48.5,M,,0000*77
$GPGSA,A,3,03,11,22,01,17,28,23,,,,,,3.6,2.3,2.7*3C
$GPRMC,144630.000,A,4715.2653,N,00130.5556,W,0.05,46.95,110917,,,A*48
$GPGGA,144631.000,4715.2653,N,00130.5555,W,1,07,2.3,33.6,M,48.5,M,,0000*75
$GPGSA,A,3,03,11,22,01,17,28,23,,,,,,3.6,2.3,2.7*3C
$GPRMC,144631.000,A,4715.2653,N,00130.5555,W,0.08,47.16,110917,,,A*4D
$GPGGA,144632.000,4715.2653,N,00130.5555,W,1,07,2.3,33.6,M,48.5,M,,0000*76
$GPGSA,A,3,03,11,22,01,17,28,23,,,,,,3.6,2.3,2.7*3C
$GPRMC,144632.000,A,4715.2653,N,00130.5555,W,0.06,33.14,110917,,,A*41
$GPGGA,144633.000,4715.2653,N,00130.5555,W,1,07,2.3,33.6,M,48.5,M,,0000*77
$GPGSA,A,3,03,11,22,01,17,28,23,,,,,,3.6,2.3,2.7*3C
$GPGSV,3,1,12,22,85,051,44,01,76,076,41,03,67,246,41,11,60,138,32*7F
$GPGSV,3,2,12,17,37,307,36,14,32,055,26,32,19,042,28,23,19,182,33*7F
$GPGSV,3,3,12,28,17,255,34,19,17,317,27,08,13,163,30,31,04,089,25*70
$GPRMC,144633.000,A,4715.2653,N,00130.5555,W,0.09,65.18,110917,,,A*40
$GPGGA,144634.000,4715.2652,N,00130.5555,W,1,07,2.3,33.7,M,48.5,M,,0000*70
$GPGSA,A,3,03,11,22,01,17,28,23,,,,,,3.6,2.3,2.7*3C
$GPRMC,144634.000,A,4715.2652,N,00130.5555,W,0.08,36.68,110917,,,A*46
$GPGGA,144635.000,4715.2652,N,00130.5554,W,1,07,2.3,33.7,M,48.5,M,,0000*70
$GPGSA,A,3,03,11,22,01,17,28,23,,,,,,3.6,2.3,2.7*3C
$GPRMC,144635.000,A,4715.2652,N,00130.5554,W,0.07,0.43,110917,,,A*75
$GPGGA,144636.000,4715.2652,N,00130.5554,W,1,07,2.3,33.8,M,48.5,M,,0000*7C
$GPGSA,A,3,03,11,22,01,17,28,23,,,,,,3.6,2.3,2.8*33
$GPRMC,144636.000,A,4715.2652,N,00130.5554,W,0.08,13.24,110917,,,A*4A
$GPGGA,144637.000,4715.2652,N,00130.5554,W,1,07,2.3,33.8,M,48.5,M,,0000*7D
$GPGSA,A,3,03,11,22,01,17,28,23,,,,,,3.6,2.3,2.8*33
$GPRMC,144637.000,A,4715.2652,N,00130.5554,W,0.07,42.84,110917,,,A*4A
$GPGGA,144638.000,4715.2652,N,00130.5554,W,1,07,2.3,33.9,M,48.5,M,,0000*73
$GPGSA,A,3,03,11,22,01,17,28,23,,,,,,3.6,2.3,2.8*33
$GPGSV,3,1,12,22,85,051,44,01,76,076,42,03,67,246,41,11,60,138,33*7D
$GPGSV,3,2,12,17,37,307,36,14,32,055,27,23,19,182,31,32,19,042,28*7C
$GPGSV,3,3,12,28,17,255,35,19,17,317,22,08,13,163,30,31,04,089,23*72
$GPRMC,144638.000,A,4715.2652,N,00130.5554,W,0.04,57.49,110917,,,A*43
$GPGGA,144639.000,4715.2652,N,00130.5554,W,1,07,2.3,34.0,M,48.5,M,,0000*7C
$GPGSA,A,3,03,11,22,01,17,28,23,,,,,,3.6,2.3,2.8*33
$GPRMC,144639.000,A,4715.2652,N,00130.5554,W,0.06,51.37,110917,,,A*4F
$GPGGA,144640.000,4715.2652,N,00130.5554,W,1,07,2.3,34.1,M,48.5,M,,0000*73
$GPGSA,A,3,03,11,22,01,17,28,23,,,,,,3.6,2.3,2.8*33
$GPRMC,144640.000,A,4715.2652,N,00130.5554,W,0.09,143.31,110917,,,A*7A
$GPGGA,144641.000,4715.2652,N,00130.5554,W,1,07,2.3,34.2,M,48.5,M,,0000*71
$GPGSA,A,3,03,11,22,01,17,28,23,,,,,,3.6,2.3,2.8*33
$GPRMC,144641.000,A,4715.2652,N,00130.5554,W,0.05,354.36,110917,,,A*74
$GPGGA,144642.000,4715.2652,N,00130.5554,W,1,07,2.3,34.3,M,48.5,M,,0000*73
$GPGSA,A,3,03,11,22,01,17,28,23,,,,,,3.6,2.3,2.8*33
$GPRMC,144642.000,A,4715.2652,N,00130.5554,W,0.04,93.15,110917,,,A*4F
$GPGGA,144643.000,4715.2652,N,00130.5554,W,1,07,2.3,34.4,M,48.5,M,,0000*75
$GPGSA,A,3,03,11,22,01,17,28,23,,,,,,3.6,2.3,2.8*33
$GPGSV,3,1,12,22,85,051,44,01,76,076,42,03,67,246,41,11,60,138,34*7A
$GPGSV,3,2,12,17,37,307,40,14,32,055,29,23,19,182,32,32,19,042,28*70
$GPGSV,3,3,12,28,17,255,36,19,17,317,22,08,13,163,31,31,04,089,24*77
$GPRMC,144643.000,A,4715.2652,N,00130.5554,W,0.04,36.94,110917,,,A*48
$GPGGA,144644.000,4715.2652,N,00130.5554,W,1,07,2.3,34.5,M,48.5,M,,0000*73
$GPGSA,A,3,03,11,22,01,17,28,23,,,,,,3.6,2.3,2.8*33
$GPRMC,144644.000,A,4715.2652,N,00130.5554,W,0.05,176.90,110917,,,A*7F
$GPGGA,144645.000,4715.2652,N,00130.5554,W,1,07,2.3,34.5,M,48.5,M,,0000*72
$GPGSA,A,3,03,11,22,01,17,28,23,,,,,,3.6,2.3,2.8*33
$GPRMC,144645.000,A,4715.2652,N,00130.5554,W,0.04,29.81,110917,,,A*44
$GPGGA,144646.000,4715.2652,N,00130.5554,W,1,07,2.3,34.6,M,48.5,M,,0000*72
$GPGSA,A,3,03,11,22,01,17,28,23,,,,,,3.6,2.3,2.8*33
$GPRMC,144646.000,A,4715.2652,N,00130.5554,W,0.02,71.11,110917,,,A*45
$GPGGA,144647.000,4715.2652,N,00130.5554,W,1,07,2.3,34.7,M,48.5,M,,0000*72
$GPGSA,A,3,03,11,22,01,17,28,23,,,,,,3.6,2.3,2.8*33
$GPRMC,144647.000,A,4715.2652,N,00130.5554,W,0.06,347.67,110917,,,A*77
$GPGGA,144648.000,4715.2652,N,00130.5554,W,1,07,2.3,34.7,M,48.5,M,,0000*7D
$GPGSA,A,3,03,11,22,01,17,28,23,,,,,,3.6,2.3,2.8*33
$GPGSV,3,1,12,22,85,051,44,01,76,076,44,03,67,246,41,11,60,138,35*7D
$GPGSV,3,2,12,17,37,307,36,14,32,055,24,23,19,182,32,32,19,042,*76
$GPGSV,3,3,12,28,17,255,36,19,17,317,25,08,13,163,31,31,04,089,15*72
$GPRMC,144648.000,A,4715.2652,N,00130.5554,W,0.02,86.42,110917,,,A*45
$GPGGA,144649.000,4715.2652,N,00130.5554,W,1,07,2.3,34.8,M,48.5,M,,0000*73
$GPGSA,A,3,03,11,22,01,17,28,23,,,,,,3.6,2.3,2.8*33
$GPRMC,144649.000,A,4715.2652,N,00130.5554,W,0.06,29.14,110917,,,A*46
$GPGGA,144650.000,4715.2652,N,00130.5555,W,1,07,2.3,34.8,M,48.5,M,,0000*7A
$GPGSA,A,3,03,11,22,01,17,28,23,,,,,,3.6,2.3,2.8*33
$GPRMC,144650.000,A,4715.2652,N,00130.5555,W,0.03,347.56,110917,,,A*77
$GPGGA,144651.000,4715.2653,N,00130.5555,W,1,07,2.3,34.9,M,48.5,M,,0000*7B
$GPGSA,A,3,03,11,22,01,17,28,23,,,,,,3.6,2.3,2.8*33
$GPRMC,144651.000,A,4715.2653,N,00130.5555,W,0.06,33.63,110917,,,A*44
$GPGGA,144652.000,4715.2653,N,00130.5555,W,1,07,2.3,34.9,M,48.5,M,,0000*78
$GPGSA,A,3,03,11,22,01,17,28,23,,,,,,3.6,2.3,2.8*33
$GPRMC,144652.000,A,4715.2653,N,00130.5555,W,0.05,342.06,110917,,,A*72
$GPGGA,144653.000,4715.2653,N,00130.5555,W,1,07,2.3,34.9,M,48.5,M,,0000*79
$GPGSA,A,3,03,11,22,01,17,28,23,,,,,,3.6,2.3,2.8*33
$GPGSV,3,1,12,22,85,051,44,01,76,076,44,03,67,246,41,11,60,138,34*7C
$GPGSV,3,2,12,17,37,307,36,14,32,055,26,23,19,182,32,32,19,042,*74
$GPGSV,3,3,12,28,17,255,36,19,17,317,22,08,13,163,32,31,04,089,17*74
$GPRMC,144653.000,A,4715.2653,N,00130.5555,W,0.05,38.66,110917,,,A*4B
$GPGGA,144654.000,4715.2653,N,00130.5555,W,1,07,2.3,35.0,M,48.5,M,,0000*76
$GPGSA,A,3,03,11,22,01,17,28,23,,,,,,3.6,2.3,2.8*33
$GPRMC,144654.000,A,4715.2653,N,00130.5555,W,0.02,340.93,110917,,,A*7D
$GPGGA,144655.000,4715.2653,N,00130.5555,W,1,07,2.3,35.0,M,48.5,M,,0000*77
$GPGSA,A,3,03,11,22,01,17,28,23,,,,,,3.6,2.3,2.8*33
$GPRMC,144655.000,A,4715.2653,N,00130.5555,W,0.02,56.82,110917,,,A*48
$GPGGA,144656.000,4715.2653,N,00130.5555,W,1,07,2.3,35.1,M,48.5,M,,0000*75
$GPGSA,A,3,03,11,22,01,17,28,23,,,,,,3.6,2.3,2.8*33
$GPRMC,144656.000,A,4715.2653,N,00130.5555,W,0.06,346.65,110917,,,A*74
$GPGGA,144657.000,4715.2653,N,00130.5556,W,1,07,2.3,35.2,M,48.5,M,,0000*74
$GPGSA,A,3,03,11,22,01,17,28,23,,,,,,3.6,2.3,2.8*33
$GPRMC,144657.000,A,4715.2653,N,00130.5556,W,0.04,70.67,110917,,,A*40
$GPGGA,144658.000,4715.2653,N,00130.5556,W,1,07,2.3,35.2,M,48.5,M,,0000*7B
$GPGSA,A,3,03,11,22,01,17,28,23,,,,,,3.6,2.3,2.8*33
$GPGSV,3,1,12,22,85,051,44,01,76,076,44,03,67,246,41,11,60,138,29*70
$GPGSV,3,2,12,17,37,307,35,14,32,055,,23,19,182,32,32,19,042,27*76
$GPGSV,3,3,12,28,17,255,36,19,17,317,,08,13,163,32,31,04,089,23*73
$GPRMC,144658.000,A,4715.2653,N,00130.5556,W,0.06,6.14,110917,,,A*78
$GPGGA,144659.000,4715.2654,N,00130.5556,W,1,07,2.3,35.2,M,48.5,M,,0000*7D
$GPGSA,A,3,03,11,22,01,17,28,23,,,,,,3.6,2.3,2.8*33
$GPRMC,144659.000,A,4715.2654,N,00130.5556,W,0.08,15.63,110917,,,A*42
$GPGGA,144700.000,4715.2654,N,00130.5555,W,1,08,2.0,35.1,M,48.5,M,,0000*7C
$GPGSA,A,3,03,11,22,01,17,28,23,08,,,,,2.9,2.0,2.2*3C
$GPRMC,144700.000,A,4715.2654,N,00130.5555,W,0.02,333.19,110917,,,A*7C
$GPGGA,144701.000,4715.2654,N,00130.5555,W,1,08,2.0,35.1,M,48.5,M,,0000*7D
$GPGSA,A,3,03,11,22,01,17,28,23,08,,,,,2.9,2.0,2.2*3C
$GPRMC,144701.000,A,4715.2654,N,00130.5555,W,0.05,26.06,110917,,,A*43
$GPGGA,144702.000,4715.2653,N,00130.5554,W,1,08,2.0,35.0,M,48.5,M,,0000*79
$GPGSA,A,3,03,11,22,01,17,28,23,08,,,,,2.9,2.0,2.2*3C
$GPRMC,144702.000,A,4715.2653,N,00130.5554,W,0.03,33.91,110917,,,A*4A
$GPGGA,144703.000,4715.2652,N,00130.5552,W,1,08,2.0,35.0,M,48.5,M,,0000*7F
$GPGSA,A,3,03,11,22,01,17,28,23,08,,,,,2.9,2.0,2.2*3C
$GPGSV,3,1,12,22,85,051,44,01,76,077,44,03,67,247,40,11,60,138,30*79
$GPGSV,3,2,12,17,38,307,31,14,32,054,,23,19,182,33,32,19,042,26*7C
$GPGSV,3,3,12,28,17,255,35,19,17,317,,08,13,163,32,31,04,089,23*70
$GPRMC,144703.000,A,4715.2652,N,00130.5552,W,0.05,84.88,110917,,,A*4E
$GPGGA,144704.000,4715.2655,N,00130.5551,W,1,08,2.0,34.4,M,48.5,M,,0000*79
$GPGSA,A,3,03,11,22,01,17,28,23,08,,,,,2.9,2.0,2.2*3C
$GPRMC,144704.000,A,4715.2655,N,00130.5551,W,0.06,24.41,110917,,,A*41
$GPGGA,144705.000,4715.2656,N,00130.5550,W,1,08,2.0,34.1,M,48.5,M,,0000*7F
$GPGSA,A,3,03,11,22,01,17,28,23,08,,,,,2.9,2.0,2.2*3C
$GPRMC,144705.000,A,4715.2656,N,00130.5550,W,0.09,39.00,110917,,,A*44
$GPGGA,144706.000,4715.2658,N,00130.5549,W,1,08,2.0,33.5,M,48.5,M,,0000*79
$GPGSA,A,3,03,11,22,01,17,28,23,08,,,,,2.9,2.0,2.2*3C
$GPRMC,144706.000,A,4715.2658,N,00130.5549,W,0.14,102.27,110917,,,A*71
$GPGGA,144707.000,4715.2659,N,00130.5548,W,1,08,2.0,33.2,M,48.5,M,,0000*7F
$GPGSA,A,3,03,11,22,01,17,28,23,08,,,,,2.9,2.0,2.2*3C
$GPRMC,144707.000,A,4715.2659,N,00130.5548,W,0.07,28.21,110917,,,A*4D
$GPGGA,144708.000,4715.2660,N,00130.5547,W,1,08,2.0,33.0,M,48.5,M,,0000*77
$GPGSA,A,3,03,11,22,01,17,28,23,08,,,,,2.9,2.0,2.2*3C
$GPGSV,3,1,12,22,85,051,45,01,76,077,45,03,67,247,41,11,60,138,31*79
$GPGSV,3,2,12,17,38,307,35,14,32,054,24,23,19,182,34,32,19,042,27*78
$GPGSV,3,3,12,28,17,255,36,19,17,317,30,08,13,163,33,31,04,089,25*77
$GPRMC,144708.000,A,4715.2660,N,00130.5547,W,0.08,39.21,110917,,,A*48
$GPGGA,144709.000,4715.2660,N,00130.5546,W,1,08,2.0,32.9,M,48.5,M,,0000*7F
$GPGSA,A,3,03,11,22,01,17,28,23,08,,,,,2.9,2.0,2.2*3C
$GPRMC,144709.000,A,4715.2660,N,00130.5546,W,0.10,19.76,110917,,,A*41
$GPGGA,144710.000,4715.2660,N,00130.5545,W,1,08,2.0,32.8,M,48.5,M,,0000*75
$GPGSA,A,3,03,11,22,01,17,28,23,08,,,,,2.9,2.0,2.2*3C
$GPRMC,144710.000,A,4715.2660,N,00130.5545,W,0.07,44.40,110917,,,A*41
$GPGGA,144711.000,4715.2660,N,00130.5545,W,1,08,2.0,32.8,M,48.5,M,,0000*74
$GPGSA,A,3,03,11,22,01,17,28,23,08,,,,,2.9,2.0,2.2*3C
$GPRMC,144711.000,A,4715.2660,N,00130.5545,W,0.06,16.58,110917,,,A*4F
$GPGGA,144712.000,4715.2660,N,00130.5544,W,1,08,2.0,32.7,M,48.5,M,,0000*79
$GPGSA,A,3,03,11,22,01,17,28,23,08,,,,,2.9,2.0,2.2*3C
$GPRMC,144712.000,A,4715.2660,N,00130.5544,W,0.06,26.81,110917,,,A*4A
$GPGGA,144713.000,4715.2660,N,00130.5543,W,1,08,2.0,32.7,M,48.5,M,,0000*7F
$GPGSA,A,3,03,11,22,01,17,28,23,08,,,,,2.9,2.0,2.2*3C
$GPGSV,3,1,12,22,85,051,45,01,76,077,44,03,67,247,41,11,60,138,31*78
$GPGSV,3,2,12,17,38,307,35,14,32,054,27,23,19,182,34,32,19,042,22*7E
$GPGSV,3,3,12,28,17,255,36,19,17,317,30,08,13,163,33,31,04,089,25*77
$GPRMC,144713.000,A,4715.2660,N,00130.5543,W,0.08,34.38,110917,,,A*43
$GPGGA,144714.000,4715.2659,N,00130.5543,W,1,08,2.0,32.7,M,48.5,M,,0000*72
$GPGSA,A,3,03,11,22,01,17,28,23,08,,,,,2.9,2.0,2.2*3C
$GPRMC,144714.000,A,4715.2659,N,00130.5543,W,0.06,41.39,110917,,,A*43
$GPGGA,144715.000,4715.2659,N,00130.5542,W,1,08,2.0,32.7,M,48.5,M,,0000*72
$GPGSA,A,3,03,11,22,01,17,28,23,08,,,,,2.9,2.0,2.2*3C
$GPRMC,144715.000,A,4715.2659,N,00130.5542,W,0.05,38.11,110917,,,A*44
$GPGGA,144716.000,4715.2659,N,00130.5542,W,1,08,2.0,32.6,M,48.5,M,,0000*70
$GPGSA,A,3,03,11,22,01,17,28,23,08,,,,,2.9,2.0,2.2*3C
$GPRMC,144716.000,A,4715.2659,N,00130.5542,W,0.06,25.54,110917,,,A*49
$GPGGA,144717.000,4715.2658,N,00130.5541,W,1,08,2.0,32.6,M,48.5,M,,0000*73
$GPGSA,A,3,03,11,22,01,17,28,23,08,,,,,2.9,2.0,2.2*3C
$GPRMC,144717.000,A,4715.2658,N,00130.5541,W,0.06,42.76,110917,,,A*4B
$GPGGA,144718.000,4715.2658,N,00130.5541,W,1,09,1.5,32.6,M,48.5,M,,0000*7B
$GPGSA,A,3,03,11,22,01,17,28,23,19,08,,,,2.0,1.5,1.4*3E
$GPGSV,3,1,12,22,85,051,45,01,76,077,44,03,67,247,41,11,60,138,31*78
$GPGSV,3,2,12,17,38,307,34,14,32,054,31,23,19,182,35,32,19,042,25*7E
$GPGSV,3,3,12,28,17,255,35,19,17,317,31,08,13,163,32,31,04,089,25*74
$GPRMC,144718.000,A,4715.2658,N,00130.5541,W,0.05,70.76,110917,,,A*46
$GPGGA,144719.000,4715.2658,N,00130.5540,W,1,09,1.5,32.6,M,48.5,M,,0000*7B
$GPGSA,A,3,03,11,22,01,17,28,23,19,08,,,,2.0,1.5,1.4*3E
$GPRMC,144719.000,A,4715.2658,N,00130.5540,W,0.06,62.96,110917,,,A*48
$GPGGA,144720.000,4715.2658,N,00130.5539,W,1,09,1.5,32.6,M,48.5,M,,0000*7F
$GPGSA,A,3,03,11,22,01,17,28,23,19,08,,,,2.0,1.5,1.4*3E
$GPRMC,144720.000,A,4715.2658,N,00130.5539,W,0.03,88.58,110917,,,A*4F
$GPGGA,144721.000,4715.2658,N,00130.5539,W,1,09,1.5,32.5,M,48.5,M,,0000*7D
$GPGSA,A,3,03,11,22,01,17,28,23,19,08,,,,2.0,1.5,1.4*3E
$GPRMC,144721.000,A,4715.2658,N,00130.5539,W,0.05,94.63,110917,,,A*4D
$GPGGA,144722.000,4715.2658,N,00130.5538,W,1,09,1.5,32.5,M,48.5,M,,0000*7F
$GPGSA,A,3,03,11,22,01,17,28,23,19,08,,,,2.0,1.5,1.4*3E
$GPRMC,144722.000,A,4715.2658,N,00130.5538,W,0.05,80.06,110917,,,A*49
$GPGGA,144723.000,4715.2658,N,00130.5538,W,1,09,1.5,32.4,M,48.5,M,,0000*7F
$GPGSA,A,3,03,11,22,01,17,28,23,19,08,,,,2.0,1.5,1.4*3E
$GPGSV,3,1,12,22,85,051,45,01,76,077,44,03,67,247,42,11,60,138,32*78
$GPGSV,3,2,12,17,38,307,34,14,32,054,32,23,19,182,34,32,19,042,26*7F
$GPGSV,3,3,12,19,17,317,31,28,17,255,35,08,13,163,31,31,04,089,17*76
$GPRMC,144723.000,A,4715.2658,N,00130.5538,W,0.05,49.08,110917,,,A*43
$GPGGA,144724.000,4715.2658,N,00130.5537,W,1,09,1.5,32.4,M,48.5,M,,0000*77
$GPGSA,A,3,03,11,22,01,17,28,23,19,08,,,,2.1,1.5,1.4*3F
$GPRMC,144724.000,A,4715.2658,N,00130.5537,W,0.04,104.02,110917,,,A*78
$GPGGA,144725.000,4715.2658,N,00130.5537,W,1,09,1.5,32.3,M,48.5,M,,0000*71
$GPGSA,A,3,03,11,22,01,17,28,23,19,08,,,,2.1,1.5,1.4*3F
$GPRMC,144725.000,A,4715.2658,N,00130.5537,W,0.05,152.99,110917,,,A*79
$GPGGA,144726.000,4715.2658,N,00130.5536,W,1,09,1.5,32.3,M,48.5,M,,0000*73
$GPGSA,A,3,03,11,22,01,17,28,23,19,08,,,,2.1,1.5,1.4*3F
$GPRMC,144726.000,A,4715.2658,N,00130.5536,W,0.03,84.71,110917,,,A*41
$GPGGA,144727.000,4715.2658,N,00130.5536,W,1,09,1.5,32.2,M,48.5,M,,0000*73
$GPGSA,A,3,03,11,22,01,17,28,23,19,08,,,,2.1,1.5,1.4*3F
$GPRMC,144727.000,A,4715.2658,N,00130.5536,W,0.06,102.27,110917,,,A*79
$GPGGA,144728.000,4715.2658,N,00130.5536,W,1,09,1.5,32.2,M,48.5,M,,0000*7C
$GPGSA,A,3,03,11,22,01,17,28,23,19,08,,,,2.1,1.5,1.4*3F
$GPGSV,3,1,12,22,85,051,46,01,76,077,45,03,67,247,43,11,60,138,36*7F
$GPGSV,3,2,12,17,38,307,41,14,32,054,26,23,19,182,35,32,19,042,32*7C
$GPGSV,3,3,12,19,17,317,32,28,17,255,38,08,13,163,33,31,04,089,16*7B
$GPRMC,144728.000,A,4715.2658,N,00130.5536,W,0.04,85.43,110917,,,A*48
$GPGGA,144729.000,4715.2658,N,00130.5535,W,1,09,1.5,32.1,M,48.5,M,,0000*7D
$GPGSA,A,3,03,11,22,01,17,28,23,19,08,,,,2.1,1.5,1.4*3F
$GPRMC,144729.000,A,4715.2658,N,00130.5535,W,0.03,91.63,110917,,,A*4A
$GPGGA,144730.000,4715.2659,N,00130.5534,W,1,09,1.5,31.8,M,48.5,M,,0000*7F
$GPGSA,A,3,03,11,22,01,17,28,23,19,08,,,,2.1,1.5,1.4*3F
$GPRMC,144730.000,A,4715.2659,N,00130.5534,W,0.07,60.51,110917,,,A*49
$GPGGA,144731.000,4715.2659,N,00130.5534,W,1,09,1.5,31.7,M,48.5,M,,0000*71
$GPGSA,A,3,03,11,22,01,17,28,23,19,08,,,,2.1,1.5,1.4*3F
$GPRMC,144731.000,A,4715.2659,N,00130.5534,W,0.07,139.67,110917,,,A*70
$GPGGA,144732.000,4715.2660,N,00130.5533,W,1,09,1.5,31.6,M,48.5,M,,0000*7E
$GPGSA,A,3,03,11,22,01,17,28,23,19,08,,,,2.1,1.5,1.4*3F
$GPRMC,144732.000,A,4715.2660,N,00130.5533,W,0.04,54.80,110917,,,A*4E
$GPGGA,144733.000,4715.2660,N,00130.5533,W,1,09,1.5,31.5,M,48.5,M,,0000*7C
$GPGSA,A,3,03,11,22,01,17,28,23,19,08,,,,2.1,1.5,1.4*3F
$GPGSV,3,1,12,22,85,051,45,01,76,077,44,03,67,247,44,11,60,138,37*7B
$GPGSV,3,2,12,17,38,307,40,14,32,054,26,23,19,182,34,32,19,042,33*7D
$GPGSV,3,3,12,19,17,317,29,28,17,255,38,08,13,163,34,31,04,089,21*72
$GPRMC,144733.000,A,4715.2660,N,00130.5533,W,0.04,88.51,110917,,,A*42
$GPGGA,144734.000,4715.2660,N,00130.5533,W,1,09,1.5,31.4,M,48.5,M,,0000*7A
$GPGSA,A,3,03,11,22,01,17,28,23,19,08,,,,2.1,1.5,1.4*3F
$GPRMC,144734.000,A,4715.2660,N,00130.5533,W,0.04,137.42,110917,,,A*72
$GPGGA,144735.000,4715.2660,N,00130.5532,W,1,09,1.5,31.3,M,48.5,M,,0000*7D
$GPGSA,A,3,03,11,22,01,17,28,23,19,08,,,,2.1,1.5,1.4*3F
$GPRMC,144735.000,A,4715.2660,N,00130.5532,W,0.06,88.23,110917,,,A*42
$GPGGA,144736.000,4715.2661,N,00130.5532,W,1,09,1.5,31.2,M,48.5,M,,0000*7E
$GPGSA,A,3,03,11,22,01,17,28,23,19,08,,,,2.1,1.5,1.4*3F
$GPRMC,144736.000,A,4715.2661,N,00130.5532,W,0.07,17.71,110917,,,A*40
$GPGGA,144737.000,4715.2661,N,00130.5531,W,1,09,1.5,31.1,M,48.5,M,,0000*7F
$GPGSA,A,3,03,11,22,01,17,28,23,19,08,,,,2.1,1.5,1.4*3F
$GPRMC,144737.000,A,4715.2661,N,00130.5531,W,0.08,67.59,110917,,,A*40
$GPGGA,144738.000,4715.2661,N,00130.5531,W,1,09,1.5,31.1,M,48.5,M,,0000*70
$GPGSA,A,3,03,11,22,01,17,28,23,19,08,,,,2.1,1.5,1.4*3F
$GPGSV,3,1,12,22,85,051,46,01,76,077,45,03,67,247,44,11,60,138,37*79
$GPGSV,3,2,12,17,38,307,39,14,32,054,26,23,19,182,34,32,19,042,32*72
$GPGSV,3,3,12,19,17,317,35,28,17,255,38,08,13,163,31,31,04,089,17*7F
$GPRMC,144738.000,A,4715.2661,N,00130.5531,W,0.05,152.72,110917,,,A*7C
$GPGGA,144739.000,4715.2661,N,00130.5531,W,1,09,1.5,31.1,M,48.5,M,,0000*71
$GPGSA,A,3,03,11,22,01,17,28,23,19,08,,,,2.1,1.5,1.4*3F
$GPRMC,144739.000,A,4715.2661,N,00130.5531,W,0.03,66.15,110917,,,A*4C
$GPGGA,144740.000,4715.2661,N,00130.5531,W,1,09,1.5,31.1,M,48.5,M,,0000*7F
$GPGSA,A,3,03,11,22,01,17,28,23,19,08,,,,2.1,1.5,1.4*3F
$GPRMC,144740.000,A,4715.2661,N,00130.5531,W,0.09,130.63,110917,,,A*7B
$GPGGA,144741.000,4715.2661,N,00130.5531,W,1,09,1.5,31.0,M,48.5,M,,0000*7F
$GPGSA,A,3,03,11,22,01,17,28,23,19,08,,,,2.1,1.5,1.4*3F
$GPRMC,144741.000,A,4715.2661,N,00130.5531,W,0.04,20.58,110917,,,A*4F
$GPGGA,144742.000,4715.2661,N,00130.5531,W,1,09,1.5,31.0,M,48.5,M,,0000*7C
$GPGSA,A,3,03,11,22,01,17,28,23,19,08,,,,2.1,1.5,1.4*3F
$GPRMC,144742.000,A,4715.2661,N,00130.5531,W,0.03,95.94,110917,,,A*45
$GPGGA,144743.000,4715.2661,N,00130.5531,W,1,09,1.5,31.0,M,48.5,M,,0000*7D
$GPGSA,A,3,03,11,22,01,17,28,23,19,08,,,,2.1,1.5,1.4*3F
$GPGSV,3,1,12,22,85,051,47,01,76,077,46,03,67,247,45,11,60,138,32*7F
$GPGSV,3,2,12,17,38,307,37,14,32,054,,23,19,182,35,32,19,042,32*79
$GPGSV,3,3,12,19,17,317,35,28,17,255,38,08,13,163,34,31,04,089,17*7A
$GPRMC,144743.000,A,4715.2661,N,00130.5531,W,0.02,96.85,110917,,,A*46
$GPGGA,144744.000,4715.2661,N,00130.5531,W,1,09,1.5,31.1,M,48.5,M,,0000*7B
$GPGSA,A,3,03,11,22,01,17,28,23,19,08,,,,2.1,1.5,1.4*3F
$GPRMC,144744.000,A,4715.2661,N,00130.5531,W,0.14,107.29,110917,,,A*79
$GPGGA,144745.000,4715.2660,N,00130.5531,W,1,09,1.5,31.1,M,48.5,M,,0000*7B
$GPGSA,A,3,03,11,22,01,17,28,23,19,08,,,,2.1,1.5,1.4*3F
$GPRMC,144745.000,A,4715.2660,N,00130.5531,W,0.28,95.11,110917,,,A*47
$GPGGA,144746.000,4715.2660,N,00130.5529,W,1,09,1.5,31.2,M,48.5,M,,0000*72
$GPGSA,A,3,03,11,22,01,17,28,23,19,08,,,,2.1,1.5,1.4*3F
$GPRMC,144746.000,A,4715.2660,N,00130.5529,W,0.37,117.57,110917,,,A*7A
$GPGGA,144747.000,4715.2659,N,00130.5529,W,1,09,1.5,31.3,M,48.5,M,,0000*78
$GPGSA,A,3,03,11,22,01,17,28,23,19,08,,,,2.1,1.5,1.4*3F
$GPRMC,144747.000,A,4715.2659,N,00130.5529,W,0.46,128.64,110917,,,A*7B
$GPGGA,144748.000,4715.2659,N,00130.5528,W,1,09,1.5,31.3,M,48.5,M,,0000*76
$GPGSA,A,3,03,11,22,01,17,28,23,19,08,,,,2.1,1.5,1.4*3F
$GPGSV,3,1,12,22,85,051,46,01,76,077,43,03,67,247,45,11,60,138,42*7C
$GPGSV,3,2,12,17,38,307,43,14,32,054,34,23,19,182,35,32,19,042,31*7E
$GPGSV,3,3,12,19,17,317,35,28,17,255,34,08,13,163,28,31,04,089,24*7B
$GPRMC,144748.000,A,4715.2659,N,00130.5528,W,0.44,116.78,110917,,,A*77
$GPGGA,144749.000,4715.2658,N,00130.5527,W,1,09,1.5,31.4,M,48.5,M,,0000*7E
$GPGSA,A,3,03,11,22,01,17,28,23,19,08,,,,2.1,1.5,1.4*3F
$GPRMC,144749.000,A,4715.2658,N,00130.5527,W,0.59,110.14,110917,,,A*78
$GPGGA,144750.000,4715.2657,N,00130.5525,W,1,09,1.5,31.4,M,48.5,M,,0000*7B
$GPGSA,A,3,03,11,22,01,17,28,23,19,08,,,,2.1,1.5,1.4*3F
$GPRMC,144750.000,A,4715.2657,N,00130.5525,W,0.52,116.69,110917,,,A*7A
$GPGGA,144751.000,4715.2656,N,00130.5524,W,1,09,1.5,31.6,M,48.5,M,,0000*78
$GPGSA,A,3,03,11,22,01,17,28,23,19,08,,,,2.1,1.5,1.4*3F
$GPRMC,144751.000,A,4715.2656,N,00130.5524,W,0.89,121.84,110917,,,A*7A
$GPGGA,144752.000,4715.2655,N,00130.5521,W,1,09,1.5,31.8,M,48.5,M,,0000*73
$GPGSA,A,3,03,11,22,01,17,28,23,19,08,,,,2.1,1.5,1.4*3F
$GPRMC,144752.000,A,4715.2655,N,00130.5521,W,1.37,127.39,110917,,,A*7B
$GPGGA,144753.000,4715.2652,N,00130.5517,W,1,09,1.5,32.0,M,48.5,M,,0000*7B
$GPGSA,A,3,03,11,22,01,17,28,23,19,08,,,,2.1,1.5,1.4*3F
$GPGSV,3,1,12,22,85,051,46,01,76,077,44,03,67,247,45,11,60,138,42*7B
$GPGSV,3,2,12,17,38,307,43,14,32,054,34,23,19,182,34,32,19,042,32*7C
$GPGSV,3,3,12,19,17,317,35,28,17,255,29,08,13,163,31,31,04,089,24*7F
$GPRMC,144753.000,A,4715.2652,N,00130.5517,W,1.21,125.90,110917,,,A*7E
$GPGGA,144754.000,4715.2651,N,00130.5514,W,1,09,1.5,32.2,M,48.5,M,,0000*7E
$GPGSA,A,3,03,11,22,01,17,28,23,19,08,,,,2.1,1.5,1.4*3F
$GPRMC,144754.000,A,4715.2651,N,00130.5514,W,1.22,121.60,110917,,,A*71
$GPGGA,144755.000,4715.2649,N,00130.5510,W,1,09,1.5,32.3,M,48.5,M,,0000*73
$GPGSA,A,3,03,11,22,01,17,28,23,19,08,,,,2.1,1.5,1.4*3F
$GPRMC,144755.000,A,4715.2649,N,00130.5510,W,1.01,109.33,110917,,,A*70
$GPGGA,144756.000,4715.2648,N,00130.5506,W,1,09,1.5,32.4,M,48.5,M,,0000*71
$GPGSA,A,3,03,11,22,01,17,28,23,19,08,,,,2.1,1.5,1.4*3F
$GPRMC,144756.000,A,4715.2648,N,00130.5506,W,1.44,109.24,110917,,,A*72
$GPGGA,144757.000,4715.2646,N,00130.5500,W,1,09,1.5,32.5,M,48.5,M,,0000*79
$GPGSA,A,3,03,11,22,01,17,28,23,19,08,,,,2.1,1.5,1.4*3F
$GPRMC,144757.000,A,4715.2646,N,00130.5500,W,1.94,123.23,110917,,,A*79
$GPGGA,144758.000,4715.2644,N,00130.5495,W,1,09,1.5,32.8,M,48.5,M,,0000*74
$GPGSA,A,3,03,11,22,01,17,28,23,19,08,,,,2.1,1.5,1.4*3F
$GPGSV,3,1,12,22,85,051,46,01,76,077,44,03,67,247,46,11,60,138,41*7B
$GPGSV,3,2,12,17,38,307,42,14,32,054,35,23,19,182,30,32,19,042,38*72
$GPGSV,3,3,12,19,17,317,33,28,17,255,37,08,13,163,24,31,04,089,24*72
$GPRMC,144758.000,A,4715.2644,N,00130.5495,W,1.69,134.16,110917,,,A*7B
$GPGGA,144759.000,4715.2640,N,00130.5491,W,1,09,1.5,32.9,M,48.5,M,,0000*74
$GPGSA,A,3,03,11,22,01,17,28,23,19,08,,,,2.1,1.5,1.4*3F
$GPRMC,144759.000,A,4715.2640,N,00130.5491,W,1.47,143.12,110917,,,A*72
$GPGGA,144800.000,4715.2637,N,00130.5489,W,1,09,1.5,33.0,M,48.5,M,,0000*76
$GPGSA,A,3,03,11,22,01,17,28,23,19,08,,,,2.1,1.5,1.4*3F
$GPRMC,144800.000,A,4715.2637,N,00130.5489,W,0.92,149.02,110917,,,A*7A
$GPGGA,144801.000,4715.2636,N,00130.5488,W,1,09,1.5,33.0,M,48.5,M,,0000*77
$GPGSA,A,3,03,11,22,01,17,28,23,19,08,,,,2.1,1.5,1.4*3F
$GPRMC,144801.000,A,4715.2636,N,00130.5488,W,0.08,144.33,110917,,,A*77
$GPGGA,144802.000,4715.2639,N,00130.5487,W,1,09,1.5,33.0,M,48.5,M,,0000*74
$GPGSA,A,3,03,11,22,01,17,28,23,19,08,,,,2.1,1.5,1.4*3F
$GPRMC,144802.000,A,4715.2639,N,00130.5487,W,1.78,12.13,110917,,,A*42
$GPGGA,144803.000,4715.2645,N,00130.5483,W,1,09,1.5,33.2,M,48.5,M,,0000*78
$GPGSA,A,3,03,11,22,01,17,28,23,19,08,,,,2.1,1.5,1.4*3F
$GPGSV,3,1,12,22,85,051,45,01,76,077,45,03,67,247,48,11,60,138,40*76
$GPGSV,3,2,12,17,38,307,45,14,32,054,31,23,19,182,29,32,19,042,31*70
$GPGSV,3,3,12,19,17,317,30,28,17,255,27,08,13,163,33,31,04,089,25*77
$GPRMC,144803.000,A,4715.2645,N,00130.5483,W,3.51,34.82,110917,,,A*49
$GPGGA,144804.000,4715.2654,N,00130.5472,W,1,09,1.5,33.5,M,48.5,M,,0000*76
$GPGSA,A,3,03,11,22,01,17,28,23,19,08,,,,2.1,1.5,1.4*3F
$GPRMC,144804.000,A,4715.2654,N,00130.5472,W,5.21,43.10,110917,,,A*4A
$GPGGA,144805.000,4715.2666,N,00130.5455,W,1,09,1.5,33.7,M,48.5,M,,0000*71
$GPGSA,A,3,03,11,22,01,17,28,23,19,08,,,,2.1,1.5,1.4*3F
$GPRMC,144805.000,A,4715.2666,N,00130.5455,W,6.51,46.60,110917,,,A*49
$GPGGA,144806.000,4715.2679,N,00130.5434,W,1,09,1.5,33.8,M,48.5,M,,0000*74
$GPGSA,A,3,03,11,22,01,17,28,23,19,08,,,,2.1,1.5,1.4*3F
$GPRMC,144806.000,A,4715.2679,N,00130.5434,W,7.43,44.96,110917,,,A*4A
$GPGGA,144807.000,4715.2694,N,00130.5414,W,1,09,1.5,34.0,M,48.5,M,,0000*7B
$GPGSA,A,3,03,11,22,01,17,28,23,19,08,,,,2.1,1.5,1.4*3F
$GPRMC,144807.000,A,4715.2694,N,00130.5414,W,7.31,41.85,110917,,,A*48
$GPGGA,144808.000,4715.2711,N,00130.5392,W,1,08,1.5,34.0,M,48.5,M,,0000*70
$GPGSA,A,3,03,11,22,01,17,28,19,08,,,,,2.1,1.5,1.5*3F
$GPGSV,3,1,12,22,85,051,43,01,76,077,45,03,67,247,47,11,60,138,35*7D
$GPGSV,3,2,12,17,38,307,41,14,32,054,31,23,19,182,,32,19,042,29*76
$GPGSV,3,3,12,19,17,317,30,28,17,255,27,08,13,163,26,31,04,089,23*75
$GPRMC,144808.000,A,4715.2711,N,00130.5392,W,8.71,40.79,110917,,,A*4B
$GPGGA,144809.000,4715.2730,N,00130.5366,W,1,09,1.5,33.9,M,48.5,M,,0000*76
$GPGSA,A,3,03,11,22,01,17,28,23,19,08,,,,2.1,1.5,1.4*3F
$GPRMC,144809.000,A,4715.2730,N,00130.5366,W,9.69,43.36,110917,,,A*42
$GPGGA,144810.000,4715.2751,N,00130.5340,W,1,09,1.5,33.8,M,48.5,M,,0000*7C
$GPGSA,A,3,03,11,22,01,17,28,23,19,08,,,,2.1,1.5,1.4*3F
$GPRMC,144810.000,A,4715.2751,N,00130.5340,W,9.82,39.81,110917,,,A*4D
$GPGGA,144811.000,4715.2771,N,00130.5314,W,1,09,1.5,33.6,M,48.5,M,,0000*70
$GPGSA,A,3,03,11,22,01,17,28,23,19,08,,,,2.1,1.5,1.4*3F
$GPRMC,144811.000,A,4715.2771,N,00130.5314,W,9.94,41.31,110917,,,A*4C
$GPGGA,144812.000,4715.2794,N,00130.5289,W,1,09,1.5,33.4,M,48.5,M,,0000*7F
$GPGSA,A,3,03,11,22,01,17,28,23,19,08,,,,2.1,1.5,1.4*3F
$GPRMC,144812.000,A,4715.2794,N,00130.5289,W,10.58,33.07,110917,,,A*79
$GPGGA,144813.000,4715.2821,N,00130.5272,W,1,09,1.5,33.5,M,48.5,M,,0000*7A
$GPGSA,A,3,03,11,22,01,17,28,23,19,08,,,,2.1,1.5,1.4*3F
$GPGSV,3,1,12,22,85,051,39,01,76,077,43,03,67,247,47,11,60,138,39*7A
$GPGSV,3,2,12,17,38,307,43,14,32,054,35,23,19,182,31,32,19,042,29*72
$GPGSV,3,3,12,19,17,317,26,28,17,255,26,08,13,163,40,31,04,089,25*75
$GPRMC,144813.000,A,4715.2821,N,00130.5272,W,10.85,16.04,110917,,,A*79
$GPGGA,144814.000,4715.2851,N,00130.5268,W,1,09,1.5,33.6,M,48.5,M,,0000*72
$GPGSA,A,3,03,11,22,01,17,28,23,19,08,,,,2.1,1.5,1.4*3F
$GPRMC,144814.000,A,4715.2851,N,00130.5268,W,10.74,355.64,110917,,,A*4E
$GPGGA,144815.000,4715.2880,N,00130.5279,W,1,09,1.5,33.8,M,48.5,M,,0000*71
$GPGSA,A,3,03,11,22,01,17,28,23,19,08,,,,2.1,1.5,1.4*3F
$GPRMC,144815.000,A,4715.2880,N,00130.5279,W,11.10,337.55,110917,,,A*46
$GPGGA,144816.000,4715.2906,N,00130.5304,W,1,09,1.5,33.9,M,48.5,M,,0000*77
$GPGSA,A,3,03,11,22,01,17,28,23,19,08,,,,2.1,1.5,1.4*3F
$GPRMC,144816.000,A,4715.2906,N,00130.5304,W,11.10,320.38,110917,,,A*4C
$GPGGA,144817.000,4715.2930,N,00130.5336,W,1,09,1.5,33.9,M,48.5,M,,0000*72
$GPGSA,A,3,03,11,22,01,17,28,23,19,08,,,,2.1,1.5,1.4*3F
$GPRMC,144817.000,A,4715.2930,N,00130.5336,W,11.62,315.61,110917,,,A*46
$GPGGA,144818.000,4715.2954,N,00130.5371,W,1,09,1.5,34.2,M,48.5,M,,0000*70
$GPGSA,A,3,03,11,22,01,17,28,23,19,08,,,,2.1,1.5,1.4*3F
$GPGSV,3,1,12,22,85,051,42,01,76,077,44,03,67,247,47,11,60,138,39*71
$GPGSV,3,2,12,17,38,307,43,14,32,054,33,23,19,182,29,32,19,042,38*7D
$GPGSV,3,3,12,19,17,317,31,28,17,255,28,08,13,163,26,31,04,089,23*7B
$GPRMC,144818.000,A,4715.2954,N,00130.5371,W,12.44,315.65,110917,,,A*4B
$GPGGA,144819.000,4715.2979,N,00130.5408,W,1,09,1.5,34.3,M,48.5,M,,0000*76
$GPGSA,A,3,03,11,22,01,17,28,23,19,08,,,,2.1,1.5,1.4*3F
$GPRMC,144819.000,A,4715.2979,N,00130.5408,W,12.62,314.44,110917,,,A*4A
$GPGGA,144820.000,4715.3003,N,00130.5445,W,1,09,1.5,34.2,M,48.5,M,,0000*71
$GPGSA,A,3,03,11,22,01,17,28,23,19,08,,,,2.1,1.5,1.4*3F
$GPRMC,144820.000,A,4715.3003,N,00130.5445,W,12.14,313.43,110917,,,A*4D
$GPGGA,144821.000,4715.3027,N,00130.5479,W,1,09,1.5,34.0,M,48.5,M,,0000*7B
$GPGSA,A,3,03,11,22,01,17,28,23,19,08,,,,2.1,1.5,1.4*3F
$GPRMC,144821.000,A,4715.3027,N,00130.5479,W,11.28,315.32,110917,,,A*49
$GPGGA,144822.000,4715.3050,N,00130.5508,W,1,09,1.5,34.1,M,48.5,M,,0000*7E
$GPGSA,A,3,03,11,22,01,17,28,23,19,08,,,,2.1,1.5,1.4*3F
$GPRMC,144822.000,A,4715.3050,N,00130.5508,W,10.55,326.14,110917,,,A*42
$GPGGA,144823.000,4715.3075,N,00130.5526,W,1,09,1.5,34.1,M,48.5,M,,0000*74
$GPGSA,A,3,03,11,22,01,17,28,23,19,08,,,,2.1,1.5,1.4*3F
$GPGSV,3,1,12,22,85,051,42,01,76,077,43,03,67,247,47,11,60,138,37*78
$GPGSV,3,2,12,17,38,307,44,14,32,054,29,23,19,182,31,32,19,042,28*79
$GPGSV,3,3,12,19,17,317,31,28,17,255,26,08,13,163,27,31,04,089,29*7E
$GPRMC,144823.000,A,4715.3075,N,00130.5526,W,9.63,345.05,110917,,,A*70
$GPGGA,144824.000,4715.3102,N,00130.5529,W,1,08,2.0,34.1,M,48.5,M,,0000*7A
$GPGSA,A,3,03,11,22,01,17,28,23,08,,,,,3.0,2.0,2.2*34
$GPRMC,144824.000,A,4715.3102,N,00130.5529,W,9.38,7.54,110917,,,A*76
$GPGGA,144825.000,4715.3126,N,00130.5517,W,1,08,2.0,34.0,M,48.5,M,,0000*71
$GPGSA,A,3,03,11,22,01,17,28,23,08,,,,,3.0,2.0,2.2*34
$GPRMC,144825.000,A,4715.3126,N,00130.5517,W,9.07,29.82,110917,,,A*47
$GPGGA,144826.000,4715.3146,N,00130.5496,W,1,08,2.0,34.1,M,48.5,M,,0000*7D
$GPGSA,A,3,03,11,22,01,17,28,23,08,,,,,3.0,2.0,2.2*34
$GPRMC,144826.000,A,4715.3146,N,00130.5496,W,9.04,42.25,110917,,,A*49
$GPGGA,144827.000,4715.3164,N,00130.5474,W,1,08,2.0,34.0,M,48.5,M,,0000*71
$GPGSA,A,3,03,11,22,01,17,28,23,08,,,,,3.0,2.0,2.2*34
$GPRMC,144827.000,A,4715.3164,N,00130.5474,W,7.88,42.89,110917,,,A*48
$GPGGA,144828.000,4715.3179,N,00130.5457,W,1,08,2.0,33.9,M,48.5,M,,0000*7D
$GPGSA,A,3,03,11,22,01,17,28,23,08,,,,,3.0,2.0,2.2*34
$GPGSV,3,1,12,22,85,051,43,01,76,077,45,03,67,247,47,11,60,138,42*7D
$GPGSV,3,2,12,17,38,307,33,14,32,054,38,23,19,182,33,32,19,042,37*75
$GPGSV,3,3,12,19,17,317,,28,17,255,29,08,13,163,36,31,04,089,29*73
$GPRMC,144828.000,A,4715.3179,N,00130.5457,W,6.00,37.82,110917,,,A*42
$GPGGA,144829.000,4715.3190,N,00130.5446,W,1,08,2.0,33.7,M,48.5,M,,0000*75
$GPGSA,A,3,03,11,22,01,17,28,23,08,,,,,3.0,2.0,2.2*34
$GPRMC,144829.000,A,4715.3190,N,00130.5446,W,4.19,32.91,110917,,,A*49
$GPGGA,144830.000,4715.3202,N,00130.5434,W,1,09,1.1,32.9,M,48.5,M,,0000*7C
$GPGSA,A,3,03,11,22,01,17,28,23,08,14,,,,1.7,1.1,1.3*34
$GPRMC,144830.000,A,4715.3202,N,00130.5434,W,4.15,34.33,110917,,,A*4E
$GPGGA,144831.000,4715.3216,N,00130.5419,W,1,09,1.1,32.2,M,48.5,M,,0000*7C
$GPGSA,A,3,03,11,22,01,17,28,23,08,14,,,,1.7,1.1,1.3*34
$GPRMC,144831.000,A,4715.3216,N,00130.5419,W,6.75,33.22,110917,,,A*46
$GPGGA,144832.000,4715.3234,N,00130.5400,W,1,10,0.9,31.8,M,48.5,M,,0000*7F
$GPGSA,A,3,03,11,22,01,17,28,23,19,08,14,,,1.5,0.9,1.2*36
$GPRMC,144832.000,A,4715.3234,N,00130.5400,W,7.65,37.41,110917,,,A*4C
$GPGGA,144833.000,4715.3253,N,00130.5380,W,1,10,0.9,31.7,M,48.5,M,,0000*7F
$GPGSA,A,3,03,11,22,01,17,28,23,19,08,14,,,1.5,0.9,1.2*36
$GPGSV,3,1,12,22,84,051,43,01,76,079,46,03,67,247,48,11,59,139,43*74
$GPGSV,3,2,12,17,38,306,40,14,32,054,38,23,20,182,34,32,18,041,38*70
$GPGSV,3,3,12,19,18,317,35,28,17,254,24,08,12,163,41,31,05,089,20*7F
$GPRMC,144833.000,A,4715.3253,N,00130.5380,W,8.01,35.92,110917,,,A*42
$GPGGA,144834.000,4715.3271,N,00130.5359,W,1,10,0.9,31.4,M,48.5,M,,0000*7F
$GPGSA,A,3,03,11,22,01,17,28,23,19,08,14,,,1.5,0.9,1.2*36
$GPRMC,144834.000,A,4715.3271,N,00130.5359,W,6.88,41.10,110917,,,A*47
$GPGGA,144835.000,4715.3285,N,00130.5339,W,1,10,0.9,31.3,M,48.5,M,,0000*74
$GPGSA,A,3,03,11,22,01,17,28,23,19,08,14,,,1.5,0.9,1.2*36
$GPRMC,144835.000,A,4715.3285,N,00130.5339,W,6.07,51.18,110917,,,A*45
$GPGGA,144836.000,4715.3294,N,00130.5320,W,1,10,0.9,31.3,M,48.5,M,,0000*7F
$GPGSA,A,3,03,11,22,01,17,28,23,19,08,14,,,1.5,0.9,1.2*36
$GPRMC,144836.000,A,4715.3294,N,00130.5320,W,4.48,66.34,110917,,,A*4D
$GPGGA,144837.000,4715.3299,N,00130.5300,W,1,09,1.0,31.2,M,48.5,M,,0000*70
$GPGSA,A,3,03,11,22,01,28,23,19,08,14,,,,1.5,1.0,1.2*38
$GPRMC,144837.000,A,4715.3299,N,00130.5300,W,5.45,82.50,110917,,,A*47
$GPGGA,144838.000,4715.3299,N,00130.5272,W,1,10,0.9,30.9,M,48.5,M,,0000*71
$GPGSA,A,3,03,11,22,01,17,28,23,19,08,14,,,1.5,0.9,1.2*36
$GPGSV,3,1,12,22,84,051,43,01,76,079,40,03,67,247,47,11,59,139,44*7A
$GPGSV,3,2,12,17,38,306,38,14,32,054,39,23,20,182,31,32,18,041,*70
$GPGSV,3,3,12,19,18,317,30,28,17,254,22,08,12,163,29,31,05,089,20*72
$GPRMC,144838.000,A,4715.3299,N,00130.5272,W,7.91,103.05,110917,,,A*7F
$GPGGA,144839.000,4715.3289,N,00130.5238,W,1,10,0.9,30.5,M,48.5,M,,0000*73
$GPGSA,A,3,03,11,22,01,17,28,23,19,08,14,,,1.5,0.9,1.2*36
$GPRMC,144839.000,A,4715.3289,N,00130.5238,W,10.10,119.23,110917,,,A*41
$GPGGA,144840.000,4715.3272,N,00130.5200,W,1,10,0.9,30.3,M,48.5,M,,0000*74
$GPGSA,A,3,03,11,22,01,17,28,23,19,08,14,,,1.5,0.9,1.2*36
$GPRMC,144840.000,A,4715.3272,N,00130.5200,W,12.07,126.57,110917,,,A*4B
$GPGGA,144841.000,4715.3250,N,00130.5156,W,1,10,0.9,30.4,M,48.5,M,,0000*72
$GPGSA,A,3,03,11,22,01,17,28,23,19,08,14,,,1.5,0.9,1.2*36
$GPRMC,144841.000,A,4715.3250,N,00130.5156,W,13.95,128.10,110917,,,A*4D
$GPGGA,144842.000,4715.3225,N,00130.5109,W,1,10,0.9,30.3,M,48.5,M,,0000*7E
$GPGSA,A,3,03,11,22,01,17,28,23,19,08,14,,,1.5,0.9,1.2*36
$GPRMC,144842.000,A,4715.3225,N,00130.5109,W,15.32,128.15,110917,,,A*48
$GPGGA,144843.000,4715.3198,N,00130.5059,W,1,10,0.9,30.3,M,48.5,M,,0000*7E
$GPGSA,A,3,03,11,22,01,17,28,23,19,08,14,,,1.5,0.9,1.2*36
$GPGSV,3,1,12,22,84,051,42,01,76,079,43,03,67,247,46,11,59,139,44*79
$GPGSV,3,2,12,17,38,306,37,14,32,054,39,23,20,182,36,32,18,041,*78
$GPGSV,3,3,12,19,18,317,24,28,17,254,31,08,12,163,28,31,05,089,*76
$GPRMC,144843.000,A,4715.3198,N,00130.5059,W,15.20,128.03,110917,,,A*4C
$GPGGA,144844.000,4715.3171,N,00130.5010,W,1,10,0.9,30.2,M,48.5,M,,0000*72
$GPGSA,A,3,03,11,22,01,17,28,23,19,08,14,,,1.5,0.9,1.2*36
$GPRMC,144844.000,A,4715.3171,N,00130.5010,W,15.30,129.56,110917,,,A*41
$GPGGA,144845.000,4715.3142,N,00130.4961,W,1,09,1.1,30.1,M,48.5,M,,0000*7F
$GPGSA,A,3,03,11,22,01,17,28,23,08,14,,,,1.7,1.1,1.3*34
$GPRMC,144845.000,A,4715.3142,N,00130.4961,W,16.24,132.29,110917,,,A*4A
$GPGGA,144846.000,4715.3109,N,00130.4912,W,1,10,0.9,30.0,M,48.5,M,,0000*77
$GPGSA,A,3,03,11,22,01,17,28,23,19,08,14,,,1.5,0.9,1.2*36
$GPRMC,144846.000,A,4715.3109,N,00130.4912,W,17.16,135.98,110917,,,A*4F
$GPGGA,144847.000,4715.3073,N,00130.4862,W,1,10,0.9,30.1,M,48.5,M,,0000*7D
$GPGSA,A,3,03,11,22,01,17,28,23,19,08,14,,,1.5,0.9,1.2*36
$GPRMC,144847.000,A,4715.3073,N,00130.4862,W,18.17,136.94,110917,,,A*45
$GPGGA,144848.000,4715.3034,N,00130.4811,W,1,09,1.0,30.1,M,48.5,M,,0000*75
$GPGSA,A,3,03,11,22,01,17,28,23,19,14,,,,1.7,1.0,1.3*35
$GPGSV,3,1,12,22,84,051,42,01,76,079,45,03,67,247,45,11,59,139,45*7D
$GPGSV,3,2,12,17,38,306,37,14,32,054,39,23,20,182,35,32,18,041,37*7F
$GPGSV,3,3,12,19,18,317,29,28,17,254,24,08,12,163,,31,05,089,24*73
$GPRMC,144848.000,A,4715.3034,N,00130.4811,W,18.90,138.51,110917,,,A*45
$GPGGA,144849.000,4715.2994,N,00130.4759,W,1,09,1.0,30.1,M,48.5,M,,0000*75
$GPGSA,A,3,03,11,22,01,17,28,23,19,14,,,,1.7,1.0,1.3*35
$GPRMC,144849.000,A,4715.2994,N,00130.4759,W,19.35,139.28,110917,,,A*44
$GPGGA,144850.000,4715.2952,N,00130.4709,W,1,09,1.1,30.1,M,48.5,M,,0000*73
$GPGSA,A,3,03,11,22,01,17,28,23,08,14,,,,1.7,1.1,1.3*34
$GPRMC,144850.000,A,4715.2952,N,00130.4709,W,19.27,141.60,110917,,,A*43
$GPGGA,144851.000,4715.2909,N,00130.4662,W,1,10,0.9,29.9,M,48.5,M,,0000*71
$GPGSA,A,3,03,11,22,01,17,28,23,19,08,14,,,1.5,0.9,1.2*36
$GPRMC,144851.000,A,4715.2909,N,00130.4662,W,18.54,143.65,110917,,,A*42
$GPGGA,144852.000,4715.2869,N,00130.4617,W,1,09,1.1,29.7,M,48.5,M,,0000*78
$GPGSA,A,3,03,11,22,01,17,28,23,08,14,,,,1.7,1.1,1.3*34
$GPRMC,144852.000,A,4715.2869,N,00130.4617,W,17.71,142.12,110917,,,A*4D
$GPGGA,144853.000,4715.2830,N,00130.4572,W,1,09,1.1,29.6,M,48.5,M,,0000*74
$GPGSA,A,3,03,11,22,01,17,28,23,08,14,,,,1.7,1.1,1.3*34
$GPGSV,3,1,12,22,84,051,41,01,76,079,46,03,67,247,44,11,59,139,46*7F
$GPGSV,3,2,12,17,38,306,38,14,32,054,35,23,20,182,33,32,18,041,39*74
$GPGSV,3,3,12,19,18,317,,28,17,254,32,08,12,163,30,31,05,089,23*7B
$GPRMC,144853.000,A,4715.2830,N,00130.4572,W,17.95,141.06,110917,,,A*4C
$GPGGA,144854.000,4715.2788,N,00130.4523,W,1,09,1.1,29.6,M,48.5,M,,0000*7B
$GPGSA,A,3,03,11,22,01,17,28,23,08,14,,,,1.7,1.1,1.3*34
$GPRMC,144854.000,A,4715.2788,N,00130.4523,W,19.49,140.83,110917,,,A*40
$GPGGA,144855.000,4715.2743,N,00130.4471,W,1,09,1.1,29.6,M,48.5,M,,0000*7B
$GPGSA,A,3,03,11,22,01,17,28,23,08,14,,,,1.7,1.1,1.3*34
$GPRMC,144855.000,A,4715.2743,N,00130.4471,W,21.28,142.08,110917,,,A*4D
$GPGGA,144856.000,4715.2695,N,00130.4415,W,1,09,1.1,29.6,M,48.5,M,,0000*70
$GPGSA,A,3,03,11,22,01,17,28,23,08,14,,,,1.7,1.1,1.3*34
$GPRMC,144856.000,A,4715.2695,N,00130.4415,W,22.42,141.43,110917,,,A*45
$GPGGA,144857.000,4715.2645,N,00130.4357,W,1,09,1.1,29.5,M,48.5,M,,0000*7E
$GPGSA,A,3,03,11,22,01,17,28,23,08,14,,,,1.7,1.1,1.3*34
$GPRMC,144857.000,A,4715.2645,N,00130.4357,W,22.96,141.22,110917,,,A*46
$GPGGA,144858.000,4715.2595,N,00130.4298,W,1,09,1.1,29.4,M,48.5,M,,0000*7C
$GPGSA,A,3,03,11,22,01,17,28,23,08,14,,,,1.7,1.1,1.3*34
$GPGSV,3,1,12,22,84,051,41,01,76,079,46,03,67,247,44,11,59,139,47*7E
$GPGSV,3,2,12,17,38,306,38,14,32,054,36,23,20,182,35,32,18,041,39*71
$GPGSV,3,3,12,19,18,317,,28,17,254,23,08,12,163,35,31,05,089,21*7C
$GPRMC,144858.000,A,4715.2595,N,00130.4298,W,22.68,140.92,110917,,,A*4E
$GPGGA,144859.000,4715.2545,N,00130.4239,W,1,09,1.1,29.4,M,48.5,M,,0000*7B
$GPGSA,A,3,03,11,22,01,17,28,23,08,14,,,,1.7,1.1,1.3*34
$GPRMC,144859.000,A,4715.2545,N,00130.4239,W,22.93,141.03,110917,,,A*44
$GPGGA,144900.000,4715.2495,N,00130.4179,W,1,09,1.0,29.3,M,48.5,M,,0000*7B
$GPGSA,A,3,03,11,22,01,17,28,23,32,14,,,,1.6,1.0,1.2*3C
$GPRMC,144900.000,A,4715.2495,N,00130.4179,W,23.27,141.09,110917,,,A*46
$GPGGA,144901.000,4715.2444,N,00130.4119,W,1,10,0.9,29.2,M,48.5,M,,0000*71
$GPGSA,A,3,03,11,22,01,17,28,23,08,32,14,,,1.4,0.9,1.1*3D
$GPRMC,144901.000,A,4715.2444,N,00130.4119,W,23.77,141.13,110917,,,A*43
$GPGGA,144902.000,4715.2392,N,00130.4056,W,1,10,0.9,29.2,M,48.5,M,,0000*74
$GPGSA,A,3,03,11,22,01,17,28,23,08,32,14,,,1.4,0.9,1.1*3D
$GPRMC,144902.000,A,4715.2392,N,00130.4056,W,24.00,141.03,110917,,,A*40
$GPGGA,144903.000,4715.2339,N,00130.3995,W,1,10,0.9,29.1,M,48.5,M,,0000*76
$GPGSA,A,3,03,11,22,01,17,28,23,08,32,14,,,1.4,0.9,1.1*3D
$GPGSV,3,1,12,22,84,051,41,01,76,080,46,03,68,248,45,11,59,139,47*79
$GPGSV,3,2,12,17,38,306,38,14,31,054,37,23,20,182,34,32,18,041,40*7C
$GPGSV,3,3,12,19,18,317,,28,17,254,24,08,12,163,28,31,05,089,*74
$GPRMC,144903.000,A,4715.2339,N,00130.3995,W,24.38,142.08,110917,,,A*42
$GPGGA,144904.000,4715.2285,N,00130.3932,W,1,10,0.9,29.2,M,48.5,M,,0000*79
$GPGSA,A,3,03,11,22,01,17,28,23,08,32,14,,,1.4,0.9,1.1*3D
$GPRMC,144904.000,A,4715.2285,N,00130.3932,W,24.78,141.91,110917,,,A*49
$GPGGA,144905.000,4715.2229,N,00130.3870,W,1,10,0.9,29.1,M,48.5,M,,0000*7A
$GPGSA,A,3,03,11,22,01,17,28,23,08,32,14,,,1.4,0.9,1.1*3D
$GPRMC,144905.000,A,4715.2229,N,00130.3870,W,25.13,143.01,110917,,,A*4E
$GPGGA,144906.000,4715.2172,N,00130.3809,W,1,09,1.0,28.9,M,48.5,M,,0000*73
$GPGSA,A,3,03,11,22,01,17,28,23,32,14,,,,1.6,1.0,1.2*3C
$GPRMC,144906.000,A,4715.2172,N,00130.3809,W,25.38,145.01,110917,,,A*41
$GPGGA,144907.000,4715.2114,N,00130.3750,W,1,09,1.0,28.9,M,48.5,M,,0000*71
$GPGSA,A,3,03,11,22,01,17,28,23,32,14,,,,1.6,1.0,1.2*3C
$GPRMC,144907.000,A,4715.2114,N,00130.3750,W,25.50,145.88,110917,,,A*4C
$GPGGA,144908.000,4715.2054,N,00130.3693,W,1,10,0.9,28.9,M,48.5,M,,0000*75
$GPGSA,A,3,03,11,22,01,17,28,23,08,32,14,,,1.4,0.9,1.1*3D
$GPGSV,3,1,12,22,84,051,41,01,76,080,46,03,68,248,45,11,59,139,47*79
$GPGSV,3,2,12,17,38,306,38,14,31,054,33,23,20,182,31,32,18,041,36*7C
$GPGSV,3,3,12,19,18,317,,28,17,254,28,08,12,163,31,31,05,088,22*71
$GPRMC,144908.000,A,4715.2054,N,00130.3693,W,25.70,146.69,110917,,,A*46
$GPGGA,144909.000,4715.1993,N,00130.3635,W,1,10,0.9,28.6,M,48.5,M,,0000*76
$GPGSA,A,3,03,11,22,01,17,28,23,08,32,14,,,1.4,0.9,1.1*3D
$GPRMC,144909.000,A,4715.1993,N,00130.3635,W,26.17,147.35,110917,,,A*40
$GPGGA,144910.000,4715.1929,N,00130.3576,W,1,10,0.9,28.2,M,48.5,M,,0000*7F
$GPGSA,A,3,03,11,22,01,17,28,23,08,32,14,,,1.4,0.9,1.1*3D
$GPRMC,144910.000,A,4715.1929,N,00130.3576,W,27.12,148.13,110917,,,A*42
$GPGGA,144911.000,4715.1864,N,00130.3517,W,1,10,0.9,27.9,M,48.5,M,,0000*75
$GPGSA,A,3,03,11,22,01,17,28,23,08,32,14,,,1.4,0.9,1.1*3D
$GPRMC,144911.000,A,4715.1864,N,00130.3517,W,27.41,148.50,110917,,,A*4D
$GPGGA,144912.000,4715.1799,N,00130.3459,W,1,09,1.1,27.7,M,48.5,M,,0000*7F
$GPGSA,A,3,03,11,22,01,17,23,08,32,14,,,,1.7,1.1,1.3*3F
$GPRMC,144912.000,A,4715.1799,N,00130.3459,W,27.45,148.75,110917,,,A*4B
$GPGGA,144913.000,4715.1733,N,00130.3400,W,1,10,0.9,27.8,M,48.5,M,,0000*7C
$GPGSA,A,3,03,11,22,01,17,28,23,08,32,14,,,1.4,0.9,1.1*3D
$GPGSV,3,1,12,22,84,051,41,01,75,080,46,03,68,248,46,11,59,139,46*78
$GPGSV,3,2,12,17,38,306,39,14,31,054,40,23,20,182,35,32,18,041,40*7C
$GPGSV,3,3,12,19,18,317,,28,17,254,34,08,12,163,29,31,05,088,20*77
$GPRMC,144913.000,A,4715.1733,N,00130.3400,W,27.34,148.51,110917,,,A*46
$GPGGA,144914.000,4715.1667,N,00130.3341,W,1,10,0.9,27.7,M,48.5,M,,0000*76
$GPGSA,A,3,03,11,22,01,17,28,23,08,32,14,,,1.4,0.9,1.1*3D
$GPRMC,144914.000,A,4715.1667,N,00130.3341,W,27.52,148.51,110917,,,A*43
$GPGGA,144915.000,4715.1601,N,00130.3282,W,1,10,0.9,27.7,M,48.5,M,,0000*79
$GPGSA,A,3,03,11,22,01,17,28,23,08,32,14,,,1.4,0.9,1.1*3D
$GPRMC,144915.000,A,4715.1601,N,00130.3282,W,27.55,148.42,110917,,,A*49
$GPGGA,144916.000,4715.1535,N,00130.3223,W,1,10,0.9,27.6,M,48.5,M,,0000*74
$GPGSA,A,3,03,11,22,01,17,28,23,08,32,14,,,1.4,0.9,1.1*3D
$GPRMC,144916.000,A,4715.1535,N,00130.3223,W,27.71,148.38,110917,,,A*4E
$GPGGA,144917.000,4715.1469,N,00130.3163,W,1,09,1.0,27.6,M,48.5,M,,0000*7A
$GPGSA,A,3,03,11,22,01,17,28,23,32,14,,,,1.6,1.0,1.2*3C
$GPRMC,144917.000,A,4715.1469,N,00130.3163,W,27.98,148.18,110917,,,A*45
$GPGGA,144918.000,4715.1402,N,00130.3103,W,1,09,1.0,27.5,M,48.5,M,,0000*7D
$GPGSA,A,3,03,11,22,01,17,28,23,32,14,,,,1.6,1.0,1.2*3C
$GPGSV,3,1,12,22,84,051,41,01,75,080,46,03,68,248,46,11,59,139,46*78
$GPGSV,3,2,12,17,38,306,40,14,31,054,42,23,20,182,36,32,18,041,41*72
$GPGSV,3,3,12,19,18,317,,28,17,254,38,08,12,163,,31,05,088,24*74
$GPRMC,144918.000,A,4715.1402,N,00130.3103,W,28.14,148.67,110917,,,A*42
$GPGGA,144919.000,4715.1335,N,00130.3043,W,1,09,1.0,27.5,M,48.5,M,,0000*7A
$GPGSA,A,3,03,11,22,01,17,28,23,32,14,,,,1.6,1.0,1.2*3C
$GPRMC,144919.000,A,4715.1335,N,00130.3043,W,28.34,149.00,110917,,,A*47
$GPGGA,144920.000,4715.1267,N,00130.2983,W,1,10,0.9,27.3,M,48.5,M,,0000*74
$GPGSA,A,3,03,11,22,01,17,28,23,08,32,14,,,1.4,0.9,1.1*3D
$GPRMC,144920.000,A,4715.1267,N,00130.2983,W,28.55,148.26,110917,,,A*4D
$GPGGA,144921.000,4715.1198,N,00130.2921,W,1,10,0.9,27.1,M,48.5,M,,0000*7C
$GPGSA,A,3,03,11,22,01,17,28,23,08,32,14,,,1.4,0.9,1.1*3D
$GPRMC,144921.000,A,4715.1198,N,00130.2921,W,28.88,147.99,110917,,,A*4C
$GPGGA,144922.000,4715.1129,N,00130.2858,W,1,10,0.9,26.9,M,48.5,M,,0000*73
$GPGSA,A,3,03,11,22,01,17,28,23,08,32,14,,,1.4,0.9,1.1*3D
$GPRMC,144922.000,A,4715.1129,N,00130.2858,W,29.11,148.43,110917,,,A*43
$GPGGA,144923.000,4715.1059,N,00130.2797,W,1,10,0.9,26.6,M,48.5,M,,0000*77
$GPGSA,A,3,03,11,22,01,17,28,23,08,32,14,,,1.4,0.9,1.1*3D
$GPGSV,3,1,12,22,84,051,41,01,75,080,46,03,68,248,47,11,59,139,46*79
$GPGSV,3,2,12,17,38,306,39,14,31,054,42,23,20,182,36,32,18,041,41*7C
$GPGSV,3,3,12,19,18,317,,28,17,254,40,08,12,163,28,31,05,088,16*70
$GPRMC,144923.000,A,4715.1059,N,00130.2797,W,29.05,149.35,110917,,,A*4D
$GPGGA,144924.000,4715.0989,N,00130.2738,W,1,11,0.8,26.3,M,48.5,M,,0000*75
$GPGSA,A,3,03,11,22,01,17,28,23,19,08,32,14,,1.3,0.8,1.0*32
$GPRMC,144924.000,A,4715.0989,N,00130.2738,W,29.04,150.85,110917,,,A*48
$GPGGA,144925.000,4715.0917,N,00130.2682,W,1,11,0.8,26.0,M,48.5,M,,0000*70
$GPGSA,A,3,03,11,22,01,17,28,23,19,08,32,14,,1.3,0.8,1.0*32
$GPRMC,144925.000,A,4715.0917,N,00130.2682,W,29.21,152.95,110917,,,A*4A
$GPGGA,144926.000,4715.0843,N,00130.2629,W,1,11,0.8,25.6,M,48.5,M,,0000*77
$GPGSA,A,3,03,11,22,01,17,28,23,19,08,32,14,,1.3,0.8,1.0*32
$GPRMC,144926.000,A,4715.0843,N,00130.2629,W,29.36,154.63,110917,,,A*41
$GPGGA,144927.000,4715.0768,N,00130.2579,W,1,11,0.8,25.1,M,48.5,M,,0000*71
$GPGSA,A,3,03,11,22,01,17,28,23,19,08,32,14,,1.3,0.8,1.0*32
$GPRMC,144927.000,A,4715.0768,N,00130.2579,W,29.46,156.49,110917,,,A*4D
$GPGGA,144928.000,4715.0692,N,00130.2533,W,1,11,0.8,24.7,M,48.5,M,,0000*73
$GPGSA,A,3,03,11,22,01,17,28,23,19,08,32,14,,1.3,0.8,1.0*32
$GPGSV,3,1,12,22,84,051,41,01,75,080,46,03,68,248,48,11,59,139,44*74
$GPGSV,3,2,12,17,38,306,39,14,31,054,41,23,20,182,36,32,18,041,33*7A
$GPGSV,3,3,12,19,18,317,31,28,17,254,30,08,12,163,39,31,05,088,20*70
$GPRMC,144928.000,A,4715.0692,N,00130.2533,W,29.52,158.18,110917,,,A*47
$GPGGA,144929.000,4715.0615,N,00130.2490,W,1,11,0.8,24.3,M,48.5,M,,0000*71
$GPGSA,A,3,03,11,22,01,17,28,23,19,08,32,14,,1.3,0.8,1.0*32
$GPRMC,144929.000,A,4715.0615,N,00130.2490,W,29.51,160.11,110917,,,A*40
$GPGGA,144930.000,4715.0537,N,00130.2450,W,1,11,0.8,23.9,M,48.5,M,,0000*7B
$GPGSA,A,3,03,11,22,01,17,28,23,19,08,32,14,,1.3,0.8,1.0*32
$GPRMC,144930.000,A,4715.0537,N,00130.2450,W,29.61,161.07,110917,,,A*42
$GPGGA,144931.000,4715.0458,N,00130.2411,W,1,10,0.9,23.5,M,48.5,M,,0000*7B
$GPGSA,A,3,03,11,22,01,17,28,23,08,32,14,,,1.4,0.9,1.1*3D
$GPRMC,144931.000,A,4715.0458,N,00130.2411,W,29.33,161.38,110917,,,A*45
$GPGGA,144932.000,4715.0381,N,00130.2373,W,1,10,0.9,23.0,M,48.5,M,,0000*7D
$GPGSA,A,3,03,11,22,01,17,28,23,08,32,14,,,1.4,0.9,1.1*3D
$GPRMC,144932.000,A,4715.0381,N,00130.2373,W,29.01,161.57,110917,,,A*4E
$GPGGA,144933.000,4715.0304,N,00130.2337,W,1,11,0.8,22.6,M,48.5,M,,0000*76
$GPGSA,A,3,03,11,22,01,17,28,23,19,08,32,14,,1.3,0.8,1.0*32
$GPGSV,3,1,12,22,84,051,40,01,75,080,45,03,68,248,48,11,59,139,43*71
$GPGSV,3,2,12,17,38,306,36,14,31,054,36,23,20,182,36,32,18,041,31*77
$GPGSV,3,3,12,19,18,317,31,28,17,254,38,08,12,163,39,31,05,088,27*7F
$GPRMC,144933.000,A,4715.0304,N,00130.2337,W,28.50,161.71,110917,,,A*43
$GPGGA,144934.000,4715.0230,N,00130.2299,W,1,11,0.8,22.2,M,48.5,M,,0000*76
$GPGSA,A,3,03,11,22,01,17,28,23,19,08,32,14,,1.3,0.8,1.0*32
$GPRMC,144934.000,A,4715.0230,N,00130.2299,W,28.10,160.17,110917,,,A*42
$GPGGA,144935.000,4715.0158,N,00130.2256,W,1,11,0.8,21.9,M,48.5,M,,0000*71
$GPGSA,A,3,03,11,22,01,17,28,23,19,08,32,14,,1.3,0.8,1.0*32
$GPRMC,144935.000,A,4715.0158,N,00130.2256,W,27.66,154.93,110917,,,A*48
$GPGGA,144936.000,4715.0091,N,00130.2202,W,1,10,0.9,21.6,M,48.5,M,,0000*78
$GPGSA,A,3,03,11,22,01,17,28,23,08,32,14,,,1.4,0.9,1.1*3D
$GPRMC,144936.000,A,4715.0091,N,00130.2202,W,27.06,147.34,110917,,,A*47
$GPGGA,144937.000,4715.0031,N,00130.2136,W,1,10,0.9,21.4,M,48.5,M,,0000*75
$GPGSA,A,3,03,11,22,01,17,28,23,08,32,14,,,1.4,0.9,1.1*3D
$GPRMC,144937.000,A,4715.0031,N,00130.2136,W,26.45,139.29,110917,,,A*4B
$GPGGA,144938.000,4714.9979,N,00130.2061,W,1,10,0.9,21.2,M,48.5,M,,0000*72
$GPGSA,A,3,03,11,22,01,17,28,23,08,32,14,,,1.4,0.9,1.1*3D
$GPGSV,3,1,12,22,84,051,40,01,75,080,45,03,68,248,47,11,59,139,44*79
$GPGSV,3,2,12,17,38,306,37,14,31,054,41,23,20,182,36,32,18,041,35*72
$GPGSV,3,3,12,19,18,317,,28,17,254,32,08,12,163,34,31,05,088,28*75
$GPRMC,144938.000,A,4714.9979,N,00130.2061,W,26.01,131.65,110917,,,A*4A
$GPGGA,144939.000,4714.9935,N,00130.1978,W,1,11,0.8,21.0,M,48.5,M,,0000*7B
$GPGSA,A,3,03,11,22,01,17,28,23,19,08,32,14,,1.3,0.8,1.0*32
$GPRMC,144939.000,A,4714.9935,N,00130.1978,W,25.58,124.18,110917,,,A*40
$GPGGA,144940.000,4714.9900,N,00130.1887,W,1,11,0.8,20.8,M,48.5,M,,0000*7B
$GPGSA,A,3,03,11,22,01,17,28,23,19,08,32,14,,1.3,0.8,1.0*32
$GPRMC,144940.000,A,4714.9900,N,00130.1887,W,25.59,116.35,110917,,,A*46
$GPGGA,144941.000,4714.9874,N,00130.1790,W,1,11,0.8,20.7,M,48.5,M,,0000*7E
$GPGSA,A,3,03,11,22,01,17,28,23,19,08,32,14,,1.3,0.8,1.0*32
$GPRMC,144941.000,A,4714.9874,N,00130.1790,W,25.72,107.58,110917,,,A*4E
$GPGGA,144942.000,4714.9857,N,00130.1687,W,1,11,0.8,20.6,M,48.5,M,,0000*7A
$GPGSA,A,3,03,11,22,01,17,28,23,19,08,32,14,,1.3,0.8,1.0*32
$GPRMC,144942.000,A,4714.9857,N,00130.1687,W,25.92,100.16,110917,,,A*48
$GPGGA,144943.000,4714.9850,N,00130.1582,W,1,11,0.8,20.5,M,48.5,M,,0000*79
$GPGSA,A,3,03,11,22,01,17,28,23,19,08,32,14,,1.3,0.8,1.0*32
$GPGSV,3,1,12,22,84,051,41,01,75,080,40,03,68,248,46,11,59,139,44*7C
$GPGSV,3,2,12,17,39,306,37,14,31,053,39,23,20,182,40,19,18,317,27*70
$GPGSV,3,3,12,32,18,041,33,28,16,254,34,08,12,163,36,31,05,088,23*72
$GPRMC,144943.000,A,4714.9850,N,00130.1582,W,26.02,92.67,110917,,,A*7E
$GPGGA,144944.000,4714.9852,N,00130.1475,W,1,11,0.8,20.3,M,48.5,M,,0000*73
$GPGSA,A,3,03,11,22,01,17,28,23,19,08,32,14,,1.3,0.8,1.0*32
$GPRMC,144944.000,A,4714.9852,N,00130.1475,W,26.17,84.15,110917,,,A*74
$GPGGA,144945.000,4714.9866,N,00130.1370,W,1,10,0.9,20.3,M,48.5,M,,0000*77
$GPGSA,A,3,03,11,22,01,17,28,23,19,32,14,,,1.5,0.9,1.2*3F
$GPRMC,144945.000,A,4714.9866,N,00130.1370,W,26.41,75.70,110917,,,A*7E
$GPGGA,144946.000,4714.9891,N,00130.1269,W,1,10,0.9,19.9,M,48.5,M,,0000*75
$GPGSA,A,3,03,11,22,01,17,28,23,19,32,14,,,1.5,0.9,1.2*3F
$GPRMC,144946.000,A,4714.9891,N,00130.1269,W,26.14,66.74,110917,,,A*7A
$GPGGA,144947.000,4714.9923,N,00130.1175,W,1,11,0.8,19.7,M,48.5,M,,0000*7C
$GPGSA,A,3,03,11,22,01,17,28,23,19,08,32,14,,1.3,0.8,1.0*32
$GPRMC,144947.000,A,4714.9923,N,00130.1175,W,25.54,60.85,110917,,,A*72
$GPGGA,144948.000,4714.9960,N,00130.1086,W,1,11,0.8,19.6,M,48.5,M,,0000*78
$GPGSA,A,3,03,11,22,01,17,28,23,19,08,32,14,,1.3,0.8,1.0*32
$GPGSV,3,1,12,22,84,051,41,01,75,080,40,03,68,248,46,11,59,139,45*7D
$GPGSV,3,2,12,17,39,306,36,14,31,053,39,23,20,182,36,19,18,317,41*70
$GPGSV,3,3,12,32,18,041,37,28,16,254,25,08,12,163,33,31,05,088,*72
$GPRMC,144948.000,A,4714.9960,N,00130.1086,W,24.95,59.15,110917,,,A*78
$GPGGA,144949.000,4714.9996,N,00130.1000,W,1,11,0.8,19.6,M,48.5,M,,0000*7E
$GPGSA,A,3,03,11,22,01,17,28,23,19,08,32,14,,1.3,0.8,1.0*32
$GPRMC,144949.000,A,4714.9996,N,00130.1000,W,24.29,59.32,110917,,,A*7C
$GPGGA,144950.000,4715.0030,N,00130.0916,W,1,11,0.8,19.4,M,48.5,M,,0000*76
$GPGSA,A,3,03,11,22,01,17,28,23,19,08,32,14,,1.3,0.8,1.0*32
$GPRMC,144950.000,A,4715.0030,N,00130.0916,W,23.15,60.72,110917,,,A*70
$GPGGA,144951.000,4715.0061,N,00130.0836,W,1,10,0.9,19.2,M,48.5,M,,0000*76
$GPGSA,A,3,03,11,22,01,17,28,23,19,32,14,,,1.5,0.9,1.2*3F
$GPRMC,144951.000,A,4715.0061,N,00130.0836,W,21.85,61.58,110917,,,A*74
$GPGGA,144952.000,4715.0090,N,00130.0759,W,1,10,0.9,19.2,M,48.5,M,,0000*7D
$GPGSA,A,3,03,11,22,01,17,28,23,19,32,14,,,1.5,0.9,1.2*3F
$GPRMC,144952.000,A,4715.0090,N,00130.0759,W,20.87,61.16,110917,,,A*76
$GPGGA,144953.000,4715.0119,N,00130.0687,W,1,10,0.9,19.1,M,48.5,M,,0000*7D
$GPGSA,A,3,03,11,22,01,17,28,23,19,32,14,,,1.5,0.9,1.2*3F
$GPGSV,3,1,12,22,84,051,41,01,75,080,39,03,68,248,47,11,59,139,41*76
$GPGSV,3,2,12,17,39,306,38,14,31,053,40,23,20,182,33,19,18,317,32*71
$GPGSV,3,3,12,32,18,041,37,28,16,254,26,08,12,163,,31,05,088,27*74
$GPRMC,144953.000,A,4715.0119,N,00130.0687,W,20.09,60.55,110917,,,A*75
$GPGGA,144954.000,4715.0147,N,00130.0616,W,1,11,0.8,19.1,M,48.5,M,,0000*79
$GPGSA,A,3,03,11,22,01,17,28,23,19,08,32,14,,1.3,0.8,1.0*32
$GPRMC,144954.000,A,4715.0147,N,00130.0616,W,19.89,61.46,110917,,,A*70
$GPGGA,144955.000,4715.0175,N,00130.0544,W,1,11,0.8,19.0,M,48.5,M,,0000*7C
$GPGSA,A,3,03,11,22,01,17,28,23,19,08,32,14,,1.3,0.8,1.0*32
$GPRMC,144955.000,A,4715.0175,N,00130.0544,W,20.56,60.71,110917,,,A*79
$GPGGA,144956.000,4715.0205,N,00130.0469,W,1,11,0.8,19.0,M,48.5,M,,0000*75
$GPGSA,A,3,03,11,22,01,17,28,23,19,08,32,14,,1.3,0.8,1.0*32
$GPRMC,144956.000,A,4715.0205,N,00130.0469,W,21.65,59.17,110917,,,A*7B
$GPGGA,144957.000,4715.0238,N,00130.0391,W,1,11,0.8,19.2,M,48.5,M,,0000*78
$GPGSA,A,3,03,11,22,01,17,28,23,19,08,32,14,,1.3,0.8,1.0*32
$GPRMC,144957.000,A,4715.0238,N,00130.0391,W,22.72,59.45,110917,,,A*76
$GPGGA,144958.000,4715.0272,N,00130.0310,W,1,11,0.8,19.2,M,48.5,M,,0000*70
$GPGSA,A,3,03,11,22,01,17,28,23,19,08,32,14,,1.3,0.8,1.0*32
$GPGSV,3,1,12,22,84,051,41,01,75,080,39,03,68,248,47,11,59,139,44*73
$GPGSV,3,2,12,17,39,306,39,14,31,053,40,23,20,182,38,19,18,317,41*7F
$GPGSV,3,3,12,32,18,041,37,28,16,254,27,08,12,163,31,31,05,088,25*75
$GPRMC,144958.000,A,4715.0272,N,00130.0310,W,23.75,58.86,110917,,,A*76
$GPGGA,144959.000,4715.0307,N,00130.0226,W,1,11,0.8,19.2,M,48.5,M,,0000*76
$GPGSA,A,3,03,11,22,01,17,28,23,19,08,32,14,,1.3,0.8,1.0*32
$GPRMC,144959.000,A,4715.0307,N,00130.0226,W,24.59,58.82,110917,,,A*7D
$GPGGA,145000.000,4715.0343,N,00130.0139,W,1,11,0.8,19.3,M,48.5,M,,0000*7E
$GPGSA,A,3,03,11,22,01,17,28,23,19,08,32,14,,1.3,0.8,1.0*32
$GPRMC,145000.000,A,4715.0343,N,00130.0139,W,25.27,59.58,110917,,,A*7A
$GPGGA,145001.000,4715.0379,N,00130.0048,W,1,11,0.8,19.4,M,48.5,M,,0000*76
$GPGSA,A,3,03,11,22,01,17,28,23,19,08,32,14,,1.3,0.8,1.0*32
$GPRMC,145001.000,A,4715.0379,N,00130.0048,W,25.70,61.25,110917,,,A*76
$GPGGA,145002.000,4715.0414,N,00129.9957,W,1,10,0.9,19.5,M,48.5,M,,0000*7E
$GPGSA,A,3,03,11,22,01,17,28,23,19,32,14,,,1.5,0.9,1.2*3F
$GPRMC,145002.000,A,4715.0414,N,00129.9957,W,25.51,61.56,110917,,,A*78
$GPGGA,145003.000,4715.0448,N,00129.9867,W,1,11,0.8,19.5,M,48.5,M,,0000*74
$GPGSA,A,3,03,11,22,01,17,28,23,19,08,32,14,,1.3,0.8,1.0*32
$GPGSV,3,1,12,22,84,051,42,01,75,080,40,03,68,248,47,11,59,139,45*7F
$GPGSV,3,2,12,17,39,306,40,14,31,053,41,23,20,182,33,19,18,317,41*7B
$GPGSV,3,3,12,32,18,041,37,28,16,254,27,08,12,163,32,31,05,088,28*7B
$GPRMC,145003.000,A,4715.0448,N,00129.9867,W,24.66,61.65,110917,,,A*77
$GPGGA,145004.000,4715.0481,N,00129.9780,W,1,11,0.8,19.5,M,48.5,M,,0000*70
$GPGSA,A,3,03,11,22,01,17,28,23,19,08,32,14,,1.3,0.8,1.0*32
$GPRMC,145004.000,A,4715.0481,N,00129.9780,W,23.90,61.50,110917,,,A*7B
$GPGGA,145005.000,4715.0513,N,00129.9695,W,1,11,0.8,19.6,M,48.5,M,,0000*7D
$GPGSA,A,3,03,11,22,01,17,28,23,19,08,32,14,,1.3,0.8,1.0*32
$GPRMC,145005.000,A,4715.0513,N,00129.9695,W,23.18,61.31,110917,,,A*72
$GPGGA,145006.000,4715.0544,N,00129.9614,W,1,11,0.8,19.6,M,48.5,M,,0000*75
$GPGSA,A,3,03,11,22,01,17,28,23,19,08,32,14,,1.3,0.8,1.0*32
$GPRMC,145006.000,A,4715.0544,N,00129.9614,W,22.47,61.42,110917,,,A*75
$GPGGA,145007.000,4715.0573,N,00129.9535,W,1,11,0.8,19.6,M,48.5,M,,0000*70
$GPGSA,A,3,03,11,22,01,17,28,23,19,08,32,14,,1.3,0.8,1.0*32
$GPRMC,145007.000,A,4715.0573,N,00129.9535,W,21.61,61.99,110917,,,A*71
$GPGGA,145008.000,4715.0600,N,00129.9460,W,1,11,0.8,19.6,M,48.5,M,,0000*79
$GPGSA,A,3,03,11,22,01,17,28,23,19,08,32,14,,1.3,0.8,1.0*32
$GPGSV,3,1,12,22,84,051,42,01,75,080,40,03,68,248,48,11,59,139,46*73
$GPGSV,3,2,12,17,39,306,40,14,31,053,41,23,20,182,34,19,18,317,41*7C
$GPGSV,3,3,12,32,18,041,37,28,16,254,28,08,12,163,33,31,05,088,31*7D
$GPRMC,145008.000,A,4715.0600,N,00129.9460,W,20.01,63.43,110917,,,A*7A
$GPGGA,145009.000,4715.0623,N,00129.9392,W,1,11,0.8,19.5,M,48.5,M,,0000*70
$GPGSA,A,3,03,11,22,01,17,28,23,19,08,32,14,,1.3,0.8,1.0*32
$GPRMC,145009.000,A,4715.0623,N,00129.9392,W,17.31,64.79,110917,,,A*79
$GPGGA,145010.000,4715.0643,N,00129.9330,W,1,10,0.9,19.5,M,48.5,M,,0000*76
$GPGSA,A,3,03,11,22,01,17,28,23,19,32,14,,,1.5,0.9,1.2*3F
$GPRMC,145010.000,A,4715.0643,N,00129.9330,W,15.82,66.98,110917,,,A*78
$GPGGA,145011.000,4715.0659,N,00129.9271,W,1,10,0.9,19.5,M,48.5,M,,0000*78
$GPGSA,A,3,03,11,22,01,17,28,23,19,32,14,,,1.5,0.9,1.2*3F
$GPRMC,145011.000,A,4715.0659,N,00129.9271,W,15.42,71.27,110917,,,A*78
$GPGGA,145012.000,4715.0668,N,00129.9211,W,1,11,0.8,19.2,M,48.5,M,,0000*78
$GPGSA,A,3,03,11,22,01,17,28,23,19,08,32,14,,1.3,0.8,1.0*32
$GPRMC,145012.000,A,4715.0668,N,00129.9211,W,15.16,83.22,110917,,,A*76
$GPGGA,145013.000,4715.0666,N,00129.9151,W,1,11,0.8,19.0,M,48.5,M,,0000*72
$GPGSA,A,3,03,11,22,01,17,28,23,19,08,32,14,,1.3,0.8,1.0*32
$GPGSV,3,1,12,22,84,052,42,01,75,081,40,03,68,249,47,11,59,139,39*77
$GPGSV,3,2,12,17,39,306,36,14,31,053,32,23,21,182,38,19,18,317,27*74
$GPGSV,3,3,12,32,18,041,37,28,16,254,32,08,12,163,35,31,05,088,36*77
$GPRMC,145013.000,A,4715.0666,N,00129.9151,W,15.00,100.94,110917,,,A*4E
$GPGGA,145014.000,4715.0651,N,00129.9094,W,1,11,0.8,18.7,M,48.5,M,,0000*7F
$GPGSA,A,3,03,11,22,01,17,28,23,19,08,32,14,,1.3,0.8,1.0*32
$GPRMC,145014.000,A,4715.0651,N,00129.9094,W,15.72,120.43,110917,,,A*48
$GPGGA,145015.000,4715.0623,N,00129.9043,W,1,11,0.8,18.2,M,48.5,M,,0000*74
$GPGSA,A,3,03,11,22,01,17,28,23,19,08,32,14,,1.3,0.8,1.0*32
$GPRMC,145015.000,A,4715.0623,N,00129.9043,W,15.98,134.82,110917,,,A*4A
$GPGGA,145016.000,4715.0590,N,00129.8998,W,1,11,0.8,17.7,M,48.5,M,,0000*78
$GPGSA,A,3,03,11,22,01,17,28,23,19,08,32,14,,1.3,0.8,1.0*32
$GPRMC,145016.000,A,4715.0590,N,00129.8998,W,16.96,138.16,110917,,,A*40
$GPGGA,145017.000,4715.0553,N,00129.8949,W,1,11,0.8,17.4,M,48.5,M,,0000*79
$GPGSA,A,3,03,11,22,01,17,28,23,19,08,32,14,,1.3,0.8,1.0*32
$GPRMC,145017.000,A,4715.0553,N,00129.8949,W,17.95,136.87,110917,,,A*46
$GPGGA,145018.000,4715.0516,N,00129.8899,W,1,10,0.9,17.1,M,48.5,M,,0000*7E
$GPGSA,A,3,03,11,22,01,17,28,23,08,32,14,,,1.4,0.9,1.1*3D
$GPGSV,3,1,12,22,84,052,40,01,75,081,46,03,68,249,39,11,59,139,41*75
$GPGSV,3,2,12,17,39,306,30,14,31,053,38,23,21,182,39,19,18,317,22*7C
$GPGSV,3,3,12,32,18,041,37,28,16,254,27,08,12,163,35,31,05,088,36*73
$GPRMC,145018.000,A,4715.0516,N,00129.8899,W,18.44,136.78,110917,,,A*47
$GPGGA,145019.000,4715.0478,N,00129.8847,W,1,10,0.9,16.6,M,48.5,M,,0000*73
$GPGSA,A,3,03,11,22,01,17,28,23,08,32,14,,,1.4,0.9,1.1*3D
$GPRMC,145019.000,A,4715.0478,N,00129.8847,W,18.24,136.63,110917,,,A*40
$GPGGA,145020.000,4715.0442,N,00129.8797,W,1,10,0.9,16.4,M,48.5,M,,0000*70
$GPGSA,A,3,03,11,22,01,17,28,23,08,32,14,,,1.4,0.9,1.1*3D
$GPRMC,145020.000,A,4715.0442,N,00129.8797,W,17.68,137.20,110917,,,A*40
$GPGGA,145021.000,4715.0405,N,00129.8749,W,1,10,0.9,16.2,M,48.5,M,,0000*77
$GPGSA,A,3,03,11,22,01,17,28,23,08,32,14,,,1.4,0.9,1.1*3D
$GPRMC,145021.000,A,4715.0405,N,00129.8749,W,17.28,137.00,110917,,,A*47
$GPGGA,145022.000,4715.0371,N,00129.8701,W,1,10,0.9,16.0,M,48.5,M,,0000*7E
$GPGSA,A,3,03,11,22,01,17,28,23,08,32,14,,,1.4,0.9,1.1*3D
$GPRMC,145022.000,A,4715.0371,N,00129.8701,W,16.49,137.09,110917,,,A*43
$GPGGA,145023.000,4715.0339,N,00129.8658,W,1,10,0.9,15.9,M,48.5,M,,0000*74
$GPGSA,A,3,03,11,22,01,17,28,23,08,32,14,,,1.4,0.9,1.1*3D
$GPGSV,3,1,12,22,84,052,40,01,75,081,46,03,68,249,40,11,59,139,42*78
$GPGSV,3,2,12,17,39,306,30,14,31,053,38,23,21,182,40,19,18,317,*72
$GPGSV,3,3,12,32,18,041,38,28,16,254,23,08,12,163,35,31,05,088,27*78
$GPRMC,145023.000,A,4715.0339,N,00129.8658,W,14.77,137.00,110917,,,A*45
$GPGGA,145024.000,4715.0311,N,00129.8621,W,1,10,0.9,15.7,M,48.5,M,,0000*79
$GPGSA,A,3,03,11,22,01,17,28,23,08,32,14,,,1.4,0.9,1.1*3D
$GPRMC,145024.000,A,4715.0311,N,00129.8621,W,12.07,138.53,110917,,,A*4E
$GPGGA,145025.000,4715.0287,N,00129.8594,W,1,10,0.9,15.7,M,48.5,M,,0000*7B
$GPGSA,A,3,03,11,22,01,17,28,23,08,32,14,,,1.4,0.9,1.1*3D
$GPRMC,145025.000,A,4715.0287,N,00129.8594,W,9.66,146.82,110917,,,A*74
$GPGGA,145026.000,4715.0264,N,00129.8577,W,1,10,0.9,15.6,M,48.5,M,,0000*79
$GPGSA,A,3,03,11,22,01,17,28,23,08,32,14,,,1.4,0.9,1.1*3D
$GPRMC,145026.000,A,4715.0264,N,00129.8577,W,8.75,160.17,110917,,,A*7C
$GPGGA,145027.000,4715.0238,N,00129.8571,W,1,10,0.9,15.6,M,48.5,M,,0000*77
$GPGSA,A,3,03,11,22,01,17,28,23,08,32,14,,,1.4,0.9,1.1*3D
$GPRMC,145027.000,A,4715.0238,N,00129.8571,W,9.57,177.46,110917,,,A*71
$GPGGA,145028.000,4715.0212,N,00129.8578,W,1,10,0.9,15.7,M,48.5,M,,0000*78
$GPGSA,A,3,03,11,22,01,17,28,23,08,32,14,,,1.4,0.9,1.1*3D
$GPGSV,3,1,12,22,84,052,40,01,75,081,45,03,68,249,48,11,59,139,44*75
$GPGSV,3,2,12,17,39,306,36,14,31,053,29,23,21,182,36,19,18,317,*75
$GPGSV,3,3,12,32,18,041,29,28,16,254,37,08,12,163,35,31,05,088,20*7A
$GPRMC,145028.000,A,4715.0212,N,00129.8578,W,10.26,198.61,110917,,,A*45
$GPGGA,145029.000,4715.0186,N,00129.8602,W,1,10,0.9,15.8,M,48.5,M,,0000*76
$GPGSA,A,3,03,11,22,01,17,28,23,08,32,14,,,1.4,0.9,1.1*3D
$GPRMC,145029.000,A,4715.0186,N,00129.8602,W,11.60,220.61,110917,,,A*47
$GPGGA,145030.000,4715.0163,N,00129.8641,W,1,10,0.9,15.9,M,48.5,M,,0000*73
$GPGSA,A,3,03,11,22,01,17,28,23,08,32,14,,,1.4,0.9,1.1*3D
$GPRMC,145030.000,A,4715.0163,N,00129.8641,W,12.90,235.28,110917,,,A*46
$GPGGA,145031.000,4715.0143,N,00129.8689,W,1,10,0.9,16.1,M,48.5,M,,0000*7F
$GPGSA,A,3,03,11,22,01,17,28,23,08,32,14,,,1.4,0.9,1.1*3D
$GPRMC,145031.000,A,4715.0143,N,00129.8689,W,14.28,238.86,110917,,,A*4D
$GPGGA,145032.000,4715.0122,N,00129.8743,W,1,10,0.9,16.4,M,48.5,M,,0000*79
$GPGSA,A,3,03,11,22,01,17,28,23,08,32,14,,,1.4,0.9,1.1*3D
$GPRMC,145032.000,A,4715.0122,N,00129.8743,W,15.45,240.63,110917,,,A*40
$GPGGA,145033.000,4715.0102,N,00129.8799,W,1,11,0.8,16.7,M,48.5,M,,0000*7E
$GPGSA,A,3,03,11,22,01,17,28,23,19,08,32,14,,1.3,0.8,1.0*32
$GPGSV,3,1,12,22,84,052,43,01,75,081,46,03,68,249,47,11,59,139,44*7A
$GPGSV,3,2,12,17,39,306,37,14,31,053,31,23,21,182,36,19,18,317,39*77
$GPGSV,3,3,12,32,18,041,33,28,16,254,25,08,12,163,29,31,05,088,*7D
$GPRMC,145033.000,A,4715.0102,N,00129.8799,W,15.19,243.45,110917,,,A*4A
$GPGGA,145034.000,4715.0082,N,00129.8857,W,1,11,0.8,16.9,M,48.5,M,,0000*73
