$GPGGA,062039.000,4714.3259,N,00131.5381,W,1,05,2.6,21.3,M,48.5,M,,0000*7F
$GPGSA,A,3,25,32,29,31,21,,,,,,,,4.2,2.6,3.3*3C
$GPRMC,062039.000,A,4714.3259,N,00131.5381,W,0.13,354.08,110917,,,A*72
$GPGGA,062040.000,4714.3259,N,00131.5381,W,1,05,2.6,21.3,M,48.5,M,,0000*71
$GPGSA,A,3,25,32,29,31,21,,,,,,,,4.2,2.6,3.3*3C
$GPRMC,062040.000,A,4714.3259,N,00131.5381,W,0.15,354.63,110917,,,A*77
$GPGGA,062041.000,4714.3260,N,00131.5381,W,1,05,2.6,21.2,M,48.5,M,,0000*7B
$GPGSA,A,3,25,32,29,31,21,,,,,,,,4.2,2.6,3.3*3C
$GPRMC,062041.000,A,4714.3260,N,00131.5381,W,0.15,355.94,110917,,,A*75
$GPGGA,062042.000,4714.3260,N,00131.5381,W,1,05,2.6,21.2,M,48.5,M,,0000*78
$GPGSA,A,3,25,32,29,31,21,,,,,,,,4.2,2.6,3.3*3C
$GPGSV,3,1,12,29,72,057,42,31,65,270,42,25,44,093,43,26,30,290,*76
$GPGSV,3,2,12,21,25,170,34,14,17,232,,02,16,040,,12,09,097,*7B
$GPGSV,3,3,12,32,06,218,34,16,04,283,,23,04,334,,05,02,078,*72
$GPRMC,062042.000,A,4714.3260,N,00131.5381,W,0.14,352.91,110917,,,A*75
$GPGGA,062043.000,4714.3260,N,00131.5381,W,1,05,2.6,21.2,M,48.5,M,,0000*79
$GPGSA,A,3,25,32,29,31,21,,,,,,,,4.2,2.6,3.3*3C
$GPRMC,062043.000,A,4714.3260,N,00131.5381,W,0.15,0.79,110917,,,A*77
$GPGGA,062044.000,4714.3260,N,00131.5381,W,1,05,2.6,21.2,M,48.5,M,,0000*7E
$GPGSA,A,3,25,32,29,31,21,,,,,,,,4.2,2.6,3.3*3C
$GPRMC,062044.000,A,4714.3260,N,00131.5381,W,0.16,350.27,110917,,,A*7E
$GPGGA,062045.000,4714.3260,N,00131.5381,W,1,05,2.6,21.2,M,48.5,M,,0000*7F
$GPGSA,A,3,25,32,29,31,21,,,,,,,,4.2,2.6,3.3*3C
$GPRMC,062045.000,A,4714.3260,N,00131.5381,W,0.15,354.58,110917,,,A*70
$GPGGA,062046.000,4714.3260,N,00131.5381,W,1,05,2.6,21.2,M,48.5,M,,0000*7C
$GPGSA,A,3,25,32,29,31,21,,,,,,,,4.2,2.6,3.3*3C
$GPRMC,062046.000,A,4714.3260,N,00131.5381,W,0.16,349.87,110917,,,A*7E
$GPGGA,062047.000,4714.3260,N,00131.5381,W,1,05,2.6,21.2,M,48.5,M,,0000*7D
$GPGSA,A,3,25,32,29,31,21,,,,,,,,4.2,2.6,3.3*3C
$GPGSV,3,1,12,29,72,057,42,31,65,270,42,25,44,093,43,26,30,290,*76
$GPGSV,3,2,12,21,25,170,34,14,17,232,,02,16,040,,12,09,097,*7B
$GPGSV,3,3,12,32,06,218,34,16,04,283,,23,04,334,,05,02,078,*72
$GPRMC,062047.000,A,4714.3260,N,00131.5381,W,0.15,359.56,110917,,,A*71
$GPGGA,062048.000,4714.3260,N,00131.5381,W,1,05,2.6,21.2,M,48.5,M,,0000*72
$GPGSA,A,3,25,32,29,31,21,,,,,,,,4.2,2.6,3.3*3C
$GPRMC,062048.000,A,4714.3260,N,00131.5381,W,0.15,349.95,110917,,,A*70
$GPGGA,062049.000,4714.3260,N,00131.5381,W,1,05,2.6,21.2,M,48.5,M,,0000*73
$GPGSA,A,3,25,32,29,31,21,,,,,,,,4.2,2.6,3.3*3C
$GPRMC,062049.000,A,4714.3260,N,00131.5381,W,0.14,351.15,110917,,,A*71
$GPGGA,062050.000,4714.3260,N,00131.5381,W,1,05,2.6,21.2,M,48.5,M,,0000*7B
$GPGSA,A,3,25,32,29,31,21,,,,,,,,4.2,2.6,3.3*3C
$GPRMC,062050.000,A,4714.3260,N,00131.5381,W,0.15,357.44,110917,,,A*7A
$GPGGA,062051.000,4714.3261,N,00131.5382,W,1,05,2.6,21.2,M,48.5,M,,0000*78
$GPGSA,A,3,25,32,29,31,21,,,,,,,,4.2,2.6,3.3*3C
$GPRMC,062051.000,A,4714.3261,N,00131.5382,W,0.13,356.79,110917,,,A*70
$GPGGA,062052.000,4714.3261,N,00131.5382,W,1,05,2.6,21.2,M,48.5,M,,0000*7B
$GPGSA,A,3,25,32,29,31,21,,,,,,,,4.2,2.6,3.3*3C
$GPGSV,3,1,12,29,72,057,42,31,65,270,43,25,44,093,43,26,30,290,*77
$GPGSV,3,2,12,21,25,170,34,14,17,232,,02,16,040,,12,09,097,16*7C
$GPGSV,3,3,12,32,06,218,34,16,04,283,,23,04,334,,05,02,078,*72
$GPRMC,062052.000,A,4714.3261,N,00131.5382,W,0.16,351.55,110917,,,A*7F
$GPGGA,062053.000,4714.3261,N,00131.5382,W,1,05,2.6,21.2,M,48.5,M,,0000*7A
$GPGSA,A,3,25,32,29,31,21,,,,,,,,4.2,2.6,3.3*3C
$GPRMC,062053.000,A,4714.3261,N,00131.5382,W,0.14,356.45,110917,,,A*7A
$GPGGA,062054.000,4714.3261,N,00131.5382,W,1,05,2.6,21.2,M,48.5,M,,0000*7D
$GPGSA,A,3,25,32,29,31,21,,,,,,,,4.2,2.6,3.3*3C
$GPRMC,062054.000,A,4714.3261,N,00131.5382,W,0.15,354.01,110917,,,A*7E
$GPGGA,062055.000,4714.3261,N,00131.5382,W,1,05,2.6,21.2,M,48.5,M,,0000*7C
$GPGSA,A,3,25,32,29,31,21,,,,,,,,4.2,2.6,3.3*3C
$GPRMC,062055.000,A,4714.3261,N,00131.5382,W,0.13,355.67,110917,,,A*78
$GPGGA,062056.000,4714.3261,N,00131.5382,W,1,05,2.6,21.2,M,48.5,M,,0000*7F
$GPGSA,A,3,25,32,29,31,21,,,,,,,,4.2,2.6,3.3*3C
$GPRMC,062056.000,A,4714.3261,N,00131.5382,W,0.15,354.62,110917,,,A*79
$GPGGA,062057.000,4714.3261,N,00131.5382,W,1,05,2.6,21.3,M,48.5,M,,0000*7F
$GPGSA,A,3,25,32,29,31,21,,,,,,,,4.2,2.6,3.3*3C
$GPGSV,3,1,12,29,72,057,42,31,65,270,43,25,44,093,43,26,30,290,*77
$GPGSV,3,2,12,21,25,170,34,14,17,232,,02,16,040,,12,09,097,*7B
$GPGSV,3,3,12,32,06,218,33,16,04,283,,23,04,334,,05,02,078,*75
$GPRMC,062057.000,A,4714.3261,N,00131.5382,W,0.12,355.76,110917,,,A*7B
$GPGGA,062058.000,4714.3261,N,00131.5382,W,1,05,2.6,21.3,M,48.5,M,,0000*70
$GPGSA,A,3,25,32,29,31,21,,,,,,,,4.2,2.6,3.3*3C
$GPRMC,062058.000,A,4714.3261,N,00131.5382,W,0.14,357.10,110917,,,A*70
$GPGGA,062059.000,4714.3261,N,00131.5382,W,1,05,2.6,21.3,M,48.5,M,,0000*71
$GPGSA,A,3,25,32,29,31,21,,,,,,,,4.2,2.6,3.3*3C
$GPRMC,062059.000,A,4714.3261,N,00131.5382,W,0.15,354.52,110917,,,A*75
$GPGGA,062100.000,4714.3261,N,00131.5382,W,1,05,2.6,21.3,M,48.5,M,,0000*7C
$GPGSA,A,3,25,32,29,31,21,,,,,,,,4.2,2.6,3.3*3C
$GPRMC,062100.000,A,4714.3261,N,00131.5382,W,0.15,352.29,110917,,,A*72
$GPGGA,062101.000,4714.3261,N,00131.5382,W,1,05,2.6,21.3,M,48.5,M,,0000*7D
$GPGSA,A,3,25,32,29,31,21,,,,,,,,4.2,2.6,3.3*3C
$GPRMC,062101.000,A,4714.3261,N,00131.5382,W,0.13,356.27,110917,,,A*7F
$GPGGA,062102.000,4714.3261,N,00131.5382,W,1,05,2.6,21.3,M,48.5,M,,0000*7E
$GPGSA,A,3,25,32,29,31,21,,,,,,,,4.2,2.6,3.3*3C
$GPGSV,3,1,12,29,72,057,42,31,65,270,43,25,44,093,43,26,30,290,*77
$GPGSV,3,2,12,21,25,170,34,14,17,232,,02,16,040,,12,09,097,*7B
$GPGSV,3,3,12,32,06,218,33,16,04,283,,23,04,334,,05,02,078,*75
$GPRMC,062102.000,A,4714.3261,N,00131.5382,W,0.13,354.75,110917,,,A*79
$GPGGA,062103.000,4714.3261,N,00131.5382,W,1,05,2.6,21.3,M,48.5,M,,0000*7F
$GPGSA,A,3,25,32,29,31,21,,,,,,,,4.2,2.6,3.3*3C
$GPRMC,062103.000,A,4714.3261,N,00131.5382,W,0.14,356.74,110917,,,A*7C
$GPGGA,062104.000,4714.3261,N,00131.5382,W,1,05,2.6,21.3,M,48.5,M,,0000*78
$GPGSA,A,3,25,32,29,31,21,,,,,,,,4.2,2.6,3.3*3C
$GPRMC,062104.000,A,4714.3261,N,00131.5382,W,0.15,349.56,110917,,,A*74
$GPGGA,062105.000,4714.3261,N,00131.5382,W,1,05,2.6,21.3,M,48.5,M,,0000*79
$GPGSA,A,3,25,32,29,31,21,,,,,,,,4.2,2.6,3.3*3C
$GPRMC,062105.000,A,4714.3261,N,00131.5382,W,0.12,355.30,110917,,,A*7F
$GPGGA,062106.000,4714.3261,N,00131.5382,W,1,05,2.6,21.3,M,48.5,M,,0000*7A
$GPGSA,A,3,25,32,29,31,21,,,,,,,,4.2,2.6,3.3*3C
$GPRMC,062106.000,A,4714.3261,N,00131.5382,W,0.16,352.03,110917,,,A*7F
$GPGGA,062107.000,4714.3261,N,00131.5382,W,1,05,2.6,21.3,M,48.5,M,,0000*7B
$GPGSA,A,3,25,32,29,31,21,,,,,,,,4.2,2.6,3.3*3C
$GPGSV,3,1,12,29,72,057,42,31,65,270,43,25,44,093,43,26,30,290,*77
$GPGSV,3,2,12,21,25,170,34,14,17,232,,02,16,040,,12,09,097,*7B
$GPGSV,3,3,12,32,06,218,32,16,04,283,,23,04,334,,05,02,078,*74
$GPRMC,062107.000,A,4714.3261,N,00131.5382,W,0.13,358.04,110917,,,A*76
$GPGGA,062108.000,4714.3261,N,00131.5382,W,1,05,2.6,21.3,M,48.5,M,,0000*74
$GPGSA,A,3,25,32,29,31,21,,,,,,,,4.2,2.6,3.3*3C
$GPRMC,062108.000,A,4714.3261,N,00131.5382,W,0.14,352.62,110917,,,A*74
$GPGGA,062109.000,4714.3261,N,00131.5382,W,1,05,2.6,21.3,M,48.5,M,,0000*75
$GPGSA,A,3,25,32,29,31,21,,,,,,,,4.2,2.6,3.3*3C
$GPRMC,062109.000,A,4714.3261,N,00131.5382,W,0.13,357.56,110917,,,A*70
$GPGGA,062110.000,4714.3261,N,00131.5382,W,1,05,2.6,21.3,M,48.5,M,,0000*7D
$GPGSA,A,3,25,32,29,31,21,,,,,,,,4.2,2.6,3.3*3C
$GPRMC,062110.000,A,4714.3261,N,00131.5382,W,0.15,352.14,110917,,,A*7D
$GPGGA,062111.000,4714.3261,N,00131.5382,W,1,05,2.6,21.4,M,48.5,M,,0000*7B
$GPGSA,A,3,25,32,29,31,21,,,,,,,,4.2,2.6,3.3*3C
$GPRMC,062111.000,A,4714.3261,N,00131.5382,W,0.12,355.02,110917,,,A*7B
$GPGGA,062112.000,4714.3261,N,00131.5382,W,1,05,2.6,21.4,M,48.5,M,,0000*78
$GPGSA,A,3,25,32,29,31,21,,,,,,,,4.2,2.6,3.3*3C
$GPGSV,3,1,12,29,72,057,43,31,65,270,43,25,44,093,43,26,30,290,*76
$GPGSV,3,2,12,21,25,170,34,14,17,232,,02,16,040,,12,09,097,*7B
$GPGSV,3,3,12,32,06,218,32,16,04,283,,23,04,334,,05,02,078,*74
$GPRMC,062112.000,A,4714.3261,N,00131.5382,W,0.11,354.47,110917,,,A*7B
$GPGGA,062113.000,4714.3261,N,00131.5382,W,1,05,2.6,21.5,M,48.5,M,,0000*78
$GPGSA,A,3,25,32,29,31,21,,,,,,,,4.2,2.6,3.3*3C
$GPRMC,062113.000,A,4714.3261,N,00131.5382,W,0.13,355.52,110917,,,A*7D
$GPGGA,062114.000,4714.3261,N,00131.5382,W,1,05,2.6,21.5,M,48.5,M,,0000*7F
$GPGSA,A,3,25,32,29,31,21,,,,,,,,4.2,2.6,3.3*3C
$GPRMC,062114.000,A,4714.3261,N,00131.5382,W,0.12,351.84,110917,,,A*74
$GPGGA,062115.000,4714.3261,N,00131.5382,W,1,05,2.6,21.5,M,48.5,M,,0000*7E
$GPGSA,A,3,25,32,29,31,21,,,,,,,,4.2,2.6,3.3*3C
$GPRMC,062115.000,A,4714.3261,N,00131.5382,W,0.12,358.73,110917,,,A*74
$GPGGA,062116.000,4714.3261,N,00131.5382,W,1,05,2.6,21.5,M,48.5,M,,0000*7D
$GPGSA,A,3,25,32,29,31,21,,,,,,,,4.2,2.6,3.3*3C
$GPRMC,062116.000,A,4714.3261,N,00131.5382,W,0.10,358.87,110917,,,A*7E
$GPGGA,062117.000,4714.3260,N,00131.5382,W,1,05,2.6,21.6,M,48.5,M,,0000*7E
$GPGSA,A,3,25,32,29,31,21,,,,,,,,4.2,2.6,3.3*3C
$GPGSV,3,1,12,29,72,057,44,31,65,270,43,25,44,093,44,26,30,290,*76
$GPGSV,3,2,12,21,25,170,34,14,17,232,,02,16,040,,12,09,097,21*78
$GPGSV,3,3,12,32,06,218,31,16,04,283,,23,04,334,,05,02,078,*77
$GPRMC,062117.000,A,4714.3260,N,00131.5382,W,0.12,357.97,110917,,,A*72
$GPGGA,062118.000,4714.3260,N,00131.5382,W,1,05,2.6,21.6,M,48.5,M,,0000*71
$GPGSA,A,3,25,32,29,31,21,,,,,,,,4.1,2.6,3.3*3F
$GPRMC,062118.000,A,4714.3260,N,00131.5382,W,0.12,353.50,110917,,,A*72
$GPGGA,062119.000,4714.3260,N,00131.5382,W,1,05,2.6,21.6,M,48.5,M,,0000*70
$GPGSA,A,3,25,32,29,31,21,,,,,,,,4.1,2.6,3.3*3F
$GPRMC,062119.000,A,4714.3260,N,00131.5382,W,0.09,9.62,110917,,,A*74
$GPGGA,062120.000,4714.3260,N,00131.5381,W,1,05,2.6,21.7,M,48.5,M,,0000*78
$GPGSA,A,3,25,32,29,31,21,,,,,,,,4.1,2.6,3.3*3F
$GPRMC,062120.000,A,4714.3260,N,00131.5381,W,0.12,351.74,110917,,,A*7E
$GPGGA,062121.000,4714.3260,N,00131.5381,W,1,05,2.6,21.7,M,48.5,M,,0000*79
$GPGSA,A,3,25,32,29,31,21,,,,,,,,4.1,2.6,3.3*3F
$GPRMC,062121.000,A,4714.3260,N,00131.5381,W,0.08,359.23,110917,,,A*7E
$GPGGA,062122.000,4714.3260,N,00131.5381,W,1,05,2.6,21.7,M,48.5,M,,0000*7A
$GPGSA,A,3,25,32,29,31,21,,,,,,,,4.1,2.6,3.3*3F
$GPGSV,3,1,12,29,72,057,44,31,65,270,43,25,44,093,44,26,30,290,*76
$GPGSV,3,2,12,21,25,170,34,14,17,232,,02,16,040,,12,09,097,21*78
$GPGSV,3,3,12,32,06,218,30,16,04,283,,23,04,334,,05,02,078,*76
$GPRMC,062122.000,A,4714.3260,N,00131.5381,W,0.12,357.35,110917,,,A*7F
$GPGGA,062123.000,4714.3259,N,00131.5381,W,1,05,2.5,21.8,M,48.5,M,,0000*7D
$GPGSA,A,3,25,32,29,31,21,,,,,,,,4.1,2.5,3.3*3C
$GPRMC,062123.000,A,4714.3259,N,00131.5381,W,0.08,359.81,110917,,,A*7E
$GPGGA,062124.000,4714.3259,N,00131.5381,W,1,05,2.5,21.8,M,48.5,M,,0000*7A
$GPGSA,A,3,25,32,29,31,21,,,,,,,,4.1,2.5,3.3*3C
$GPRMC,062124.000,A,4714.3259,N,00131.5381,W,0.12,354.37,110917,,,A*72
$GPGGA,062125.000,4714.3259,N,00131.5381,W,1,05,2.5,21.8,M,48.5,M,,0000*7B
$GPGSA,A,3,25,32,29,31,21,,,,,,,,4.1,2.5,3.3*3C
$GPRMC,062125.000,A,4714.3259,N,00131.5381,W,0.07,353.58,110917,,,A*79
$GPGGA,062126.000,4714.3259,N,00131.5381,W,1,05,2.5,21.9,M,48.5,M,,0000*79
$GPGSA,A,3,25,32,29,31,21,,,,,,,,4.1,2.5,3.3*3C
$GPRMC,062126.000,A,4714.3259,N,00131.5381,W,0.11,0.22,110917,,,A*75
$GPGGA,062127.000,4714.3259,N,00131.5381,W,1,05,2.5,21.9,M,48.5,M,,0000*78
$GPGSA,A,3,25,32,29,31,21,,,,,,,,4.1,2.5,3.3*3C
$GPGSV,3,1,12,29,72,057,44,31,65,270,43,25,44,093,44,26,30,290,*76
$GPGSV,3,2,12,21,25,170,34,14,17,232,,02,16,040,16,12,09,097,21*7F
$GPGSV,3,3,12,32,06,218,29,16,04,283,,23,04,334,,05,02,078,*7E
$GPRMC,062127.000,A,4714.3259,N,00131.5381,W,0.10,353.10,110917,,,A*71
$GPGGA,062128.000,4714.3259,N,00131.5381,W,1,05,2.5,21.9,M,48.5,M,,0000*77
$GPGSA,A,3,25,32,29,31,21,,,,,,,,4.1,2.5,3.3*3C
$GPRMC,062128.000,A,4714.3259,N,00131.5381,W,0.10,357.02,110917,,,A*79
$GPGGA,062129.000,4714.3258,N,00131.5381,W,1,05,2.5,22.0,M,48.5,M,,0000*7D
$GPGSA,A,3,25,32,29,31,21,,,,,,,,4.1,2.5,3.3*3C
$GPRMC,062129.000,A,4714.3258,N,00131.5381,W,0.11,4.69,110917,,,A*70
$GPGGA,062130.000,4714.3258,N,00131.5381,W,1,05,2.5,22.0,M,48.5,M,,0000*75
$GPGSA,A,3,25,32,29,31,21,,,,,,,,4.1,2.5,3.3*3C
$GPRMC,062130.000,A,4714.3258,N,00131.5381,W,0.19,234.83,110917,,,A*75
$GPGGA,062131.000,4714.3256,N,00131.5383,W,1,05,2.5,22.0,M,48.5,M,,0000*78
$GPGSA,A,3,25,32,29,31,21,,,,,,,,4.1,2.5,3.3*3C
$GPRMC,062131.000,A,4714.3256,N,00131.5383,W,0.86,214.89,110917,,,A*76
$GPGGA,062132.000,4714.3253,N,00131.5385,W,1,05,2.5,22.1,M,48.5,M,,0000*79
$GPGSA,A,3,25,32,29,31,21,,,,,,,,4.1,2.5,3.3*3C
$GPGSV,3,1,12,29,72,057,45,31,65,270,43,25,44,093,44,26,30,290,*77
$GPGSV,3,2,12,21,25,170,30,14,17,232,,02,16,040,21,12,09,097,*7C
$GPGSV,3,3,12,32,06,218,29,16,04,283,,23,04,334,,05,02,078,*7E
$GPRMC,062132.000,A,4714.3253,N,00131.5385,W,1.29,208.80,110917,,,A*76
$GPGGA,062133.000,4714.3252,N,00131.5388,W,1,05,2.5,21.7,M,48.5,M,,0000*71
$GPGSA,A,3,25,32,29,31,21,,,,,,,,4.1,2.5,3.3*3C
$GPRMC,062133.000,A,4714.3252,N,00131.5388,W,0.99,208.00,110917,,,A*79
$GPGGA,062134.000,4714.3252,N,00131.5390,W,1,05,2.5,21.1,M,48.5,M,,0000*79
$GPGSA,A,3,25,32,29,31,21,,,,,,,,4.1,2.5,3.2*3D
$GPRMC,062134.000,A,4714.3252,N,00131.5390,W,1.03,206.57,110917,,,A*79
$GPGGA,062135.000,4714.3251,N,00131.5393,W,1,05,2.5,20.5,M,48.5,M,,0000*7D
$GPGSA,A,3,25,32,29,31,21,,,,,,,,4.1,2.5,3.2*3D
$GPRMC,062135.000,A,4714.3251,N,00131.5393,W,1.32,203.59,110917,,,A*71
$GPGGA,062136.000,4714.3251,N,00131.5395,W,1,05,2.5,19.9,M,48.5,M,,0000*7E
$GPGSA,A,3,25,32,29,31,21,,,,,,,,4.1,2.5,3.2*3D
$GPRMC,062136.000,A,4714.3251,N,00131.5395,W,0.98,201.07,110917,,,A*7C
$GPGGA,062137.000,4714.3249,N,00131.5397,W,1,05,2.5,19.5,M,48.5,M,,0000*78
$GPGSA,A,3,25,32,29,31,21,,,,,,,,4.1,2.5,3.2*3D
$GPGSV,3,1,12,29,72,057,44,31,65,270,43,25,44,093,43,26,30,290,*71
$GPGSV,3,2,12,21,25,170,34,14,17,232,,02,16,040,21,12,09,097,18*71
$GPGSV,3,3,12,32,06,218,29,16,04,283,,23,04,334,,05,02,078,*7E
$GPRMC,062137.000,A,4714.3249,N,00131.5397,W,1.71,197.87,110917,,,A*74
$GPGGA,062138.000,4714.3243,N,00131.5399,W,1,05,2.5,19.2,M,48.5,M,,0000*74
$GPGSA,A,3,25,32,29,31,21,,,,,,,,4.1,2.5,3.2*3D
$GPRMC,062138.000,A,4714.3243,N,00131.5399,W,2.74,187.84,110917,,,A*7B
$GPGGA,062139.000,4714.3236,N,00131.5401,W,1,05,2.5,18.9,M,48.5,M,,0000*7B
$GPGSA,A,3,25,32,29,31,21,,,,,,,,4.1,2.5,3.2*3D
$GPRMC,062139.000,A,4714.3236,N,00131.5401,W,3.21,186.60,110917,,,A*74
$GPGGA,062140.000,4714.3227,N,00131.5403,W,1,05,2.5,18.8,M,48.5,M,,0000*76
$GPGSA,A,3,25,32,29,31,21,,,,,,,,4.1,2.5,3.2*3D
$GPRMC,062140.000,A,4714.3227,N,00131.5403,W,3.52,186.90,110917,,,A*73
$GPGGA,062141.000,4714.3218,N,00131.5405,W,1,05,2.5,18.5,M,48.5,M,,0000*70
$GPGSA,A,3,25,32,29,31,21,,,,,,,,4.1,2.5,3.2*3D
$GPRMC,062141.000,A,4714.3218,N,00131.5405,W,3.51,194.39,110917,,,A*7B
$GPGGA,062142.000,4714.3209,N,00131.5410,W,1,05,2.5,18.0,M,48.5,M,,0000*72
$GPGSA,A,3,25,32,29,31,21,,,,,,,,4.1,2.5,3.2*3D
$GPGSV,3,1,12,29,72,057,44,31,65,270,44,25,44,093,36,26,30,290,*74
$GPGSV,3,2,12,21,25,170,39,14,17,232,29,02,16,040,26,12,09,097,27*7C
$GPGSV,3,3,12,32,06,218,23,16,04,283,,23,04,334,,05,02,078,*74
$GPRMC,062142.000,A,4714.3209,N,00131.5410,W,3.63,201.81,110917,,,A*71
$GPGGA,062143.000,4714.3200,N,00131.5416,W,1,05,2.5,17.7,M,48.5,M,,0000*74
$GPGSA,A,3,25,32,29,31,21,,,,,,,,4.1,2.5,3.2*3D
$GPRMC,062143.000,A,4714.3200,N,00131.5416,W,3.78,206.15,110917,,,A*7F
$GPGGA,062144.000,4714.3191,N,00131.5424,W,1,05,2.5,17.5,M,48.5,M,,0000*7B
$GPGSA,A,3,25,32,29,31,21,,,,,,,,4.1,2.5,3.2*3D
$GPRMC,062144.000,A,4714.3191,N,00131.5424,W,3.60,213.42,110917,,,A*7D
$GPGGA,062145.000,4714.3195,N,00131.5435,W,1,05,2.5,15.0,M,48.5,M,,0000*79
$GPGSA,A,3,25,32,29,31,21,,,,,,,,4.1,2.5,3.2*3D
$GPRMC,062145.000,A,4714.3195,N,00131.5435,W,3.11,223.59,110917,,,A*77
$GPGGA,062146.000,4714.3196,N,00131.5445,W,1,05,2.5,13.3,M,48.5,M,,0000*7B
$GPGSA,A,3,25,32,29,31,21,,,,,,,,4.1,2.5,3.2*3D
$GPRMC,062146.000,A,4714.3196,N,00131.5445,W,3.25,222.06,110917,,,A*7C
$GPGGA,062147.000,4714.3195,N,00131.5455,W,1,05,2.5,11.8,M,48.5,M,,0000*71
$GPGSA,A,3,25,32,29,31,21,,,,,,,,4.1,2.5,3.2*3D
$GPGSV,3,1,12,29,71,056,44,31,65,267,43,25,43,094,42,26,31,290,*75
$GPGSV,3,2,12,21,26,170,28,14,16,231,29,02,15,039,19,12,08,098,26*73
$GPGSV,3,3,12,32,05,217,30,16,04,284,,23,04,334,,05,02,077,*72
$GPRMC,062147.000,A,4714.3195,N,00131.5455,W,2.90,227.78,110917,,,A*7C
$GPGGA,062148.000,4714.3189,N,00131.5464,W,1,05,2.5,11.3,M,48.5,M,,0000*7A
$GPGSA,A,3,25,32,29,31,21,,,,,,,,4.1,2.5,3.2*3D
$GPRMC,062148.000,A,4714.3189,N,00131.5464,W,3.02,223.48,110917,,,A*71
$GPGGA,062149.000,4714.3181,N,00131.5472,W,1,05,2.5,11.3,M,48.5,M,,0000*74
$GPGSA,A,3,25,32,29,31,21,,,,,,,,4.1,2.5,3.2*3D
$GPRMC,062149.000,A,4714.3181,N,00131.5472,W,2.93,224.10,110917,,,A*7C
$GPGGA,062150.000,4714.3170,N,00131.5479,W,1,05,2.5,11.9,M,48.5,M,,0000*73
$GPGSA,A,3,25,32,29,31,21,,,,,,,,4.1,2.5,3.2*3D
$GPRMC,062150.000,A,4714.3170,N,00131.5479,W,3.19,218.96,110917,,,A*73
$GPGGA,062151.000,4714.3159,N,00131.5486,W,1,05,2.5,12.4,M,48.5,M,,0000*77
$GPGSA,A,3,25,32,29,31,21,,,,,,,,4.1,2.5,3.2*3D
$GPRMC,062151.000,A,4714.3159,N,00131.5486,W,3.26,217.41,110917,,,A*70
$GPGGA,062152.000,4714.3149,N,00131.5494,W,1,05,2.5,12.6,M,48.5,M,,0000*74
$GPGSA,A,3,25,32,29,31,21,,,,,,,,4.1,2.5,3.2*3D
$GPGSV,3,1,12,29,71,056,44,31,65,267,43,25,43,094,40,26,31,290,*77
$GPGSV,3,2,12,21,26,170,33,14,16,231,31,02,15,039,,12,08,098,25*7B
$GPGSV,3,3,12,32,05,217,31,16,04,284,,23,04,334,,05,02,077,*73
$GPRMC,062152.000,A,4714.3149,N,00131.5494,W,3.27,216.77,110917,,,A*74
$GPGGA,062153.000,4714.3144,N,00131.5502,W,1,05,2.5,12.0,M,48.5,M,,0000*70
$GPGSA,A,3,25,32,29,31,21,,,,,,,,4.1,2.5,3.2*3D
$GPRMC,062153.000,A,4714.3144,N,00131.5502,W,3.21,218.08,110917,,,A*76
$GPGGA,062154.000,4714.3135,N,00131.5510,W,1,05,2.5,12.1,M,48.5,M,,0000*73
$GPGSA,A,3,25,32,29,31,21,,,,,,,,4.1,2.5,3.2*3D
$GPRMC,062154.000,A,4714.3135,N,00131.5510,W,3.30,217.58,110917,,,A*7E
$GPGGA,062155.000,4714.3128,N,00131.5519,W,1,05,2.5,11.8,M,48.5,M,,0000*7D
$GPGSA,A,3,25,32,29,31,21,,,,,,,,4.1,2.5,3.2*3D
$GPRMC,062155.000,A,4714.3128,N,00131.5519,W,3.09,221.04,110917,,,A*7C
$GPGGA,062156.000,4714.3121,N,00131.5527,W,1,05,2.5,11.6,M,48.5,M,,0000*74
$GPGSA,A,3,25,32,29,31,21,,,,,,,,4.1,2.5,3.2*3D
$GPRMC,062156.000,A,4714.3121,N,00131.5527,W,3.08,221.27,110917,,,A*7B
$GPGGA,062157.000,4714.3118,N,00131.5536,W,1,05,2.5,10.6,M,48.5,M,,0000*7E
$GPGSA,A,3,25,32,29,31,21,,,,,,,,4.1,2.5,3.2*3D
$GPGSV,3,1,12,29,71,056,44,31,65,267,43,25,43,094,40,26,31,290,*77
$GPGSV,3,2,12,21,26,170,22,14,16,231,28,02,15,039,,12,08,098,27*71
$GPGSV,3,3,12,32,05,217,38,16,04,284,,23,04,334,,05,02,077,*7A
$GPRMC,062157.000,A,4714.3118,N,00131.5536,W,2.96,223.77,110917,,,A*71
$GPGGA,062158.000,4714.3108,N,00131.5543,W,1,05,2.5,11.0,M,48.5,M,,0000*75
$GPGSA,A,3,25,32,29,31,21,,,,,,,,4.1,2.5,3.2*3D
$GPRMC,062158.000,A,4714.3108,N,00131.5543,W,3.25,217.31,110917,,,A*71
$GPGGA,062159.000,4714.3101,N,00131.5551,W,1,05,2.5,10.6,M,48.5,M,,0000*79
$GPGSA,A,3,25,32,29,31,21,,,,,,,,4.1,2.5,3.2*3D
$GPRMC,062159.000,A,4714.3101,N,00131.5551,W,3.18,218.37,110917,,,A*7D
$GPGGA,062200.000,4714.3103,N,00131.5562,W,1,05,2.5,8.6,M,48.5,M,,0000*4D
$GPGSA,A,3,25,32,29,31,21,,,,,,,,4.1,2.5,3.2*3D
$GPRMC,062200.000,A,4714.3103,N,00131.5562,W,2.87,226.17,110917,,,A*78
$GPGGA,062201.000,4714.3095,N,00131.5570,W,1,05,2.5,8.6,M,48.5,M,,0000*41
$GPGSA,A,3,25,32,29,31,21,,,,,,,,4.1,2.5,3.2*3D
$GPRMC,062201.000,A,4714.3095,N,00131.5570,W,3.11,220.63,110917,,,A*7F
$GPGGA,062202.000,4714.3086,N,00131.5577,W,1,05,2.5,8.7,M,48.5,M,,0000*46
$GPGSA,A,3,25,32,29,31,21,,,,,,,,4.1,2.5,3.2*3D
$GPGSV,3,1,12,29,71,056,44,31,65,267,43,25,43,094,41,26,31,290,*76
$GPGSV,3,2,12,21,26,170,30,14,16,231,30,02,15,039,22,12,08,098,27*7B
$GPGSV,3,3,12,32,05,217,38,16,04,284,,23,04,334,,05,02,077,*7A
$GPRMC,062202.000,A,4714.3086,N,00131.5577,W,3.28,219.12,110917,,,A*7F
$GPGGA,062203.000,4714.3076,N,00131.5585,W,1,05,2.5,9.0,M,48.5,M,,0000*43
$GPGSA,A,3,25,32,29,31,21,,,,,,,,4.1,2.5,3.2*3D
$GPRMC,062203.000,A,4714.3076,N,00131.5585,W,3.40,217.74,110917,,,A*7C
$GPGGA,062204.000,4714.3065,N,00131.5593,W,1,05,2.5,9.3,M,48.5,M,,0000*42
$GPGSA,A,3,25,32,29,31,21,,,,,,,,4.1,2.5,3.2*3D
$GPRMC,062204.000,A,4714.3065,N,00131.5593,W,3.51,217.84,110917,,,A*71
$GPGGA,062205.000,4714.3054,N,00131.5602,W,1,05,2.5,9.7,M,48.5,M,,0000*4E
$GPGSA,A,3,25,32,29,31,21,,,,,,,,4.1,2.5,3.2*3D
$GPRMC,062205.000,A,4714.3054,N,00131.5602,W,3.71,219.36,110917,,,A*7C
$GPGGA,062206.000,4714.3044,N,00131.5611,W,1,05,2.5,10.0,M,48.5,M,,0000*71
$GPGSA,A,3,25,32,29,31,21,,,,,,,,4.1,2.5,3.2*3D
$GPRMC,062206.000,A,4714.3044,N,00131.5611,W,3.68,220.68,110917,,,A*75
$GPGGA,062207.000,4714.3035,N,00131.5621,W,1,05,2.5,10.3,M,48.5,M,,0000*76
$GPGSA,A,3,25,32,29,31,21,,,,,,,,4.1,2.5,3.2*3D
$GPGSV,3,1,12,29,71,056,44,31,65,267,42,25,43,094,35,26,31,290,*74
$GPGSV,3,2,12,21,26,170,36,14,16,231,33,02,15,039,23,12,08,098,25*7D
$GPGSV,3,3,12,32,05,217,37,16,04,284,,23,04,334,,05,02,077,*75
$GPRMC,062207.000,A,4714.3035,N,00131.5621,W,3.58,228.94,110917,,,A*79
$GPGGA,062208.000,4714.3026,N,00131.5631,W,1,05,2.5,10.5,M,48.5,M,,0000*7C
$GPGSA,A,3,25,32,29,31,21,,,,,,,,4.1,2.5,3.2*3D
$GPRMC,062208.000,A,4714.3026,N,00131.5631,W,3.61,226.74,110917,,,A*7F
$GPGGA,062209.000,4714.3016,N,00131.5641,W,1,05,2.5,10.9,M,48.5,M,,0000*75
$GPGSA,A,3,25,32,29,31,21,,,,,,,,4.1,2.5,3.2*3D
$GPRMC,062209.000,A,4714.3016,N,00131.5641,W,3.63,215.57,110917,,,A*79
$GPGGA,062210.000,4714.3006,N,00131.5648,W,1,05,2.5,11.1,M,48.5,M,,0000*7C
$GPGSA,A,3,25,32,29,31,21,,,,,,,,4.1,2.5,3.2*3D
$GPRMC,062210.000,A,4714.3006,N,00131.5648,W,3.40,211.75,110917,,,A*7C
$GPGGA,062211.000,4714.2997,N,00131.5654,W,1,05,2.5,11.3,M,48.5,M,,0000*72
$GPGSA,A,3,25,32,29,31,21,,,,,,,,4.1,2.5,3.2*3D
$GPRMC,062211.000,A,4714.2997,N,00131.5654,W,2.78,211.02,110917,,,A*7A
$GPGGA,062212.000,4714.2991,N,00131.5658,W,1,05,2.5,11.5,M,48.5,M,,0000*7D
$GPGSA,A,3,25,32,29,31,21,,,,,,,,4.1,2.5,3.2*3D
$GPGSV,3,1,12,29,71,056,44,31,65,267,42,25,43,094,37,26,31,290,27*73
$GPGSV,3,2,12,21,26,170,35,14,16,231,32,02,15,039,22,12,08,098,*79
$GPGSV,3,3,12,32,05,217,26,16,04,284,,23,04,334,,05,02,077,*75
$GPRMC,062212.000,A,4714.2991,N,00131.5658,W,1.59,208.96,110917,,,A*76
$GPGGA,062213.000,4714.2988,N,00131.5660,W,1,05,2.5,11.6,M,48.5,M,,0000*7C
$GPGSA,A,3,25,32,29,31,21,,,,,,,,4.1,2.5,3.2*3D
$GPRMC,062213.000,A,4714.2988,N,00131.5660,W,0.50,211.67,110917,,,A*7A
$GPGGA,062214.000,4714.2986,N,00131.5661,W,1,05,2.5,11.8,M,48.5,M,,0000*7A
$GPGSA,A,3,25,32,29,31,21,,,,,,,,4.1,2.5,3.2*3D
$GPRMC,062214.000,A,4714.2986,N,00131.5661,W,0.06,354.18,110917,,,A*79
$GPGGA,062215.000,4714.2986,N,00131.5660,W,1,05,2.5,11.8,M,48.5,M,,0000*7A
$GPGSA,A,3,25,32,29,31,21,,,,,,,,4.1,2.5,3.2*3D
$GPRMC,062215.000,A,4714.2986,N,00131.5660,W,0.07,342.69,110917,,,A*79
$GPGGA,062216.000,4714.2985,N,00131.5660,W,1,05,2.5,11.9,M,48.5,M,,0000*7B
$GPGSA,A,3,25,32,29,31,21,,,,,,,,4.1,2.5,3.2*3D
$GPRMC,062216.000,A,4714.2985,N,00131.5660,W,0.08,353.87,110917,,,A*76
$GPGGA,062217.000,4714.2985,N,00131.5660,W,1,05,2.5,11.9,M,48.5,M,,0000*7A
$GPGSA,A,3,25,32,29,31,21,,,,,,,,4.1,2.5,3.2*3D
$GPGSV,3,1,12,29,70,056,43,31,65,267,41,25,43,094,38,26,31,290,27*79
$GPGSV,3,2,12,21,26,170,37,14,16,231,26,02,15,039,23,12,08,098,*7F
$GPGSV,3,3,12,16,05,284,,32,05,217,27,23,04,333,,05,03,077,*73
$GPRMC,062217.000,A,4714.2985,N,00131.5660,W,0.10,349.87,110917,,,A*75
$GPGGA,062218.000,4714.2985,N,00131.5660,W,1,05,2.5,12.0,M,48.5,M,,0000*7F
$GPGSA,A,3,25,32,29,31,21,,,,,,,,4.1,2.5,3.2*3D
$GPRMC,062218.000,A,4714.2985,N,00131.5660,W,0.09,346.81,110917,,,A*7B
$GPGGA,062219.000,4714.2984,N,00131.5660,W,1,05,2.5,12.0,M,48.5,M,,0000*7F
$GPGSA,A,3,25,32,29,31,21,,,,,,,,4.1,2.5,3.2*3D
$GPRMC,062219.000,A,4714.2984,N,00131.5660,W,0.09,348.40,110917,,,A*78
$GPGGA,062220.000,4714.2984,N,00131.5660,W,1,05,2.5,12.0,M,48.5,M,,0000*75
$GPGSA,A,3,25,32,29,31,21,,,,,,,,4.1,2.5,3.2*3D
$GPRMC,062220.000,A,4714.2984,N,00131.5660,W,0.10,345.96,110917,,,A*7C
$GPGGA,062221.000,4714.2984,N,00131.5660,W,1,05,2.5,12.0,M,48.5,M,,0000*74
$GPGSA,A,3,25,32,29,31,21,,,,,,,,4.1,2.5,3.2*3D
$GPRMC,062221.000,A,4714.2984,N,00131.5660,W,0.09,352.60,110917,,,A*7A
$GPGGA,062222.000,4714.2984,N,00131.5660,W,1,05,2.5,12.0,M,48.5,M,,0000*77
$GPGSA,A,3,25,32,29,31,21,,,,,,,,4.1,2.5,3.2*3D
$GPGSV,3,1,12,29,70,056,43,31,65,267,41,25,43,094,39,26,31,290,27*78
$GPGSV,3,2,12,21,26,170,37,14,16,231,26,02,15,039,23,12,08,098,*7F
$GPGSV,3,3,12,16,05,284,,32,05,217,28,23,04,333,,05,03,077,*7C
$GPRMC,062222.000,A,4714.2984,N,00131.5660,W,0.10,343.14,110917,,,A*72
$GPGGA,062223.000,4714.2984,N,00131.5660,W,1,05,2.5,12.0,M,48.5,M,,0000*76
$GPGSA,A,3,25,32,29,31,21,,,,,,,,4.1,2.5,3.2*3D
$GPRMC,062223.000,A,4714.2984,N,00131.5660,W,0.10,352.24,110917,,,A*70
$GPGGA,062224.000,4714.2984,N,00131.5660,W,1,05,2.5,12.0,M,48.5,M,,0000*71
$GPGSA,A,3,25,32,29,31,21,,,,,,,,4.0,2.5,3.2*3C
$GPRMC,062224.000,A,4714.2984,N,00131.5660,W,0.10,346.58,110917,,,A*79
$GPGGA,062225.000,4714.2984,N,00131.5660,W,1,05,2.5,11.9,M,48.5,M,,0000*7A
$GPGSA,A,3,25,32,29,31,21,,,,,,,,4.0,2.5,3.2*3C
$GPRMC,062225.000,A,4714.2984,N,00131.5660,W,0.10,350.26,110917,,,A*76
$GPGGA,062226.000,4714.2983,N,00131.5660,W,1,05,2.5,11.9,M,48.5,M,,0000*7E
$GPGSA,A,3,25,32,29,31,21,,,,,,,,4.0,2.5,3.2*3C
$GPRMC,062226.000,A,4714.2983,N,00131.5660,W,0.12,349.26,110917,,,A*78
$GPGGA,062227.000,4714.2984,N,00131.5660,W,1,05,2.5,11.8,M,48.5,M,,0000*79
$GPGSA,A,3,25,32,29,31,21,,,,,,,,4.0,2.5,3.2*3C
$GPGSV,3,1,12,29,70,056,43,31,65,267,41,25,43,094,39,26,31,290,28*77
$GPGSV,3,2,12,21,26,170,37,14,16,231,28,02,15,039,23,12,08,098,*71
$GPGSV,3,3,12,16,05,284,,32,05,217,28,23,04,333,,05,03,077,*7C
$GPRMC,062227.000,A,4714.2984,N,00131.5660,W,0.10,352.49,110917,,,A*7F
$GPGGA,062228.000,4714.2983,N,00131.5660,W,1,05,2.5,11.8,M,48.5,M,,0000*71
$GPGSA,A,3,25,32,29,31,21,,,,,,,,4.0,2.5,3.2*3C
$GPRMC,062228.000,A,4714.2983,N,00131.5660,W,0.13,347.85,110917,,,A*70
$GPGGA,062229.000,4714.2983,N,00131.5660,W,1,05,2.5,11.7,M,48.5,M,,0000*7F
$GPGSA,A,3,25,32,29,31,21,,,,,,,,4.0,2.5,3.2*3C
$GPRMC,062229.000,A,4714.2983,N,00131.5660,W,0.12,344.66,110917,,,A*7E
$GPGGA,062230.000,4714.2966,N,00131.5654,W,1,06,1.7,16.7,M,48.5,M,,0000*7E
$GPGSA,A,3,25,32,29,31,21,26,,,,,,,3.0,1.7,2.4*39
$GPRMC,062230.000,A,4714.2966,N,00131.5654,W,0.04,158.17,110917,,,A*74
$GPGGA,062231.000,4714.2957,N,00131.5650,W,1,06,1.7,19.5,M,48.5,M,,0000*74
$GPGSA,A,3,25,32,29,31,21,26,,,,,,,3.0,1.7,2.4*39
$GPRMC,062231.000,A,4714.2957,N,00131.5650,W,0.10,177.63,110917,,,A*78
$GPGGA,062232.000,4714.2951,N,00131.5648,W,1,06,1.7,21.3,M,48.5,M,,0000*75
$GPGSA,A,3,25,32,29,31,21,26,,,,,,,3.0,1.7,2.4*39
$GPGSV,3,1,12,29,70,056,43,31,65,266,41,25,43,094,39,26,31,291,28*77
$GPGSV,3,2,12,21,26,170,36,14,15,231,28,02,15,039,23,12,08,098,*73
$GPGSV,3,3,12,16,05,284,,32,04,217,29,23,04,333,,05,03,077,*7C
$GPRMC,062232.000,A,4714.2951,N,00131.5648,W,0.12,165.81,110917,,,A*79
$GPGGA,062233.000,4714.2946,N,00131.5646,W,1,06,1.7,22.6,M,48.5,M,,0000*7A
$GPGSA,A,3,25,32,29,31,21,26,,,,,,,3.0,1.7,2.4*39
$GPRMC,062233.000,A,4714.2946,N,00131.5646,W,0.12,170.08,110917,,,A*75
$GPGGA,062234.000,4714.2943,N,00131.5644,W,1,06,1.7,23.6,M,48.5,M,,0000*7B
$GPGSA,A,3,25,32,29,31,21,26,,,,,,,3.0,1.7,2.4*39
$GPRMC,062234.000,A,4714.2943,N,00131.5644,W,0.12,173.07,110917,,,A*79
$GPGGA,062235.000,4714.2940,N,00131.5643,W,1,06,1.7,24.5,M,48.5,M,,0000*7A
$GPGSA,A,3,25,32,29,31,21,26,,,,,,,3.0,1.7,2.4*39
$GPRMC,062235.000,A,4714.2940,N,00131.5643,W,0.11,163.63,110917,,,A*7C
$GPGGA,062236.000,4714.2937,N,00131.5642,W,1,06,1.7,25.2,M,48.5,M,,0000*7E
$GPGSA,A,3,25,32,29,31,21,26,,,,,,,3.0,1.7,2.4*39
$GPRMC,062236.000,A,4714.2937,N,00131.5642,W,0.11,175.04,110917,,,A*78
$GPGGA,062237.000,4714.2935,N,00131.5642,W,1,06,1.7,25.8,M,48.5,M,,0000*77
$GPGSA,A,3,25,32,29,31,21,26,,,,,,,3.0,1.7,2.4*39
$GPGSV,3,1,12,29,70,056,43,31,65,266,41,25,43,094,39,26,31,291,29*76
$GPGSV,3,2,12,21,26,170,36,14,15,231,28,02,15,039,,12,08,098,25*75
$GPGSV,3,3,12,16,05,284,,32,04,217,29,23,04,333,,05,03,077,*7C
$GPRMC,062237.000,A,4714.2935,N,00131.5642,W,0.09,164.86,110917,,,A*78
$GPGGA,062238.000,4714.2934,N,00131.5641,W,1,06,1.7,26.2,M,48.5,M,,0000*73
$GPGSA,A,3,25,32,29,31,21,26,,,,,,,3.0,1.7,2.4*39
$GPRMC,062238.000,A,4714.2934,N,00131.5641,W,0.10,180.46,110917,,,A*7B
$GPGGA,062239.000,4714.2932,N,00131.5640,W,1,06,1.7,26.6,M,48.5,M,,0000*71
$GPGSA,A,3,25,32,29,31,21,26,,,,,,,3.0,1.7,2.4*39
$GPRMC,062239.000,A,4714.2932,N,00131.5640,W,0.09,160.55,110917,,,A*79
$GPGGA,062240.000,4714.2931,N,00131.5640,W,1,06,1.7,27.0,M,48.5,M,,0000*7B
$GPGSA,A,3,25,32,29,31,21,26,,,,,,,3.0,1.7,2.4*39
$GPRMC,062240.000,A,4714.2931,N,00131.5640,W,0.10,176.34,110917,,,A*7C
$GPGGA,062241.000,4714.2929,N,00131.5640,W,1,06,1.7,27.4,M,48.5,M,,0000*77
$GPGSA,A,3,25,32,29,31,21,26,,,,,,,3.0,1.7,2.4*39
$GPRMC,062241.000,A,4714.2929,N,00131.5640,W,0.31,196.87,110917,,,A*71
$GPGGA,062242.000,4714.2925,N,00131.5641,W,1,06,1.7,27.6,M,48.5,M,,0000*7B
$GPGSA,A,3,25,32,29,31,21,26,,,,,,,3.0,1.7,2.4*39
$GPGSV,3,1,12,29,70,056,43,31,65,266,41,25,43,094,40,26,31,291,28*79
$GPGSV,3,2,12,21,26,170,37,14,15,231,27,02,15,039,,12,08,098,18*75
$GPGSV,3,3,12,16,05,284,,32,04,217,30,23,04,333,,05,03,077,*74
$GPRMC,062242.000,A,4714.2925,N,00131.5641,W,2.04,200.97,110917,,,A*76
$GPGGA,062243.000,4714.2917,N,00131.5645,W,1,06,1.7,27.8,M,48.5,M,,0000*71
$GPGSA,A,3,25,32,29,31,21,26,,,,,,,3.0,1.7,2.4*39
$GPRMC,062243.000,A,4714.2917,N,00131.5645,W,3.55,199.13,110917,,,A*78
$GPGGA,062244.000,4714.2907,N,00131.5650,W,1,06,1.7,28.0,M,48.5,M,,0000*74
$GPGSA,A,3,25,32,29,31,21,26,,,,,,,3.0,1.7,2.4*39
$GPRMC,062244.000,A,4714.2907,N,00131.5650,W,3.75,205.12,110917,,,A*7F
$GPGGA,062245.000,4714.2898,N,00131.5657,W,1,06,1.7,28.1,M,48.5,M,,0000*74
$GPGSA,A,3,25,32,29,31,21,26,,,,,,,3.0,1.7,2.4*39
$GPRMC,062245.000,A,4714.2898,N,00131.5657,W,2.98,214.28,110917,,,A*75
$GPGGA,062246.000,4714.2893,N,00131.5662,W,1,06,1.7,28.2,M,48.5,M,,0000*79
$GPGSA,A,3,25,32,29,31,21,26,,,,,,,3.0,1.7,2.4*39
$GPRMC,062246.000,A,4714.2893,N,00131.5662,W,1.69,221.05,110917,,,A*7F
$GPGGA,062247.000,4714.2889,N,00131.5668,W,1,06,1.7,28.4,M,48.5,M,,0000*7F
$GPGSA,A,3,25,32,29,31,21,26,,,,,,,3.0,1.7,2.4*39
$GPGSV,3,1,12,29,70,056,43,31,65,266,41,25,43,094,39,26,31,291,29*76
$GPGSV,3,2,12,21,26,170,34,14,15,231,36,02,15,039,,12,08,098,20*7D
$GPGSV,3,3,12,16,05,284,,32,04,217,26,23,04,333,,05,03,077,*73
$GPRMC,062247.000,A,4714.2889,N,00131.5668,W,1.92,242.80,110917,,,A*73
$GPGGA,062248.000,4714.2887,N,00131.5675,W,1,07,1.7,28.6,M,48.5,M,,0000*71
$GPGSA,A,3,25,32,29,31,14,21,26,,,,,,2.9,1.7,2.4*34
$GPRMC,062248.000,A,4714.2887,N,00131.5675,W,1.96,263.62,110917,,,A*75
$GPGGA,062249.000,4714.2888,N,00131.5686,W,1,07,1.7,28.4,M,48.5,M,,0000*71
$GPGSA,A,3,25,32,29,31,14,21,26,,,,,,2.9,1.7,2.4*34
$GPRMC,062249.000,A,4714.2888,N,00131.5686,W,3.23,282.03,110917,,,A*73
$GPGGA,062250.000,4714.2891,N,00131.5700,W,1,07,1.7,28.7,M,48.5,M,,0000*7D
$GPGSA,A,3,25,32,29,31,14,21,26,,,,,,2.9,1.7,2.4*34
$GPRMC,062250.000,A,4714.2891,N,00131.5700,W,3.95,290.22,110917,,,A*71
$GPGGA,062251.000,4714.2896,N,00131.5716,W,1,05,1.7,28.7,M,48.5,M,,0000*7E
$GPGSA,A,3,25,29,31,21,26,,,,,,,,3.3,1.7,2.8*37
$GPRMC,062251.000,A,4714.2896,N,00131.5716,W,4.54,299.90,110917,,,A*7A
$GPGGA,062252.000,4714.2905,N,00131.5733,W,1,07,1.7,28.8,M,48.5,M,,0000*7C
$GPGSA,A,3,25,32,29,31,14,21,26,,,,,,2.9,1.7,2.4*34
$GPGSV,3,1,12,29,70,056,42,31,65,266,43,25,43,094,35,26,31,291,39*78
$GPGSV,3,2,12,21,26,170,29,14,15,231,17,02,15,039,26,12,08,098,*74
$GPGSV,3,3,12,16,05,284,,32,04,217,13,23,04,333,,05,03,077,*75
$GPRMC,062252.000,A,4714.2905,N,00131.5733,W,5.40,306.00,110917,,,A*7F
$GPGGA,062253.000,4714.2916,N,00131.5753,W,1,07,1.7,28.4,M,48.5,M,,0000*75
$GPGSA,A,3,25,32,29,31,14,21,26,,,,,,2.9,1.7,2.4*34
$GPRMC,062253.000,A,4714.2916,N,00131.5753,W,6.24,302.28,110917,,,A*75
$GPGGA,062254.000,4714.2929,N,00131.5775,W,1,07,1.7,28.2,M,48.5,M,,0000*7C
$GPGSA,A,3,25,32,29,31,14,21,26,,,,,,2.9,1.7,2.4*34
$GPRMC,062254.000,A,4714.2929,N,00131.5775,W,6.81,306.49,110917,,,A*76
$GPGGA,062255.000,4714.2941,N,00131.5797,W,1,07,1.7,27.8,M,48.5,M,,0000*7A
$GPGSA,A,3,25,32,29,31,14,21,26,,,,,,2.9,1.7,2.4*34
$GPRMC,062255.000,A,4714.2941,N,00131.5797,W,5.95,301.26,110917,,,A*7D
$GPGGA,062256.000,4714.2955,N,00131.5820,W,1,07,1.7,27.5,M,48.5,M,,0000*72
$GPGSA,A,3,25,32,29,31,14,21,26,,,,,,2.9,1.7,2.4*34
$GPRMC,062256.000,A,4714.2955,N,00131.5820,W,7.74,305.96,110917,,,A*7A
$GPGGA,062257.000,4714.2973,N,00131.5849,W,1,07,1.7,27.6,M,48.5,M,,0000*7B
$GPGSA,A,3,25,32,29,31,14,21,26,,,,,,2.9,1.7,2.4*34
$GPGSV,3,1,12,29,70,056,43,31,65,266,42,25,43,094,35,26,31,291,38*79
$GPGSV,3,2,12,21,26,170,18,14,15,231,26,02,15,039,,12,08,098,*70
$GPGSV,3,3,12,16,05,284,,32,04,217,17,23,04,333,,05,03,077,*71
$GPRMC,062257.000,A,4714.2973,N,00131.5849,W,10.08,310.84,110917,,,A*4A
$GPGGA,062258.000,4714.2997,N,00131.5884,W,1,07,1.7,27.8,M,48.5,M,,0000*71
$GPGSA,A,3,25,32,29,31,14,21,26,,,,,,2.9,1.7,2.4*34
$GPRMC,062258.000,A,4714.2997,N,00131.5884,W,11.79,312.61,110917,,,A*40
$GPGGA,062259.000,4714.3024,N,00131.5922,W,1,07,1.7,27.7,M,48.5,M,,0000*72
$GPGSA,A,3,25,32,29,31,14,21,26,,,,,,2.9,1.7,2.4*34
$GPRMC,062259.000,A,4714.3024,N,00131.5922,W,12.98,312.05,110917,,,A*42
$GPGGA,062300.000,4714.3053,N,00131.5963,W,1,07,1.7,27.2,M,48.5,M,,0000*7F
$GPGSA,A,3,25,32,29,31,14,21,26,,,,,,2.9,1.7,2.4*34
$GPRMC,062300.000,A,4714.3053,N,00131.5963,W,13.34,312.34,110917,,,A*4F
$GPGGA,062301.000,4714.3080,N,00131.6006,W,1,07,1.7,26.9,M,48.5,M,,0000*73
$GPGSA,A,3,25,32,29,31,14,21,26,,,,,,2.9,1.7,2.4*34
$GPRMC,062301.000,A,4714.3080,N,00131.6006,W,14.20,309.54,110917,,,A*47
$GPGGA,062302.000,4714.3107,N,00131.6050,W,1,07,1.7,26.2,M,48.5,M,,0000*76
$GPGSA,A,3,25,32,29,31,14,21,26,,,,,,2.9,1.7,2.4*34
$GPGSV,3,1,12,29,70,056,40,31,65,266,42,25,43,094,27,26,31,291,38*79
$GPGSV,3,2,12,21,26,170,22,14,15,231,23,02,15,039,27,12,08,098,*79
$GPGSV,3,3,12,16,05,284,,32,04,217,17,23,04,333,,05,03,077,*71
$GPRMC,062302.000,A,4714.3107,N,00131.6050,W,13.62,309.21,110917,,,A*4A
$GPGGA,062303.000,4714.3132,N,00131.6092,W,1,07,1.7,25.4,M,48.5,M,,0000*7A
$GPGSA,A,3,25,32,29,31,14,21,26,,,,,,2.9,1.7,2.4*34
$GPRMC,062303.000,A,4714.3132,N,00131.6092,W,12.60,310.10,110917,,,A*4A
$GPGGA,062304.000,4714.3157,N,00131.6130,W,1,07,1.7,24.7,M,48.5,M,,0000*75
$GPGSA,A,3,25,32,29,31,14,21,26,,,,,,2.9,1.7,2.4*34
$GPRMC,062304.000,A,4714.3157,N,00131.6130,W,11.25,310.58,110917,,,A*49
$GPGGA,062305.000,4714.3177,N,00131.6163,W,1,07,1.7,23.7,M,48.5,M,,0000*77
$GPGSA,A,3,25,32,29,31,14,21,26,,,,,,2.9,1.7,2.4*34
$GPRMC,062305.000,A,4714.3177,N,00131.6163,W,8.13,303.45,110917,,,A*7F
$GPGGA,062306.000,4714.3191,N,00131.6190,W,1,07,1.7,23.0,M,48.5,M,,0000*77
$GPGSA,A,3,25,32,29,31,14,21,26,,,,,,2.9,1.7,2.4*34
$GPRMC,062306.000,A,4714.3191,N,00131.6190,W,6.49,304.19,110917,,,A*77
$GPGGA,062307.000,4714.3205,N,00131.6211,W,1,07,1.7,22.5,M,48.5,M,,0000*76
$GPGSA,A,3,25,32,29,31,14,21,26,,,,,,2.9,1.7,2.4*34
$GPGSV,3,1,12,29,70,056,41,31,65,266,42,25,43,094,26,26,31,291,38*79
$GPGSV,3,2,12,21,26,170,22,14,15,231,22,02,15,039,,12,08,098,*7D
$GPGSV,3,3,12,16,05,284,,32,04,217,16,23,04,333,,05,03,077,*70
$GPRMC,062307.000,A,4714.3205,N,00131.6211,W,5.21,301.66,110917,,,A*72
$GPGGA,062308.000,4714.3220,N,00131.6232,W,1,07,1.7,22.3,M,48.5,M,,0000*79
$GPGSA,A,3,25,32,29,31,14,21,26,,,,,,2.9,1.7,2.4*34
$GPRMC,062308.000,A,4714.3220,N,00131.6232,W,5.82,302.10,110917,,,A*70
$GPGGA,062309.000,4714.3237,N,00131.6255,W,1,07,1.7,22.5,M,48.5,M,,0000*79
$GPGSA,A,3,25,32,29,31,14,21,26,,,,,,2.9,1.7,2.4*34
$GPRMC,062309.000,A,4714.3237,N,00131.6255,W,6.23,308.16,110917,,,A*72
$GPGGA,062310.000,4714.3254,N,00131.6277,W,1,07,1.7,23.2,M,48.5,M,,0000*72
$GPGSA,A,3,25,32,29,31,14,21,26,,,,,,2.9,1.7,2.4*34
$GPRMC,062310.000,A,4714.3254,N,00131.6277,W,6.30,312.81,110917,,,A*78
$GPGGA,062311.000,4714.3270,N,00131.6297,W,1,07,1.7,23.4,M,48.5,M,,0000*7D
$GPGSA,A,3,25,32,29,31,14,21,26,,,,,,2.9,1.7,2.4*34
$GPRMC,062311.000,A,4714.3270,N,00131.6297,W,5.02,304.60,110917,,,A*7B
$GPGGA,062312.000,4714.3283,N,00131.6316,W,1,06,1.7,23.8,M,48.5,M,,0000*77
$GPGSA,A,3,25,29,31,14,21,26,,,,,,,3.1,1.7,2.7*3F
$GPGSV,3,1,12,29,70,056,43,31,65,266,43,25,43,094,28,26,31,291,38*74
$GPGSV,3,2,12,21,26,170,24,14,15,231,21,02,15,039,,12,08,098,*78
$GPGSV,3,3,12,16,05,284,,32,04,217,,23,04,333,,05,03,077,*77
$GPRMC,062312.000,A,4714.3283,N,00131.6316,W,6.09,308.94,110917,,,A*73
$GPGGA,062313.000,4714.3300,N,00131.6340,W,1,06,1.7,24.0,M,48.5,M,,0000*70
$GPGSA,A,3,25,29,31,14,21,26,,,,,,,3.1,1.7,2.7*3F
$GPRMC,062313.000,A,4714.3300,N,00131.6340,W,7.06,302.77,110917,,,A*72
$GPGGA,062314.000,4714.3317,N,00131.6368,W,1,06,1.7,24.0,M,48.5,M,,0000*7B
$GPGSA,A,3,25,29,31,14,21,26,,,,,,,3.1,1.7,2.7*3F
$GPRMC,062314.000,A,4714.3317,N,00131.6368,W,9.52,311.06,110917,,,A*72
$GPGGA,062315.000,4714.3338,N,00131.6401,W,1,05,2.1,24.1,M,48.5,M,,0000*78
$GPGSA,A,3,25,29,31,14,26,,,,,,,,3.4,2.1,2.7*3C
$GPRMC,062315.000,A,4714.3338,N,00131.6401,W,11.83,313.14,110917,,,A*42
$GPGGA,062316.000,4714.3365,N,00131.6441,W,1,05,2.1,24.6,M,48.5,M,,0000*70
$GPGSA,A,3,25,29,31,14,26,,,,,,,,3.4,2.1,2.7*3C
$GPRMC,062316.000,A,4714.3365,N,00131.6441,W,14.07,313.57,110917,,,A*43
$GPGGA,062317.000,4714.3394,N,00131.6486,W,1,05,2.1,24.9,M,48.5,M,,0000*7B
$GPGSA,A,3,25,29,31,14,26,,,,,,,,3.4,2.1,2.7*3C
$GPGSV,3,1,12,29,70,055,44,31,65,265,43,25,43,094,28,26,32,291,38*70
$GPGSV,3,2,12,21,26,170,16,14,15,231,22,02,14,039,,12,08,098,*7B
$GPGSV,3,3,12,16,05,284,,23,04,333,,32,04,217,,05,03,077,*77
$GPRMC,062317.000,A,4714.3394,N,00131.6486,W,15.53,313.37,110917,,,A*41
$GPGGA,062318.000,4714.3426,N,00131.6534,W,1,06,1.7,25.1,M,48.5,M,,0000*7D
$GPGSA,A,3,25,29,31,14,21,26,,,,,,,3.1,1.7,2.7*3F
$GPRMC,062318.000,A,4714.3426,N,00131.6534,W,16.19,313.87,110917,,,A*4E
$GPGGA,062319.000,4714.3457,N,00131.6580,W,1,06,1.7,24.6,M,48.5,M,,0000*73
$GPGSA,A,3,25,29,31,14,21,26,,,,,,,3.1,1.7,2.7*3F
$GPRMC,062319.000,A,4714.3457,N,00131.6580,W,15.19,313.17,110917,,,A*4C
$GPGGA,062320.000,4714.3487,N,00131.6625,W,1,04,4.4,24.2,M,48.5,M,,0000*78
$GPGSA,A,3,25,29,31,26,,,,,,,,,5.5,4.4,3.2*39
$GPRMC,062320.000,A,4714.3487,N,00131.6625,W,15.66,313.77,110917,,,A*49
$GPGGA,062321.000,4714.3518,N,00131.6673,W,1,05,1.7,23.6,M,48.5,M,,0000*79
$GPGSA,A,3,25,29,31,21,26,,,,,,,,3.3,1.7,2.8*37
$GPRMC,062321.000,A,4714.3518,N,00131.6673,W,16.30,313.19,110917,,,A*44
$GPGGA,062322.000,4714.3558,N,00131.6726,W,1,05,1.7,24.0,M,48.5,M,,0000*7E
$GPGSA,A,3,25,29,31,21,26,,,,,,,,3.3,1.7,2.8*37
$GPGSV,3,1,12,29,70,055,44,31,65,265,43,25,43,094,28,26,32,291,39*71
$GPGSV,3,2,12,21,26,170,26,14,15,231,07,02,14,039,,12,08,098,*7F
$GPGSV,3,3,12,16,05,284,,23,04,333,,32,04,217,,05,03,077,*77
$GPRMC,062322.000,A,4714.3558,N,00131.6726,W,17.78,314.03,110917,,,A*43
$GPGGA,062323.000,4714.3598,N,00131.6782,W,1,05,1.7,24.0,M,48.5,M,,0000*7D
$GPGSA,A,3,25,29,31,21,26,,,,,,,,3.3,1.7,2.8*37
$GPRMC,062323.000,A,4714.3598,N,00131.6782,W,18.54,313.78,110917,,,A*4A
$GPGGA,062324.000,4714.3640,N,00131.6840,W,1,05,1.7,24.3,M,48.5,M,,0000*7E
$GPGSA,A,3,25,29,31,21,26,,,,,,,,3.3,1.7,2.8*37
$GPRMC,062324.000,A,4714.3640,N,00131.6840,W,19.77,314.65,110917,,,A*41
$GPGGA,062325.000,4714.3679,N,00131.6898,W,1,05,1.7,24.2,M,48.5,M,,0000*71
$GPGSA,A,3,25,29,31,21,26,,,,,,,,3.3,1.7,2.8*37
$GPRMC,062325.000,A,4714.3679,N,00131.6898,W,20.12,314.97,110917,,,A*4B
$GPGGA,062326.000,4714.3718,N,00131.6956,W,1,05,1.7,23.8,M,48.5,M,,0000*7A
$GPGSA,A,3,25,29,31,21,26,,,,,,,,3.3,1.7,2.8*37
$GPRMC,062326.000,A,4714.3718,N,00131.6956,W,20.07,315.46,110917,,,A*44
$GPGGA,062327.000,4714.3759,N,00131.7014,W,1,05,1.7,23.9,M,48.5,M,,0000*71
$GPGSA,A,3,25,29,31,21,26,,,,,,,,3.3,1.7,2.8*37
$GPGSV,3,1,12,29,70,055,45,31,65,265,43,25,43,094,28,26,32,291,40*7E
$GPGSV,3,2,12,21,26,170,25,14,15,231,,02,14,039,,12,08,098,*7B
$GPGSV,3,3,12,16,05,284,,23,04,333,,32,04,217,,05,03,077,*77
$GPRMC,062327.000,A,4714.3759,N,00131.7014,W,19.94,316.44,110917,,,A*4F
$GPGGA,062328.000,4714.3800,N,00131.7071,W,1,05,1.7,23.9,M,48.5,M,,0000*7E
$GPGSA,A,3,25,29,31,21,26,,,,,,,,3.3,1.7,2.8*37
$GPRMC,062328.000,A,4714.3800,N,00131.7071,W,19.69,317.35,110917,,,A*45
$GPGGA,062329.000,4714.3843,N,00131.7126,W,1,05,1.7,24.3,M,48.5,M,,0000*76
$GPGSA,A,3,25,29,31,21,26,,,,,,,,3.3,1.7,2.8*37
$GPRMC,062329.000,A,4714.3843,N,00131.7126,W,19.82,320.18,110917,,,A*4E
$GPGGA,062330.000,4714.3884,N,00131.7178,W,1,05,1.7,24.0,M,48.5,M,,0000*7D
$GPGSA,A,3,25,29,31,21,26,,,,,,,,3.3,1.7,2.8*37
$GPRMC,062330.000,A,4714.3884,N,00131.7178,W,19.08,318.80,110917,,,A*4E
$GPGGA,062331.000,4714.3926,N,00131.7231,W,1,05,1.7,24.5,M,48.5,M,,0000*7E
$GPGSA,A,3,25,29,31,21,26,,,,,,,,3.3,1.7,2.8*37
$GPRMC,062331.000,A,4714.3926,N,00131.7231,W,19.26,318.41,110917,,,A*49
$GPGGA,062332.000,4714.3967,N,00131.7285,W,1,06,1.6,24.9,M,48.5,M,,0000*79
$GPGSA,A,3,25,29,31,14,21,26,,,,,,,3.1,1.6,2.7*3E
$GPGSV,3,1,12,29,70,055,45,31,65,265,43,25,43,094,28,26,32,291,31*78
$GPGSV,3,2,12,21,26,170,25,14,15,231,24,02,14,039,,12,08,098,*7D
$GPGSV,3,3,12,16,05,284,,23,04,333,,32,04,217,,05,03,077,*77
$GPRMC,062332.000,A,4714.3967,N,00131.7285,W,19.03,318.28,110917,,,A*48
$GPGGA,062333.000,4714.4006,N,00131.7337,W,1,06,1.6,25.2,M,48.5,M,,0000*73
$GPGSA,A,3,25,29,31,14,21,26,,,,,,,3.1,1.6,2.7*3E
$GPRMC,062333.000,A,4714.4006,N,00131.7337,W,18.77,318.40,110917,,,A*44
$GPGGA,062334.000,4714.4044,N,00131.7388,W,1,06,1.6,25.7,M,48.5,M,,0000*73
$GPGSA,A,3,25,29,31,14,21,26,,,,,,,3.1,1.6,2.7*3E
$GPRMC,062334.000,A,4714.4044,N,00131.7388,W,18.03,318.39,110917,,,A*4C
$GPGGA,062335.000,4714.4079,N,00131.7434,W,1,05,1.7,26.0,M,48.5,M,,0000*7A
$GPGSA,A,3,25,29,31,21,26,,,,,,,,3.3,1.7,2.8*37
$GPRMC,062335.000,A,4714.4079,N,00131.7434,W,15.08,317.65,110917,,,A*43
$GPGGA,062336.000,4714.4106,N,00131.7474,W,1,05,1.7,26.2,M,48.5,M,,0000*76
$GPGSA,A,3,25,29,31,21,26,,,,,,,,3.3,1.7,2.8*37
$GPRMC,062336.000,A,4714.4106,N,00131.7474,W,12.49,317.44,110917,,,A*4C
$GPGGA,062337.000,4714.4129,N,00131.7508,W,1,05,1.7,26.6,M,48.5,M,,0000*74
$GPGSA,A,3,25,29,31,21,26,,,,,,,,3.3,1.7,2.8*37
$GPGSV,3,1,12,29,70,055,45,31,65,265,43,25,43,094,28,26,32,291,39*70
$GPGSV,3,2,12,21,26,170,25,14,15,231,,02,14,039,,12,08,098,*7B
$GPGSV,3,3,12,16,05,284,,23,04,333,,32,04,217,,05,03,077,*77
$GPRMC,062337.000,A,4714.4129,N,00131.7508,W,11.05,318.06,110917,,,A*48
$GPGGA,062338.000,4714.4147,N,00131.7535,W,1,05,1.7,26.6,M,48.5,M,,0000*7D
$GPGSA,A,3,25,29,31,21,26,,,,,,,,3.3,1.7,2.8*37
$GPRMC,062338.000,A,4714.4147,N,00131.7535,W,8.62,317.18,110917,,,A*78
$GPGGA,062339.000,4714.4161,N,00131.7556,W,1,05,1.7,26.6,M,48.5,M,,0000*7D
$GPGSA,A,3,25,29,31,21,26,,,,,,,,3.3,1.7,2.8*37
$GPRMC,062339.000,A,4714.4161,N,00131.7556,W,6.40,319.16,110917,,,A*76
$GPGGA,062340.000,4714.4171,N,00131.7570,W,1,05,1.7,26.8,M,48.5,M,,0000*78
$GPGSA,A,3,25,29,31,21,26,,,,,,,,3.3,1.7,2.8*37
$GPRMC,062340.000,A,4714.4171,N,00131.7570,W,3.88,317.84,110917,,,A*79
$GPGGA,062341.000,4714.4177,N,00131.7578,W,1,05,1.7,27.0,M,48.5,M,,0000*7E
$GPGSA,A,3,25,29,31,21,26,,,,,,,,3.3,1.7,2.8*37
$GPRMC,062341.000,A,4714.4177,N,00131.7578,W,1.76,319.74,110917,,,A*74
$GPGGA,062342.000,4714.4179,N,00131.7582,W,1,05,1.7,27.6,M,48.5,M,,0000*70
$GPGSA,A,3,25,29,31,21,26,,,,,,,,3.3,1.7,2.8*37
$GPGSV,3,1,12,29,70,055,45,31,65,265,43,25,43,094,29,26,32,291,40*7F
$GPGSV,3,2,12,21,26,170,25,14,15,231,,02,14,039,,12,08,098,*7B
$GPGSV,3,3,12,16,05,284,,23,04,333,,32,04,217,,05,03,077,*77
$GPRMC,062342.000,A,4714.4179,N,00131.7582,W,0.20,344.53,110917,,,A*73
$GPGGA,062343.000,4714.4179,N,00131.7584,W,1,05,1.7,28.2,M,48.5,M,,0000*7C
$GPGSA,A,3,25,29,31,21,26,,,,,,,,3.3,1.7,2.8*37
$GPRMC,062343.000,A,4714.4179,N,00131.7584,W,0.03,234.02,110917,,,A*77
$GPGGA,062344.000,4714.4179,N,00131.7586,W,1,05,1.7,28.8,M,48.5,M,,0000*73
$GPGSA,A,3,25,29,31,21,26,,,,,,,,3.3,1.7,2.8*37
$GPRMC,062344.000,A,4714.4179,N,00131.7586,W,0.04,192.50,110917,,,A*7D
$GPGGA,062345.000,4714.4179,N,00131.7588,W,1,05,1.7,29.4,M,48.5,M,,0000*71
$GPGSA,A,3,25,29,31,21,26,,,,,,,,3.3,1.7,2.8*37
$GPRMC,062345.000,A,4714.4179,N,00131.7588,W,0.02,214.49,110917,,,A*71
$GPGGA,062346.000,4714.4178,N,00131.7590,W,1,05,1.7,29.7,M,48.5,M,,0000*79
$GPGSA,A,3,25,29,31,21,26,,,,,,,,3.3,1.7,2.8*37
$GPRMC,062346.000,A,4714.4178,N,00131.7590,W,0.41,295.48,110917,,,A*75
$GPGGA,062347.000,4714.4181,N,00131.7596,W,1,04,4.3,29.9,M,48.5,M,,0000*76
$GPGSA,A,3,25,29,31,26,,,,,,,,,5.4,4.3,3.2*3F
$GPGSV,3,1,12,29,70,055,45,31,65,265,43,25,43,095,31,26,32,291,40*77
$GPGSV,3,2,12,21,27,170,23,14,15,231,,02,14,039,27,12,08,098,*79
$GPGSV,3,3,12,16,05,284,,23,04,333,,32,04,217,,05,03,077,*77
$GPRMC,062347.000,A,4714.4181,N,00131.7596,W,2.91,305.78,110917,,,A*70
$GPGGA,062348.000,4714.4188,N,00131.7609,W,1,04,4.3,29.9,M,48.5,M,,0000*75
$GPGSA,A,3,25,29,31,26,,,,,,,,,5.4,4.3,3.2*3F
$GPRMC,062348.000,A,4714.4188,N,00131.7609,W,4.70,306.25,110917,,,A*71
$GPGGA,062349.000,4714.4197,N,00131.7626,W,1,04,4.3,30.0,M,48.5,M,,0000*76
$GPGSA,A,3,25,29,31,26,,,,,,,,,5.4,4.3,3.2*3F
$GPRMC,062349.000,A,4714.4197,N,00131.7626,W,5.64,307.98,110917,,,A*70
$GPGGA,062350.000,4714.4207,N,00131.7644,W,1,04,4.3,30.0,M,48.5,M,,0000*70
$GPGSA,A,3,25,29,31,26,,,,,,,,,5.4,4.3,3.2*3F
$GPRMC,062350.000,A,4714.4207,N,00131.7644,W,5.43,308.76,110917,,,A*7C
$GPGGA,062351.000,4714.4215,N,00131.7660,W,1,04,4.3,30.0,M,48.5,M,,0000*74
$GPGSA,A,3,25,29,31,26,,,,,,,,,5.4,4.3,3.2*3F
$GPRMC,062351.000,A,4714.4215,N,00131.7660,W,4.93,307.38,110917,,,A*71
$GPGGA,062352.000,4714.4222,N,00131.7674,W,1,04,4.3,29.8,M,48.5,M,,0000*76
$GPGSA,A,3,25,29,31,26,,,,,,,,,5.4,4.3,3.2*3F
$GPGSV,3,1,12,29,70,055,44,31,65,265,42,25,43,095,32,26,32,291,39*7A
$GPGSV,3,2,12,21,27,170,15,14,15,231,,02,14,039,27,12,08,098,*7C
$GPGSV,3,3,12,16,05,284,,23,04,333,,32,04,217,,05,03,077,*77
$GPRMC,062352.000,A,4714.4222,N,00131.7674,W,4.34,308.54,110917,,,A*7B
$GPGGA,062353.000,4714.4229,N,00131.7686,W,1,04,4.3,29.8,M,48.5,M,,0000*71
$GPGSA,A,3,25,29,31,26,,,,,,,,,5.4,4.3,3.2*3F
$GPRMC,062353.000,A,4714.4229,N,00131.7686,W,3.88,308.21,110917,,,A*7E
$GPGGA,062354.000,4714.4236,N,00131.7698,W,1,04,4.3,29.7,M,48.5,M,,0000*78
$GPGSA,A,3,25,29,31,26,,,,,,,,,5.4,4.3,3.2*3F
$GPRMC,062354.000,A,4714.4236,N,00131.7698,W,3.84,308.01,110917,,,A*76
$GPGGA,062355.000,4714.4242,N,00131.7710,W,1,04,4.3,29.6,M,48.5,M,,0000*7A
$GPGSA,A,3,25,29,31,26,,,,,,,,,5.4,4.3,3.2*3F
$GPRMC,062355.000,A,4714.4242,N,00131.7710,W,3.84,306.23,110917,,,A*7B
$GPGGA,062356.000,4714.4248,N,00131.7722,W,1,04,4.3,29.5,M,48.5,M,,0000*71
$GPGSA,A,3,25,29,31,26,,,,,,,,,5.4,4.3,3.2*3F
$GPRMC,062356.000,A,4714.4248,N,00131.7722,W,3.72,306.74,110917,,,A*78
$GPGGA,062357.000,4714.4254,N,00131.7734,W,1,04,4.3,29.4,M,48.5,M,,0000*7B
$GPGSA,A,3,25,29,31,26,,,,,,,,,5.4,4.3,3.2*3F
$GPGSV,3,1,12,29,70,055,43,31,65,265,42,25,43,095,32,26,32,291,38*7C
$GPGSV,3,2,12,21,27,170,16,14,15,231,,02,14,039,31,12,08,098,*78
$GPGSV,3,3,12,16,05,284,,23,04,333,,32,04,217,,05,03,077,*77
$GPRMC,062357.000,A,4714.4254,N,00131.7734,W,3.80,307.54,110917,,,A*7D
$GPGGA,062358.000,4714.4257,N,00131.7745,W,1,04,4.3,28.9,M,48.5,M,,0000*7D
$GPGSA,A,3,25,29,31,26,,,,,,,,,5.4,4.3,3.2*3F
$GPRMC,062358.000,A,4714.4257,N,00131.7745,W,3.21,299.64,110917,,,A*79
$GPGGA,062359.000,4714.4262,N,00131.7756,W,1,04,4.3,28.7,M,48.5,M,,0000*76
$GPGSA,A,3,25,29,31,26,,,,,,,,,5.4,4.3,3.2*3F
$GPRMC,062359.000,A,4714.4262,N,00131.7756,W,3.30,301.84,110917,,,A*72
$GPGGA,062400.000,4714.4267,N,00131.7767,W,1,04,4.3,28.6,M,48.5,M,,0000*7B
$GPGSA,A,3,25,29,31,26,,,,,,,,,5.4,4.3,3.2*3F
$GPRMC,062400.000,A,4714.4267,N,00131.7767,W,3.30,302.57,110917,,,A*73
$GPGGA,062401.000,4714.4272,N,00131.7778,W,1,04,4.3,28.5,M,48.5,M,,0000*73
$GPGSA,A,3,25,29,31,26,,,,,,,,,5.4,4.3,3.2*3F
$GPRMC,062401.000,A,4714.4272,N,00131.7778,W,3.28,302.80,110917,,,A*7B
$GPGGA,062402.000,4714.4278,N,00131.7790,W,1,05,1.7,28.6,M,48.5,M,,0000*7F
$GPGSA,A,3,25,29,31,21,26,,,,,,,,3.3,1.7,2.8*37
$GPGSV,3,1,12,29,70,055,43,31,65,265,41,25,43,095,32,26,32,291,38*7F
$GPGSV,3,2,12,21,27,170,16,14,15,231,,02,14,039,26,12,08,098,*7E
$GPGSV,3,3,12,16,05,284,,23,04,333,,32,04,217,,05,03,077,*77
$GPRMC,062402.000,A,4714.4278,N,00131.7790,W,2.84,292.24,110917,,,A*75
$GPGGA,062403.000,4714.4281,N,00131.7801,W,1,05,1.7,28.1,M,48.5,M,,0000*78
$GPGSA,A,3,25,29,31,21,26,,,,,,,,3.3,1.7,2.8*37
$GPRMC,062403.000,A,4714.4281,N,00131.7801,W,3.64,295.05,110917,,,A*7E
$GPGGA,062404.000,4714.4288,N,00131.7817,W,1,05,1.7,28.1,M,48.5,M,,0000*71
$GPGSA,A,3,25,29,31,21,26,,,,,,,,3.3,1.7,2.8*37
$GPRMC,062404.000,A,4714.4288,N,00131.7817,W,5.08,296.89,110917,,,A*7C
$GPGGA,062405.000,4714.4301,N,00131.7839,W,1,05,1.7,28.4,M,48.5,M,,0000*79
$GPGSA,A,3,25,29,31,21,26,,,,,,,,3.3,1.7,2.8*37
$GPRMC,062405.000,A,4714.4301,N,00131.7839,W,6.84,299.63,110917,,,A*7D
$GPGGA,062406.000,4714.4314,N,00131.7865,W,1,05,1.7,28.5,M,48.5,M,,0000*76
$GPGSA,A,3,25,29,31,21,26,,,,,,,,3.3,1.7,2.8*37
$GPRMC,062406.000,A,4714.4314,N,00131.7865,W,7.18,296.01,110917,,,A*7C
$GPGGA,062407.000,4714.4324,N,00131.7891,W,1,05,1.7,27.9,M,48.5,M,,0000*7C
$GPGSA,A,3,25,29,31,21,26,,,,,,,,3.3,1.7,2.8*37
$GPGSV,3,1,12,29,70,055,42,31,65,265,41,25,43,095,28,26,32,291,38*75
$GPGSV,3,2,12,21,27,170,17,14,15,231,,02,14,039,22,12,08,098,*7B
$GPGSV,3,3,12,16,05,284,,23,04,333,,32,04,217,,05,03,077,*77
$GPRMC,062407.000,A,4714.4324,N,00131.7891,W,7.18,294.65,110917,,,A*75
$GPGGA,062408.000,4714.4340,N,00131.7919,W,1,06,1.6,28.8,M,48.5,M,,0000*7C
$GPGSA,A,3,25,29,31,14,21,26,,,,,,,3.1,1.6,2.7*3E
$GPRMC,062408.000,A,4714.4340,N,00131.7919,W,7.34,301.79,110917,,,A*77
$GPGGA,062409.000,4714.4358,N,00131.7945,W,1,06,1.6,29.7,M,48.5,M,,0000*73
$GPGSA,A,3,25,29,31,14,21,26,,,,,,,3.1,1.6,2.7*3E
$GPRMC,062409.000,A,4714.4358,N,00131.7945,W,7.59,302.34,110917,,,A*77
$GPGGA,062410.000,4714.4376,N,00131.7973,W,1,06,1.6,30.5,M,48.5,M,,0000*78
$GPGSA,A,3,25,29,31,14,21,26,,,,,,,3.1,1.6,2.7*3E
$GPRMC,062410.000,A,4714.4376,N,00131.7973,W,7.62,300.84,110917,,,A*77
$GPGGA,062411.000,4714.4392,N,00131.7998,W,1,06,1.6,31.3,M,48.5,M,,0000*71
$GPGSA,A,3,25,29,31,14,21,26,,,,,,,3.1,1.6,2.7*3E
$GPRMC,062411.000,A,4714.4392,N,00131.7998,W,6.50,304.36,110917,,,A*74
$GPGGA,062412.000,4714.4404,N,00131.8015,W,1,06,1.6,32.1,M,48.5,M,,0000*78
$GPGSA,A,3,25,29,31,14,21,26,,,,,,,3.1,1.6,2.7*3E
$GPGSV,3,1,12,29,70,055,42,31,65,265,41,25,43,095,33,26,32,291,38*7F
$GPGSV,3,2,12,21,27,170,17,14,15,231,23,02,14,039,22,12,08,098,*7A
$GPGSV,3,3,12,16,05,284,,23,04,333,,32,04,217,,05,03,077,*77
$GPRMC,062412.000,A,4714.4404,N,00131.8015,W,3.85,313.46,110917,,,A*70
$GPGGA,062413.000,4714.4412,N,00131.8021,W,1,06,1.6,32.5,M,48.5,M,,0000*7D
$GPGSA,A,3,25,29,31,14,21,26,,,,,,,3.1,1.6,2.7*3E
$GPRMC,062413.000,A,4714.4412,N,00131.8021,W,0.90,315.00,110917,,,A*72
$GPGGA,062414.000,4714.4418,N,00131.8023,W,1,06,1.6,33.2,M,48.5,M,,0000*74
$GPGSA,A,3,25,29,31,14,21,26,,,,,,,3.1,1.6,2.7*3E
$GPRMC,062414.000,A,4714.4418,N,00131.8023,W,0.04,171.47,110917,,,A*73
$GPGGA,062415.000,4714.4420,N,00131.8023,W,1,06,1.6,33.1,M,48.5,M,,0000*7D
$GPGSA,A,3,25,29,31,14,21,26,,,,,,,3.1,1.6,2.7*3E
$GPRMC,062415.000,A,4714.4420,N,00131.8023,W,0.40,218.34,110917,,,A*71
$GPGGA,062416.000,4714.4425,N,00131.8029,W,1,06,1.6,33.4,M,48.5,M,,0000*74
$GPGSA,A,3,25,29,31,14,21,26,,,,,,,3.1,1.6,2.7*3E
$GPRMC,062416.000,A,4714.4425,N,00131.8029,W,2.87,305.70,110917,,,A*79
$GPGGA,062417.000,4714.4432,N,00131.8039,W,1,06,1.6,33.6,M,48.5,M,,0000*70
$GPGSA,A,3,25,29,31,14,21,26,,,,,,,3.1,1.6,2.7*3E
$GPGSV,3,1,12,29,70,055,43,31,65,264,41,25,42,095,33,26,32,291,38*7E
$GPGSV,3,2,12,21,27,170,17,14,15,231,25,02,14,039,18,12,07,099,*7B
$GPGSV,3,3,12,16,05,284,,23,04,333,,32,04,216,,05,03,076,*77
$GPRMC,062417.000,A,4714.4432,N,00131.8039,W,3.40,310.19,110917,,,A*7E
$GPGGA,062418.000,4714.4441,N,00131.8048,W,1,06,1.6,34.1,M,48.5,M,,0000*7D
$GPGSA,A,3,25,29,31,14,21,26,,,,,,,3.1,1.6,2.7*3E
$GPRMC,062418.000,A,4714.4441,N,00131.8048,W,3.05,325.22,110917,,,A*7C
$GPGGA,062419.000,4714.4451,N,00131.8053,W,1,05,1.7,34.8,M,48.5,M,,0000*7C
$GPGSA,A,3,25,29,31,21,26,,,,,,,,3.3,1.7,2.8*37
$GPRMC,062419.000,A,4714.4451,N,00131.8053,W,1.88,337.07,110917,,,A*75
$GPGGA,062420.000,4714.4454,N,00131.8055,W,1,04,4.2,34.7,M,48.5,M,,0000*7B
$GPGSA,A,3,25,29,31,26,,,,,,,,,5.3,4.2,3.2*39
$GPRMC,062420.000,A,4714.4454,N,00131.8055,W,1.18,325.51,110917,,,A*75
$GPGGA,062421.000,4714.4460,N,00131.8060,W,1,05,2.1,34.7,M,48.5,M,,0000*7F
$GPGSA,A,3,25,29,31,14,26,,,,,,,,3.4,2.1,2.7*3C
$GPRMC,062421.000,A,4714.4460,N,00131.8060,W,3.07,325.37,110917,,,A*79
$GPGGA,062422.000,4714.4474,N,00131.8068,W,1,06,1.6,35.0,M,48.5,M,,0000*70
$GPGSA,A,3,25,29,31,14,21,26,,,,,,,3.1,1.6,2.7*3E
$GPGSV,3,1,12,29,70,055,45,31,65,264,38,25,42,095,36,26,32,291,37*7C
$GPGSV,3,2,12,21,27,170,24,14,15,231,30,02,14,039,26,12,07,099,*72
$GPGSV,3,3,12,16,05,284,,23,04,333,,32,04,216,,05,03,076,*77
$GPRMC,062422.000,A,4714.4474,N,00131.8068,W,5.27,341.04,110917,,,A*71
$GPGGA,062423.000,4714.4490,N,00131.8074,W,1,06,1.6,35.9,M,48.5,M,,0000*7F
$GPGSA,A,3,25,29,31,14,21,26,,,,,,,3.1,1.6,2.7*3E
$GPRMC,062423.000,A,4714.4490,N,00131.8074,W,6.65,353.95,110917,,,A*79
$GPGGA,062424.000,4714.4504,N,00131.8071,W,1,06,1.6,36.0,M,48.5,M,,0000*7B
$GPGSA,A,3,25,29,31,14,21,26,,,,,,,3.1,1.6,2.7*3E
$GPRMC,062424.000,A,4714.4504,N,00131.8071,W,6.43,15.00,110917,,,A*4E
$GPGGA,062425.000,4714.4520,N,00131.8060,W,1,06,1.6,36.3,M,48.5,M,,0000*7F
$GPGSA,A,3,25,29,31,14,21,26,,,,,,,3.1,1.6,2.7*3E
$GPRMC,062425.000,A,4714.4520,N,00131.8060,W,6.59,29.50,110917,,,A*48
$GPGGA,062426.000,4714.4539,N,00131.8044,W,1,06,1.6,36.4,M,48.5,M,,0000*75
$GPGSA,A,3,25,29,31,14,21,26,,,,,,,3.1,1.6,2.7*3E
$GPRMC,062426.000,A,4714.4539,N,00131.8044,W,7.96,38.01,110917,,,A*43
$GPGGA,062427.000,4714.4557,N,00131.8019,W,1,06,1.6,36.5,M,48.5,M,,0000*75
$GPGSA,A,3,25,29,31,14,21,26,,,,,,,3.1,1.6,2.7*3E
$GPGSV,3,1,12,29,70,055,43,31,65,264,40,25,42,095,37,26,32,291,26*74
$GPGSV,3,2,12,21,27,170,27,14,15,231,23,02,14,039,33,12,07,099,*77
$GPGSV,3,3,12,16,05,284,,23,04,333,,32,04,216,,05,03,076,*77
$GPRMC,062427.000,A,4714.4557,N,00131.8019,W,9.72,46.69,110917,,,A*41
$GPGGA,062428.000,4714.4583,N,00131.7986,W,1,06,1.6,36.4,M,48.5,M,,0000*72
$GPGSA,A,3,25,29,31,14,21,26,,,,,,,3.1,1.6,2.7*3E
$GPRMC,062428.000,A,4714.4583,N,00131.7986,W,12.83,41.00,110917,,,A*7B
$GPGGA,062429.000,4714.4612,N,00131.7949,W,1,06,1.6,36.2,M,48.5,M,,0000*7D
$GPGSA,A,3,25,29,31,14,21,26,,,,,,,3.1,1.6,2.7*3E
$GPRMC,062429.000,A,4714.4612,N,00131.7949,W,14.51,39.77,110917,,,A*74
$GPGGA,062430.000,4714.4648,N,00131.7910,W,1,06,1.6,35.5,M,48.5,M,,0000*72
$GPGSA,A,3,25,29,31,14,21,26,,,,,,,3.1,1.6,2.7*3E
$GPRMC,062430.000,A,4714.4648,N,00131.7910,W,16.70,35.35,110917,,,A*74
$GPGGA,062431.000,4714.4689,N,00131.7874,W,1,06,1.6,34.5,M,48.5,M,,0000*7C
$GPGSA,A,3,25,29,31,14,21,26,,,,,,,3.1,1.6,2.7*3E
$GPRMC,062431.000,A,4714.4689,N,00131.7874,W,16.13,32.88,110917,,,A*7F
$GPGGA,062432.000,4714.4728,N,00131.7837,W,1,06,1.6,33.2,M,48.5,M,,0000*72
$GPGSA,A,3,25,29,31,14,21,26,,,,,,,3.1,1.6,2.7*3E
$GPGSV,3,1,12,29,70,055,43,31,65,264,41,25,42,095,37,26,32,291,19*79
$GPGSV,3,2,12,21,27,170,25,14,15,231,21,02,14,039,35,12,07,099,*71
$GPGSV,3,3,12,16,05,284,,23,04,333,,32,04,216,,05,03,076,*77
$GPRMC,062432.000,A,4714.4728,N,00131.7837,W,16.45,32.80,110917,,,A*7A
$GPGGA,062433.000,4714.4764,N,00131.7795,W,1,06,1.6,33.5,M,48.5,M,,0000*7B
$GPGSA,A,3,25,29,31,14,21,26,,,,,,,3.1,1.6,2.7*3E
$GPRMC,062433.000,A,4714.4764,N,00131.7795,W,17.13,33.26,110917,,,A*7B
$GPGGA,062434.000,4714.4798,N,00131.7752,W,1,06,1.6,34.3,M,48.5,M,,0000*75
$GPGSA,A,3,25,29,31,14,21,26,,,,,,,3.1,1.6,2.7*3E
$GPRMC,062434.000,A,4714.4798,N,00131.7752,W,16.61,37.75,110917,,,A*72
$GPGGA,062435.000,4714.4837,N,00131.7710,W,1,06,1.6,33.1,M,48.5,M,,0000*7D
$GPGSA,A,3,25,29,31,14,21,26,,,,,,,3.1,1.6,2.7*3E
$GPRMC,062435.000,A,4714.4837,N,00131.7710,W,17.51,35.08,110917,,,A*75
$GPGGA,062436.000,4714.4876,N,00131.7667,W,1,06,1.6,32.8,M,48.5,M,,0000*72
$GPGSA,A,3,25,29,31,14,21,26,,,,,,,3.1,1.6,2.7*3E
$GPRMC,062436.000,A,4714.4876,N,00131.7667,W,17.69,36.84,110917,,,A*7E
$GPGGA,062437.000,4714.4915,N,00131.7621,W,1,06,1.6,32.8,M,48.5,M,,0000*75
$GPGSA,A,3,25,29,31,14,21,26,,,,,,,3.1,1.6,2.7*3E
$GPGSV,3,1,12,29,70,055,43,31,65,264,42,25,42,095,38,26,32,291,28*77
$GPGSV,3,2,12,21,27,170,18,14,15,231,16,02,14,039,27,12,07,099,*78
$GPGSV,3,3,12,16,05,284,,23,04,333,,32,04,216,12,05,03,076,*74
$GPRMC,062437.000,A,4714.4915,N,00131.7621,W,17.74,40.12,110917,,,A*7B
$GPGGA,062438.000,4714.4960,N,00131.7576,W,1,05,1.7,32.2,M,48.5,M,,0000*71
$GPGSA,A,3,25,29,31,21,26,,,,,,,,3.3,1.7,2.8*37
$GPRMC,062438.000,A,4714.4960,N,00131.7576,W,19.36,34.70,110917,,,A*78
$GPGGA,062439.000,4714.4999,N,00131.7527,W,1,06,1.6,32.4,M,48.5,M,,0000*76
$GPGSA,A,3,25,29,31,14,21,26,,,,,,,3.1,1.6,2.7*3E
$GPRMC,062439.000,A,4714.4999,N,00131.7527,W,17.34,43.53,110917,,,A*76
$GPGGA,062440.000,4714.5034,N,00131.7478,W,1,06,1.6,32.0,M,48.5,M,,0000*78
$GPGSA,A,3,25,29,31,14,21,26,,,,,,,3.1,1.6,2.7*3E
$GPRMC,062440.000,A,4714.5034,N,00131.7478,W,17.32,42.14,110917,,,A*78
$GPGGA,062441.000,4714.5074,N,00131.7430,W,1,06,1.6,31.7,M,48.5,M,,0000*75
$GPGSA,A,3,25,29,31,14,21,26,,,,,,,3.1,1.6,2.7*3E
$GPRMC,062441.000,A,4714.5074,N,00131.7430,W,18.59,38.43,110917,,,A*7C
$GPGGA,062442.000,4714.5114,N,00131.7382,W,1,06,1.6,31.1,M,48.5,M,,0000*79
$GPGSA,A,3,25,29,31,14,21,26,,,,,,,3.1,1.6,2.7*3E
$GPGSV,3,1,12,29,70,055,42,31,65,264,42,25,42,095,40,26,32,291,30*70
$GPGSV,3,2,12,21,27,170,21,14,15,231,18,02,14,039,38,12,07,099,*72
$GPGSV,3,3,12,16,05,284,,23,04,333,,32,04,216,,05,03,076,*77
$GPRMC,062442.000,A,4714.5114,N,00131.7382,W,18.60,39.50,110917,,,A*7F
$GPGGA,062443.000,4714.5150,N,00131.7333,W,1,06,1.6,31.0,M,48.5,M,,0000*73
$GPGSA,A,3,25,29,31,14,21,26,,,,,,,3.1,1.6,2.7*3E
$GPRMC,062443.000,A,4714.5150,N,00131.7333,W,18.19,39.61,110917,,,A*78
$GPGGA,062444.000,4714.5192,N,00131.7287,W,1,06,1.6,30.0,M,48.5,M,,0000*75
$GPGSA,A,3,25,29,31,14,21,26,,,,,,,3.1,1.6,2.7*3E
$GPRMC,062444.000,A,4714.5192,N,00131.7287,W,19.08,34.85,110917,,,A*79
$GPGGA,062445.000,4714.5231,N,00131.7241,W,1,06,1.6,30.6,M,48.5,M,,0000*72
$GPGSA,A,3,25,29,31,14,21,26,,,,,,,3.1,1.6,2.7*3E
$GPRMC,062445.000,A,4714.5231,N,00131.7241,W,17.68,36.42,110917,,,A*79
$GPGGA,062446.000,4714.5265,N,00131.7197,W,1,05,2.1,31.3,M,48.5,M,,0000*7B
$GPGSA,A,3,25,29,31,14,26,,,,,,,,3.4,2.1,2.7*3C
$GPRMC,062446.000,A,4714.5265,N,00131.7197,W,16.87,36.99,110917,,,A*75
$GPGGA,062447.000,4714.5299,N,00131.7156,W,1,05,2.1,31.7,M,48.5,M,,0000*70
$GPGSA,A,3,25,29,31,14,26,,,,,,,,3.4,2.1,2.7*3C
$GPGSV,3,1,12,29,70,055,43,31,65,264,43,25,42,095,40,26,32,291,30*70
$GPGSV,3,2,12,21,27,170,,14,15,231,17,02,14,039,39,12,07,099,*7F
$GPGSV,3,3,12,16,05,284,,23,04,333,,32,04,216,,05,03,076,*77
$GPRMC,062447.000,A,4714.5299,N,00131.7156,W,16.09,36.04,110917,,,A*78
$GPGGA,062448.000,4714.5330,N,00131.7117,W,1,05,2.1,32.4,M,48.5,M,,0000*78
$GPGSA,A,3,25,29,31,14,26,,,,,,,,3.4,2.1,2.7*3C
$GPRMC,062448.000,A,4714.5330,N,00131.7117,W,15.02,36.64,110917,,,A*7E
$GPGGA,062449.000,4714.5360,N,00131.7080,W,1,05,2.1,32.7,M,48.5,M,,0000*70
$GPGSA,A,3,25,29,31,14,26,,,,,,,,3.4,2.1,2.7*3C
$GPRMC,062449.000,A,4714.5360,N,00131.7080,W,14.27,38.05,110917,,,A*7A
$GPGGA,062450.000,4714.5389,N,00131.7043,W,1,05,2.1,32.9,M,48.5,M,,0000*7E
$GPGSA,A,3,25,29,31,14,26,,,,,,,,3.4,2.1,2.7*3C
$GPRMC,062450.000,A,4714.5389,N,00131.7043,W,14.12,39.82,110917,,,A*72
$GPGGA,062451.000,4714.5418,N,00131.7006,W,1,05,2.1,32.8,M,48.5,M,,0000*70
$GPGSA,A,3,25,29,31,14,26,,,,,,,,3.4,2.1,2.7*3C
$GPRMC,062451.000,A,4714.5418,N,00131.7006,W,13.54,41.47,110917,,,A*7E
$GPGGA,062452.000,4714.5444,N,00131.6971,W,1,05,2.1,32.6,M,48.5,M,,0000*7C
$GPGSA,A,3,25,29,31,14,26,,,,,,,,3.4,2.1,2.7*3C
$GPGSV,3,1,12,29,70,055,43,31,65,264,43,25,42,095,40,26,32,291,31*71
$GPGSV,3,2,12,21,27,170,,14,15,231,16,02,14,039,39,12,07,099,*7E
$GPGSV,3,3,12,16,05,284,,23,04,333,,32,04,216,,05,03,076,*77
$GPRMC,062452.000,A,4714.5444,N,00131.6971,W,11.89,42.32,110917,,,A*7F
$GPGGA,062453.000,4714.5466,N,00131.6941,W,1,04,4.1,32.5,M,48.5,M,,0000*7A
$GPGSA,A,3,25,29,31,26,,,,,,,,,5.2,4.1,3.2*3B
$GPRMC,062453.000,A,4714.5466,N,00131.6941,W,10.02,41.44,110917,,,A*7D
$GPGGA,062454.000,4714.5486,N,00131.6916,W,1,04,4.1,32.4,M,48.5,M,,0000*70
$GPGSA,A,3,25,29,31,26,,,,,,,,,5.2,4.1,3.2*3B
$GPRMC,062454.000,A,4714.5486,N,00131.6916,W,9.25,40.40,110917,,,A*4E
$GPGGA,062455.000,4714.5505,N,00131.6894,W,1,04,4.1,32.2,M,48.5,M,,0000*76
$GPGSA,A,3,25,29,31,26,,,,,,,,,5.2,4.1,3.2*3B
