$GPRMC,061003.90,A,4714.3140,N,00131.5389,W,00.0,000.0,120917,01,W*42
$GPGSA,M,2,29,31,32,21,25,,,,,,,,02.5,02.5,*1D
$PMGNST,01.10,2,T,938,12.8,+01811,00*42
$GPGLL,4714.3140,N,00131.5389,W,061004.908,A*20
$GPGGA,061004.91,4714.3140,N,00131.5389,W,1,05,2.5,00042,M,,,,*38
$GPRMC,061004.91,A,4714.3140,N,00131.5389,W,00.0,000.0,120917,01,W*44
$GPGSA,M,2,29,31,32,21,25,,,,,,,,02.5,02.5,*1D
$GPGSV,3,1,10,29,76,061,51,31,64,278,48,25,48,090,44,26,28,289,*7D
$GPGSV,3,2,10,21,22,172,44,14,20,235,,02,18,042,,12,12,096,*7F
$GPGSV,3,3,10,32,09,220,44,23,03,337,,124,31,151,,120,34,198,*71
$GPGLL,4714.3140,N,00131.5388,W,061005.916,A*2F
$GPGGA,061005.92,4714.3140,N,00131.5388,W,1,05,2.6,00042,M,,,,*38
$GPRMC,061005.92,A,4714.3140,N,00131.5388,W,00.0,000.0,120917,01,W*47
$GPGSA,M,2,29,31,32,21,25,,,,,,,,02.6,02.6,*1D
$PMGNST,01.10,2,T,938,12.8,+01812,00*41
$GPGLL,4714.3141,N,00131.5388,W,061006.900,A*2A
$GPGGA,061006.90,4714.3141,N,00131.5388,W,1,05,2.6,00042,M,,,,*38
$GPRMC,061006.90,A,4714.3141,N,00131.5388,W,00.0,000.0,120917,01,W*47
$GPGSA,M,2,29,31,32,21,25,,,,,,,,02.6,02.6,*1D
$GPGSV,3,1,10,29,76,061,50,31,64,278,48,25,48,090,43,26,28,289,*7B
$GPGSV,3,2,10,21,22,172,44,14,20,235,,02,18,042,,12,12,096,*7F
$GPGSV,3,3,10,32,09,220,44,23,03,337,,124,31,151,,120,34,198,*71
$GPGLL,4714.3141,N,00131.5388,W,061007.908,A*23
$GPGGA,061007.91,4714.3141,N,00131.5388,W,1,05,2.5,00042,M,,,,*3B
$GPRMC,061007.91,A,4714.3141,N,00131.5388,W,00.0,000.0,120917,01,W*47
$GPGSA,M,2,29,31,32,21,25,,,,,,,,02.5,02.5,*1D
$PMGNST,01.10,2,T,938,12.8,+01814,00*47
$GPGLL,4714.3142,N,00131.5388,W,061008.904,A*23
$GPGGA,061008.90,4714.3142,N,00131.5388,W,1,05,2.5,00042,M,,,,*36
$GPRMC,061008.90,A,4714.3142,N,00131.5388,W,00.0,000.0,120917,01,W*4A
$GPGSA,M,2,29,31,32,21,25,,,,,,,,02.5,02.5,*1D
$GPGSV,3,1,10,29,76,061,50,31,64,278,47,25,48,090,41,26,28,289,*76
$GPGSV,3,2,10,21,22,172,44,14,20,235,,02,18,042,,12,12,096,*7F
$GPGSV,3,3,10,32,09,220,45,23,03,337,,124,31,151,,120,34,198,*70
$GPGLL,4714.3143,N,00131.5388,W,061009.900,A*27
$GPGGA,061009.90,4714.3143,N,00131.5388,W,1,05,2.5,00042,M,,,,*36
$GPRMC,061009.90,A,4714.3143,N,00131.5388,W,00.0,000.0,120917,01,W*4A
$GPGSA,M,2,29,31,32,21,25,,,,,,,,02.5,02.5,*1D
$PMGNST,01.10,2,T,938,12.8,+01815,00*46
$GPGLL,4714.3144,N,00131.5388,W,061010.908,A*20
$GPGGA,061010.91,4714.3144,N,00131.5388,W,1,05,2.5,00042,M,,,,*38
$GPRMC,061010.91,A,4714.3144,N,00131.5388,W,00.0,000.0,120917,01,W*44
$GPGSA,M,2,29,31,32,21,25,,,,,,,,02.5,02.5,*1D
$GPGSV,3,1,10,29,76,061,51,31,64,278,48,25,48,090,42,26,28,289,*7B
$GPGSV,3,2,10,21,22,172,44,14,20,235,,02,18,042,,12,12,096,*7F
$GPGSV,3,3,10,32,09,220,45,23,03,337,,124,31,151,,120,34,198,*70
$GPGLL,4714.3144,N,00131.5388,W,061011.904,A*2D
$GPGGA,061011.90,4714.3144,N,00131.5388,W,1,05,2.6,00042,M,,,,*3B
$GPRMC,061011.90,A,4714.3144,N,00131.5388,W,00.0,000.0,120917,01,W*44
$GPGSA,M,2,29,31,32,21,25,,,,,,,,02.6,02.6,*1D
$PMGNST,01.10,2,T,938,12.8,+01817,00*44
$GPGLL,4714.3145,N,00131.5388,W,061012.900,A*2B
$GPGGA,061012.90,4714.3145,N,00131.5388,W,1,05,2.6,00042,M,,,,*39
$GPRMC,061012.90,A,4714.3145,N,00131.5388,W,00.0,000.0,120917,01,W*46
$GPGSA,M,2,29,31,32,21,25,,,,,,,,02.6,02.6,*1D
$GPGSV,3,1,10,29,76,061,50,31,64,278,47,25,48,090,42,26,28,289,*75
$GPGSV,3,2,10,21,22,172,44,14,20,235,,02,18,042,,12,12,096,*7F
$GPGSV,3,3,10,32,09,220,46,23,03,337,,124,31,151,,120,34,198,*73
$GPGLL,4714.3145,N,00131.5387,W,061013.908,A*2D
$GPGGA,061013.91,4714.3145,N,00131.5387,W,1,05,2.5,00042,M,,,,*35
$GPRMC,061013.91,A,4714.3145,N,00131.5387,W,00.0,000.0,120917,01,W*49
$GPGSA,M,2,29,31,32,21,25,,,,,,,,02.5,02.5,*1D
$PMGNST,01.10,2,T,938,12.8,+01818,00*4B
$GPGLL,4714.3145,N,00131.5387,W,061014.905,A*27
$GPGGA,061014.90,4714.3145,N,00131.5387,W,1,05,2.5,00042,M,,,,*33
$GPRMC,061014.90,A,4714.3145,N,00131.5387,W,00.0,000.0,120917,01,W*4F
$GPGSA,M,2,29,32,31,21,25,,,,,,,,02.5,02.5,*1D
$GPGSV,3,1,10,29,76,061,51,31,64,278,47,25,48,090,42,26,28,289,*74
$GPGSV,3,2,10,21,22,172,45,14,20,235,,02,18,042,,12,12,096,*7E
$GPGSV,3,3,10,32,09,220,46,23,03,337,,124,31,151,,120,34,198,*73
$GPGLL,4714.3146,N,00131.5387,W,061015.913,A*22
$GPGGA,061015.91,4714.3146,N,00131.5387,W,1,05,2.5,00042,M,,,,*30
$GPRMC,061015.91,A,4714.3146,N,00131.5387,W,00.0,000.0,120917,01,W*4C
$GPGSA,M,2,29,32,31,21,25,,,,,,,,02.5,02.5,*1D
$PMGNST,01.10,2,T,938,12.8,+01819,00*4A
$GPGLL,4714.3146,N,00131.5387,W,061016.909,A*2A
$GPGGA,061016.91,4714.3146,N,00131.5387,W,1,05,2.5,00042,M,,,,*33
$GPRMC,061016.91,A,4714.3146,N,00131.5387,W,00.0,000.0,120917,01,W*4F
$GPGSA,M,2,29,32,31,21,25,,,,,,,,02.5,02.5,*1D
$GPGSV,3,1,10,29,76,061,51,31,64,278,47,25,48,090,42,26,28,289,*74
$GPGSV,3,2,10,21,22,172,44,14,20,235,,02,18,042,,12,12,096,*7F
$GPGSV,3,3,10,32,09,220,47,23,03,337,,124,31,151,,120,34,198,*72
$GPGLL,4714.3147,N,00131.5387,W,061017.905,A*26
$GPGGA,061017.90,4714.3147,N,00131.5387,W,1,05,2.5,00042,M,,,,*32
$GPRMC,061017.90,A,4714.3147,N,00131.5387,W,00.0,000.0,120917,01,W*4E
$GPGSA,M,2,29,31,32,21,25,,,,,,,,02.5,02.5,*1D
$PMGNST,01.10,2,T,938,12.8,+01820,00*40
$GPGLL,4714.3147,N,00131.5387,W,061018.913,A*2E
$GPGGA,061018.91,4714.3147,N,00131.5387,W,1,05,2.5,00042,M,,,,*3C
$GPRMC,061018.91,A,4714.3147,N,00131.5387,W,00.0,000.0,120917,01,W*40
$GPGSA,M,2,29,32,31,21,25,,,,,,,,02.5,02.5,*1D
$GPGSV,3,1,10,29,76,061,51,31,64,278,47,25,48,090,42,26,28,289,*74
$GPGSV,3,2,10,21,22,172,45,14,20,235,,02,18,042,,12,12,096,*7E
$GPGSV,3,3,10,32,09,220,46,23,03,337,,124,31,151,,120,34,198,*73
$GPGLL,4714.3148,N,00131.5388,W,061019.909,A*24
$GPGGA,061019.91,4714.3148,N,00131.5388,W,1,05,2.5,00042,M,,,,*3D
$GPRMC,061019.91,A,4714.3148,N,00131.5388,W,00.0,000.0,120917,01,W*41
$GPGSA,M,2,29,32,21,31,25,,,,,,,,02.5,02.5,*1D
$PMGNST,01.10,2,T,938,12.8,+01821,00*41
$GPGLL,4714.3148,N,00131.5388,W,061020.905,A*22
$GPGGA,061020.90,4714.3148,N,00131.5388,W,1,05,2.5,00042,M,,,,*36
$GPRMC,061020.90,A,4714.3148,N,00131.5388,W,00.0,000.0,120917,01,W*4A
$GPGSA,M,2,29,32,31,21,25,,,,,,,,02.5,02.5,*1D
$GPGSV,3,1,10,29,76,061,51,31,64,278,47,25,48,090,42,26,28,289,*74
$GPGSV,3,2,10,21,22,172,46,14,20,235,,02,18,042,,12,12,096,*7D
$GPGSV,3,3,10,32,09,220,47,23,03,337,,124,31,151,,120,34,198,*72
$GPGLL,4714.3149,N,00131.5388,W,061021.913,A*25
$GPGGA,061021.91,4714.3149,N,00131.5388,W,1,05,2.5,00042,M,,,,*37
$GPRMC,061021.91,A,4714.3149,N,00131.5388,W,00.0,000.0,120917,01,W*4B
$GPGSA,M,2,29,32,21,31,25,,,,,,,,02.5,02.5,*1D
$PMGNST,01.10,2,T,938,12.8,+01822,00*42
$GPGLL,4714.3149,N,00131.5388,W,061022.909,A*2D
$GPGGA,061022.91,4714.3149,N,00131.5388,W,1,05,2.5,00042,M,,,,*34
$GPRMC,061022.91,A,4714.3149,N,00131.5388,W,00.0,000.0,120917,01,W*48
$GPGSA,M,2,29,32,31,21,25,,,,,,,,02.5,02.5,*1D
$GPGSV,3,1,10,29,76,061,52,31,64,278,48,25,48,090,44,26,28,289,*7E
$GPGSV,3,2,10,21,22,172,46,14,20,235,,02,18,042,,12,12,096,*7D
$GPGSV,3,3,10,32,09,220,48,23,03,337,,124,31,151,,120,34,198,*7D
$GPGLL,4714.3150,N,00131.5388,W,061023.905,A*28
$GPGGA,061023.90,4714.3150,N,00131.5388,W,1,05,2.5,00042,M,,,,*3C
$GPRMC,061023.90,A,4714.3150,N,00131.5388,W,00.0,000.0,120917,01,W*40
$GPGSA,M,2,29,32,31,21,25,,,,,,,,02.5,02.5,*1D
$PMGNST,01.10,2,T,938,12.8,+01823,00*43
$GPGLL,4714.3150,N,00131.5389,W,061024.913,A*29
$GPGGA,061024.91,4714.3150,N,00131.5389,W,1,05,2.5,00042,M,,,,*3B
$GPRMC,061024.91,A,4714.3150,N,00131.5389,W,00.0,000.0,120917,01,W*47
$GPGSA,M,2,29,32,31,21,25,,,,,,,,02.5,02.5,*1D
$GPGSV,3,1,10,29,76,061,51,31,64,278,47,25,48,090,43,26,28,289,*75
$GPGSV,3,2,10,21,22,172,46,14,20,235,,02,18,042,,12,12,096,*7D
$GPGSV,3,3,10,32,09,220,48,23,03,337,,124,31,151,,120,34,198,*7D
$GPGLL,4714.3150,N,00131.5389,W,061025.909,A*23
$GPGGA,061025.91,4714.3150,N,00131.5389,W,1,05,2.5,00042,M,,,,*3A
$GPRMC,061025.91,A,4714.3150,N,00131.5389,W,00.0,000.0,120917,01,W*46
$GPGSA,M,2,29,32,31,21,25,,,,,,,,02.5,02.5,*1D
$PMGNST,01.10,2,T,938,12.8,+01824,00*44
$GPGLL,4714.3151,N,00131.5389,W,061026.905,A*2D
$GPGGA,061026.90,4714.3151,N,00131.5389,W,1,05,2.5,00042,M,,,,*39
$GPRMC,061026.90,A,4714.3151,N,00131.5389,W,00.0,000.0,120917,01,W*45
$GPGSA,M,2,29,32,31,21,25,,,,,,,,02.5,02.5,*1D
$GPGSV,3,1,10,29,76,061,51,31,64,278,47,25,48,090,43,26,28,289,*75
$GPGSV,3,2,10,21,22,172,45,14,20,235,,02,18,042,,12,12,096,*7E
$GPGSV,3,3,10,32,09,220,48,23,03,337,,124,31,151,,120,34,198,*7D
$GPGLL,4714.3151,N,00131.5389,W,061027.913,A*2B
$GPGGA,061027.91,4714.3151,N,00131.5389,W,1,05,2.5,00042,M,,,,*39
$GPRMC,061027.91,A,4714.3151,N,00131.5389,W,00.0,000.0,120917,01,W*45
$GPGSA,M,2,29,32,31,21,25,,,,,,,,02.5,02.5,*1D
$PMGNST,01.10,2,T,938,12.8,+01825,00*45
$GPGLL,4714.3151,N,00131.5389,W,061028.909,A*2F
$GPGGA,061028.91,4714.3151,N,00131.5389,W,1,05,2.5,00042,M,,,,*36
$GPRMC,061028.91,A,4714.3151,N,00131.5389,W,00.0,000.0,120917,01,W*4A
$GPGSA,M,2,29,32,31,21,25,,,,,,,,02.5,02.5,*1D
$GPGSV,3,1,10,29,76,061,51,31,64,278,47,25,48,090,44,26,28,289,*72
$GPGSV,3,2,10,21,22,172,45,14,20,235,,02,18,042,,12,12,096,*7E
$GPGSV,3,3,10,32,09,220,48,23,03,337,,124,31,151,,120,34,198,*7D
$GPGLL,4714.3151,N,00131.5389,W,061029.905,A*22
$GPGGA,061029.90,4714.3151,N,00131.5389,W,1,05,2.4,00042,M,,,,*37
$GPRMC,061029.90,A,4714.3151,N,00131.5389,W,00.0,000.0,120917,01,W*4A
$GPGSA,M,2,29,32,31,21,25,,,,,,,,02.4,02.4,*1D
$PMGNST,01.10,2,T,938,12.8,+01826,00*46
$GPGLL,4714.3151,N,00131.5389,W,061030.913,A*2D
$GPGGA,061030.91,4714.3151,N,00131.5389,W,1,05,2.5,00042,M,,,,*3F
$GPRMC,061030.91,A,4714.3151,N,00131.5389,W,00.0,000.0,120917,01,W*43
$GPGSA,M,2,29,32,31,21,25,,,,,,,,02.5,02.5,*1D
$GPGSV,3,1,10,29,76,061,51,31,64,278,48,25,48,090,44,26,28,289,*7D
$GPGSV,3,2,10,21,22,172,45,14,20,235,,02,18,042,,12,12,096,*7E
$GPGSV,3,3,10,32,09,220,48,23,03,337,,124,31,151,,120,34,198,*7D
$GPGLL,4714.3152,N,00131.5389,W,061031.909,A*24
$GPGGA,061031.91,4714.3152,N,00131.5389,W,1,05,2.4,00042,M,,,,*3C
$GPRMC,061031.91,A,4714.3152,N,00131.5389,W,00.0,000.0,120917,01,W*41
$GPGSA,M,2,29,32,31,21,25,,,,,,,,02.4,02.4,*1D
$PMGNST,01.10,2,T,938,12.8,+01827,00*47
$GPGLL,4714.3152,N,00131.5388,W,061032.905,A*2A
$GPGGA,061032.90,4714.3152,N,00131.5388,W,1,05,2.4,00042,M,,,,*3F
$GPRMC,061032.90,A,4714.3152,N,00131.5388,W,00.0,000.0,120917,01,W*42
$GPGSA,M,2,29,32,31,21,25,,,,,,,,02.4,02.4,*1D
$GPGSV,3,1,10,29,76,061,52,31,64,278,48,25,48,090,44,26,28,289,*7E
$GPGSV,3,2,10,21,22,172,45,14,20,235,,02,18,042,,12,12,096,*7E
$GPGSV,3,3,10,32,09,220,48,23,03,337,,124,31,151,,120,34,198,*7D
$GPGLL,4714.3152,N,00131.5388,W,061033.913,A*2C
$GPGGA,061033.91,4714.3152,N,00131.5388,W,1,05,2.4,00042,M,,,,*3F
$GPRMC,061033.91,A,4714.3152,N,00131.5388,W,00.0,000.0,120917,01,W*42
$GPGSA,M,2,29,32,31,21,25,,,,,,,,02.4,02.4,*1D
$PMGNST,01.10,2,T,938,12.8,+01828,00*48
$GPGLL,4714.3152,N,00131.5388,W,061034.909,A*20
$GPGGA,061034.91,4714.3152,N,00131.5388,W,1,05,2.4,00042,M,,,,*38
$GPRMC,061034.91,A,4714.3152,N,00131.5388,W,00.0,000.0,120917,01,W*45
$GPGSA,M,2,29,32,31,25,21,,,,,,,,02.4,02.4,*1D
$GPGSV,3,1,10,29,76,061,51,31,64,278,48,25,48,090,46,26,28,289,*7F
$GPGSV,3,2,10,21,22,172,44,14,20,235,,02,18,042,,12,12,096,*7F
$GPGSV,3,3,10,32,09,220,48,23,03,337,,124,31,151,,120,34,198,*7D
$GPGLL,4714.3151,N,00131.5389,W,061035.905,A*2F
$GPGGA,061035.90,4714.3151,N,00131.5389,W,1,05,2.5,00042,M,,,,*3B
$GPRMC,061035.90,A,4714.3151,N,00131.5389,W,00.6,000.0,120917,01,W*41
$GPGSA,M,2,29,31,32,25,21,,,,,,,,02.5,02.5,*1D
$PMGNST,01.10,2,T,938,12.8,+01828,00*48
$GPGLL,4714.3150,N,00131.5390,W,061036.913,A*22
$GPGGA,061036.91,4714.3150,N,00131.5390,W,1,05,2.4,00042,M,,,,*31
$GPRMC,061036.91,A,4714.3150,N,00131.5390,W,00.9,203.6,120917,01,W*42
$GPGSA,M,2,29,21,32,31,25,,,,,,,,02.4,02.4,*1D
$GPGSV,3,1,10,29,76,061,51,31,64,278,48,25,48,090,45,26,28,289,*7C
$GPGSV,3,2,10,21,22,172,48,14,20,235,,02,18,042,,12,12,096,*73
$GPGSV,3,3,10,32,09,220,48,23,03,337,,124,31,151,,120,34,198,*7D
$GPGLL,4714.3148,N,00131.5391,W,061037.909,A*20
$GPGGA,061037.91,4714.3148,N,00131.5391,W,1,05,2.4,00042,M,,,,*38
$GPRMC,061037.91,A,4714.3148,N,00131.5391,W,00.9,201.5,120917,01,W*4A
$GPGSA,M,2,29,32,31,21,25,,,,,,,,02.4,02.4,*1D
$PMGNST,01.10,2,T,938,12.8,+01829,00*49
$GPGLL,4714.3145,N,00131.5393,W,061038.905,A*2C
$GPGGA,061038.91,4714.3145,N,00131.5393,W,1,05,2.4,00042,M,,,,*38
$GPRMC,061038.91,A,4714.3145,N,00131.5393,W,00.9,199.5,120917,01,W*48
$GPGSA,M,2,29,21,31,32,25,,,,,,,,02.4,02.4,*1D
$GPGSV,3,1,10,29,76,061,50,31,64,278,49,25,48,090,46,26,28,289,*7F
$GPGSV,3,2,10,21,22,172,48,14,20,235,,02,18,042,,12,12,096,*73
$GPGSV,3,3,10,32,09,220,48,23,03,337,,124,31,151,,120,34,198,*7D
$GPGLL,4714.3142,N,00131.5394,W,061039.913,A*2A
$GPGGA,061039.91,4714.3142,N,00131.5394,W,1,05,2.4,00042,M,,,,*39
$GPRMC,061039.91,A,4714.3142,N,00131.5394,W,01.5,197.8,120917,01,W*47
$GPGSA,M,2,29,21,32,31,25,,,,,,,,02.4,02.4,*1D
$PMGNST,01.10,2,T,938,12.8,+01830,00*41
$GPGLL,4714.3137,N,00131.5396,W,061040.909,A*2F
$GPGGA,061040.91,4714.3137,N,00131.5396,W,1,05,2.4,00042,M,,,,*37
$GPRMC,061040.91,A,4714.3137,N,00131.5396,W,02.5,194.8,120917,01,W*49
$GPGSA,M,2,25,31,29,32,21,,,,,,,,02.4,02.4,*1D
$GPGSV,3,1,10,29,76,061,47,31,64,278,48,25,48,090,51,26,28,289,*7E
$GPGSV,3,2,10,21,22,172,44,14,20,235,,02,18,042,,12,12,096,*7F
$GPGSV,3,3,10,32,09,220,44,23,03,337,,124,31,151,,120,34,198,41*74
$GPGLL,4714.3130,N,00131.5397,W,061041.905,A*24
$GPGGA,061041.91,4714.3130,N,00131.5397,W,1,05,2.2,00042,M,,,,*36
$GPRMC,061041.91,A,4714.3130,N,00131.5397,W,03.0,192.2,120917,01,W*46
$GPGSA,M,2,25,21,29,31,32,,,,,,,,02.2,02.2,*1D
$PMGNST,01.10,2,T,938,12.8,+01830,00*41
$GPGLL,4714.3122,N,00131.5400,W,061042.913,A*2A
$GPGGA,061042.91,4714.3122,N,00131.5400,W,1,05,2.2,00042,M,,,,*3F
$GPRMC,061042.91,A,4714.3122,N,00131.5400,W,03.2,193.1,120917,01,W*4F
$GPGSA,M,2,25,21,29,31,32,,,,,,,,02.2,02.2,*1D
$GPGSV,3,1,10,29,76,061,46,31,64,278,45,25,48,090,48,26,28,289,*7A
$GPGSV,3,2,10,21,22,172,46,14,20,235,,02,18,042,,12,12,096,*7D
$GPGSV,3,3,10,32,09,220,36,23,03,337,,124,31,151,,120,34,198,42*72
$GPGLL,4714.3113,N,00131.5403,W,061043.909,A*21
$GPGGA,061043.91,4714.3113,N,00131.5403,W,1,05,2.2,00042,M,,,,*3F
$GPRMC,061043.91,A,4714.3113,N,00131.5403,W,03.6,194.4,120917,01,W*49
$GPGSA,M,2,25,29,21,31,32,,,,,,,,02.2,02.2,*1D
$PMGNST,01.10,2,T,938,12.8,+01831,00*40
$GPGLL,4714.3104,N,00131.5408,W,061044.905,A*27
$GPGGA,061044.91,4714.3104,N,00131.5408,W,1,05,2.5,00042,M,,,,*32
$GPRMC,061044.91,A,4714.3104,N,00131.5408,W,03.5,196.6,120917,01,W*40
$GPGSA,M,2,25,29,31,21,32,,,,,,,,02.5,02.5,*1D
$GPGSV,3,1,10,29,76,061,47,31,64,278,46,25,48,090,51,26,28,289,*70
$GPGSV,3,2,10,21,22,172,40,14,20,235,,02,18,042,,12,12,096,*7B
$GPGSV,3,3,10,32,09,220,39,23,03,337,,124,31,151,,120,34,198,42*7D
$GPGLL,4714.3095,N,00131.5413,W,061045.913,A*22
$GPGGA,061045.91,4714.3095,N,00131.5413,W,1,05,2.6,00042,M,,,,*33
$GPRMC,061045.91,A,4714.3095,N,00131.5413,W,03.7,199.0,120917,01,W*49
$GPGSA,M,2,25,31,29,32,21,,,,,,,,02.6,02.6,*1D
$PMGNST,01.10,2,T,938,12.8,+01831,00*40
$GPGLL,4714.3085,N,00131.5420,W,061046.909,A*2B
$GPGGA,061046.91,4714.3085,N,00131.5420,W,1,05,3.0,00042,M,,,,*36
$GPRMC,061046.91,A,4714.3085,N,00131.5420,W,04.5,201.4,120917,01,W*48
$GPGSA,M,2,25,31,29,32,21,,,,,,,,03.0,03.0,*1D
$GPGSV,3,1,10,29,76,061,48,31,64,278,49,25,48,090,51,26,28,289,*70
$GPGSV,3,2,10,21,22,172,36,14,20,235,,02,18,042,,12,12,096,*7A
$GPGSV,3,3,10,32,09,220,36,23,03,337,,124,31,151,,120,34,198,42*72
$GPGLL,4714.3073,N,00131.5429,W,061047.905,A*26
$GPGGA,061047.91,4714.3073,N,00131.5429,W,1,04,4.8,00042,M,,,,*39
$GPRMC,061047.91,A,4714.3073,N,00131.5429,W,05.4,203.2,120917,01,W*4D
$GPGSA,M,2,25,31,29,32,,,,,,,,,04.8,04.8,*1E
$PMGNST,01.10,2,T,938,12.8,+01832,00*43
$GPGLL,4714.3059,N,00131.5440,W,061048.913,A*29
$GPGGA,061048.91,4714.3059,N,00131.5440,W,1,05,2.5,00042,M,,,,*3B
$GPRMC,061048.91,A,4714.3059,N,00131.5440,W,06.0,205.0,120917,01,W*46
$GPGSA,M,2,25,31,29,21,32,,,,,,,,02.5,02.5,*1D
$GPGSV,3,1,10,29,76,061,48,31,64,278,49,25,48,090,49,26,28,289,*79
$GPGSV,3,2,10,21,22,172,38,14,20,235,41,02,18,042,,12,12,096,*71
$GPGSV,3,3,10,32,09,220,36,23,03,337,,124,31,151,,120,34,198,40*70
$GPGLL,4714.3044,N,00131.5452,W,061049.897,A*2A
$GPGGA,061049.90,4714.3044,N,00131.5452,W,1,05,2.7,00042,M,,,,*36
$GPRMC,061049.90,A,4714.3044,N,00131.5452,W,07.1,205.9,120917,01,W*40
$GPGSA,M,2,29,25,31,32,21,,,,,,,,02.7,02.7,*1D
$PMGNST,01.10,2,T,938,12.8,+01832,00*43
$GPGLL,4714.3026,N,00131.5466,W,061050.905,A*2B
$GPGGA,061050.91,4714.3026,N,00131.5466,W,1,05,2.5,00042,M,,,,*3E
$GPRMC,061050.91,A,4714.3026,N,00131.5466,W,07.5,206.9,120917,01,W*4D
$GPGSA,M,2,29,31,25,21,32,,,,,,,,02.5,02.5,*1D
$GPGSV,3,1,10,29,75,060,50,31,64,276,48,25,47,091,47,26,28,289,*7D
$GPGSV,3,2,10,21,23,172,44,14,19,234,,02,17,041,,12,11,096,*7A
$GPGSV,3,3,10,32,08,219,41,23,03,337,,124,31,151,,120,34,198,40*7B
$GPGLL,4714.3007,N,00131.5481,W,061051.901,A*24
$GPGGA,061051.90,4714.3007,N,00131.5481,W,1,05,2.7,00042,M,,,,*36
$GPRMC,061051.90,A,4714.3007,N,00131.5481,W,07.9,207.5,120917,01,W*46
$GPGSA,M,2,29,31,25,32,21,,,,,,,,02.7,02.7,*1D
$PMGNST,01.10,2,T,938,12.8,+01832,00*43
$GPGLL,4714.2987,N,00131.5497,W,061052.909,A*28
$GPGGA,061052.91,4714.2987,N,00131.5497,W,1,05,3.0,00042,M,,,,*35
$GPRMC,061052.91,A,4714.2987,N,00131.5497,W,08.1,208.7,120917,01,W*49
$GPGSA,M,2,29,31,25,32,21,,,,,,,,03.0,03.0,*1D
$GPGSV,3,1,10,29,75,060,50,31,64,276,49,25,47,091,46,26,28,289,*7D
$GPGSV,3,2,10,21,23,172,36,14,19,234,,02,17,041,,12,11,096,*7F
$GPGSV,3,3,10,32,08,219,46,23,03,337,,124,31,151,,120,34,198,40*7C
$GPGLL,4714.2967,N,00131.5513,W,061053.905,A*26
$GPGGA,061053.91,4714.2967,N,00131.5513,W,1,04,4.3,00042,M,,,,*32
$GPRMC,061053.91,A,4714.2967,N,00131.5513,W,08.6,209.2,120917,01,W*48
$GPGSA,M,2,29,31,25,32,,,,,,,,,04.3,04.3,*1E
$PMGNST,01.10,2,T,938,12.8,+01833,00*42
$GPGLL,4714.2946,N,00131.5531,W,061054.901,A*26
$GPGGA,061054.90,4714.2946,N,00131.5531,W,1,04,4.4,00042,M,,,,*30
$GPRMC,061054.90,A,4714.2946,N,00131.5531,W,08.9,209.9,120917,01,W*49
$GPGSA,M,2,29,31,25,32,,,,,,,,,04.4,04.4,*1E
$GPGSV,3,1,10,29,75,060,50,31,64,276,48,25,47,091,46,26,28,289,*7C
$GPGSV,3,2,10,21,23,172,,14,19,234,36,02,17,041,,12,11,096,*7F
$GPGSV,3,3,10,32,08,219,45,23,03,337,,124,31,151,,120,34,198,39*71
$GPGLL,4714.2924,N,00131.5550,W,061055.909,A*2C
$GPGGA,061055.91,4714.2924,N,00131.5550,W,1,04,4.5,00042,M,,,,*32
$GPRMC,061055.91,A,4714.2924,N,00131.5550,W,09.2,210.7,120917,01,W*46
$GPGSA,M,2,29,31,25,32,,,,,,,,,04.5,04.5,*1E
$PMGNST,01.10,2,T,938,12.8,+01833,00*42
$GPGLL,4714.2902,N,00131.5569,W,061056.905,A*2D
$GPGGA,061056.91,4714.2902,N,00131.5569,W,1,04,5.0,00042,M,,,,*3B
$GPRMC,061056.91,A,4714.2902,N,00131.5569,W,09.4,209.9,120917,01,W*4B
$GPGSA,M,2,29,31,25,32,,,,,,,,,05.0,05.0,*1E
$GPGSV,3,1,10,29,75,060,51,31,64,276,44,25,47,091,39,26,28,289,*79
$GPGSV,3,2,10,21,23,172,41,14,19,234,,02,17,041,,12,11,096,*7F
$GPGSV,3,3,10,32,08,219,36,23,03,337,,124,31,151,,120,34,198,40*7B
$GPGLL,4714.2880,N,00131.5588,W,061057.901,A*2C
$GPGGA,061057.90,4714.2880,N,00131.5588,W,1,05,2.5,00042,M,,,,*3C
$GPRMC,061057.90,A,4714.2880,N,00131.5588,W,09.0,209.9,120917,01,W*4B
$GPGSA,M,2,29,31,21,25,32,,,,,,,,02.5,02.5,*1D
$PMGNST,01.10,2,T,938,12.8,+01834,00*45
$GPGLL,4714.2858,N,00131.5606,W,061058.909,A*2B
$GPGGA,061058.91,4714.2858,N,00131.5606,W,1,05,2.4,00042,M,,,,*33
$GPRMC,061058.91,A,4714.2858,N,00131.5606,W,08.7,209.7,120917,01,W*4D
$GPGSA,M,2,29,31,21,32,25,,,,,,,,02.4,02.4,*1D
$GPGSV,3,1,10,29,75,060,51,31,64,276,48,25,47,091,45,26,28,289,*7E
$GPGSV,3,2,10,21,23,172,46,14,19,234,,02,17,041,,12,11,096,*78
$GPGSV,3,3,10,32,08,219,45,23,03,337,,124,31,151,,120,34,198,38*70
$GPGLL,4714.2838,N,00131.5622,W,061059.917,A*25
$GPGGA,061059.92,4714.2838,N,00131.5622,W,1,05,2.4,00042,M,,,,*31
$GPRMC,061059.92,A,4714.2838,N,00131.5622,W,07.8,209.4,120917,01,W*4C
$GPGSA,M,2,29,32,31,21,25,,,,,,,,02.4,02.4,*1D
$PMGNST,01.10,2,T,938,12.8,+01834,00*45
$GPGLL,4714.2822,N,00131.5637,W,061100.914,A*24
$GPGGA,061100.91,4714.2822,N,00131.5637,W,1,05,2.4,00042,M,,,,*30
$GPRMC,061100.91,A,4714.2822,N,00131.5637,W,06.0,211.9,120917,01,W*40
$GPGSA,M,2,29,32,31,21,25,,,,,,,,02.4,02.4,*1D
$GPGSV,3,1,10,29,75,060,51,31,64,276,48,25,47,091,44,26,28,289,*7F
$GPGSV,3,2,10,21,23,172,46,14,19,234,,02,17,041,,12,11,096,*78
$GPGSV,3,3,10,32,08,219,49,23,03,337,,124,31,151,,120,34,198,41*72
$GPGLL,4714.2812,N,00131.5650,W,061101.910,A*23
$GPGGA,061101.91,4714.2812,N,00131.5650,W,1,05,2.7,00042,M,,,,*30
$GPRMC,061101.91,A,4714.2812,N,00131.5650,W,04.0,217.6,120917,01,W*48
$GPGSA,M,2,29,32,25,31,21,,,,,,,,02.7,02.7,*1D
$PMGNST,01.10,2,T,938,12.8,+01834,00*45
$GPGLL,4714.2807,N,00131.5662,W,061102.918,A*2D
$GPGGA,061102.92,4714.2807,N,00131.5662,W,1,05,2.8,00042,M,,,,*3A
$GPRMC,061102.92,A,4714.2807,N,00131.5662,W,02.7,222.5,120917,01,W*49
$GPGSA,M,2,29,32,25,31,21,,,,,,,,02.8,02.8,*1D
$GPGSV,3,1,10,29,75,060,51,31,64,276,44,25,47,091,44,26,28,289,*73
$GPGSV,3,2,10,21,23,172,39,14,19,234,,02,17,041,,12,11,096,*70
$GPGSV,3,3,10,32,08,219,47,23,03,337,,124,31,151,,120,34,198,39*73
$GPGLL,4714.2805,N,00131.5671,W,061103.914,A*20
$GPGGA,061103.91,4714.2805,N,00131.5671,W,1,05,2.7,00042,M,,,,*37
$GPRMC,061103.91,A,4714.2805,N,00131.5671,W,01.9,226.7,120917,01,W*40
$GPGSA,M,2,29,31,21,32,25,,,,,,,,02.7,02.7,*1D
$PMGNST,01.10,2,T,938,12.8,+01834,00*45
$GPGLL,4714.2803,N,00131.5678,W,061104.910,A*2C
$GPGGA,061104.91,4714.2803,N,00131.5678,W,1,05,2.7,00042,M,,,,*3F
$GPRMC,061104.91,A,4714.2803,N,00131.5678,W,01.9,232.1,120917,01,W*4B
$GPGSA,M,2,29,31,32,25,21,,,,,,,,02.7,02.7,*1D
$GPGSV,3,1,10,29,75,060,49,31,64,276,48,25,47,091,42,26,28,289,*70
$GPGSV,3,2,10,21,23,172,39,14,19,234,,02,17,041,,12,11,096,*70
$GPGSV,3,3,10,32,08,219,44,23,03,337,,124,31,151,,120,34,198,39*70
$GPGLL,4714.2805,N,00131.5691,W,061105.918,A*24
$GPGGA,061105.92,4714.2805,N,00131.5691,W,1,05,4.4,00042,M,,,,*39
$GPRMC,061105.92,A,4714.2805,N,00131.5691,W,04.2,246.6,120917,01,W*42
$GPGSA,M,2,32,31,29,25,21,,,,,,,,04.4,04.4,*1D
$PMGNST,01.10,2,T,938,12.8,+01835,00*44
$GPGLL,4714.2809,N,00131.5709,W,061106.914,A*27
$GPGGA,061106.91,4714.2809,N,00131.5709,W,1,05,4.4,00042,M,,,,*35
$GPRMC,061106.91,A,4714.2809,N,00131.5709,W,05.2,261.2,120917,01,W*4E
$GPGSA,M,2,32,21,25,31,29,,,,,,,,04.4,04.4,*1D
$GPGSV,3,1,10,29,75,060,38,31,64,276,44,25,47,091,44,26,28,289,*7C
$GPGSV,3,2,10,21,23,172,44,14,19,234,,02,17,041,,12,11,096,*7A
$GPGSV,3,3,10,32,08,219,47,23,03,337,,124,31,151,,120,34,198,39*73
$GPGLL,4714.2816,N,00131.5730,W,061107.910,A*26
$GPGGA,061107.91,4714.2816,N,00131.5730,W,1,04,2.6,00042,M,,,,*35
$GPRMC,061107.91,A,4714.2816,N,00131.5730,W,06.5,275.9,120917,01,W*41
$GPGSA,M,2,25,21,31,29,,,,,,,,,02.6,02.6,*1C
$PMGNST,01.10,2,T,938,12.8,+01835,00*44
$GPGLL,4714.2827,N,00131.5754,W,061108.918,A*21
$GPGGA,061108.92,4714.2827,N,00131.5754,W,1,04,3.0,00042,M,,,,*3E
$GPRMC,061108.92,A,4714.2827,N,00131.5754,W,08.0,288.8,120917,01,W*45
$GPGSA,M,2,25,31,21,29,,,,,,,,,03.0,03.0,*1C
$GPGSV,3,1,10,29,75,060,36,31,64,276,44,25,47,091,44,26,28,289,43*75
$GPGSV,3,2,10,21,23,172,39,14,19,234,,02,17,041,,12,11,096,*70
$GPGSV,3,3,10,32,08,219,,23,03,337,,124,31,151,,120,34,198,36*7F
$GPGLL,4714.2847,N,00131.5793,W,061110.410,A*20
$GPGGA,061110.41,4714.2847,N,00131.5793,W,1,04,3.0,00042,M,,,,*34
$GPRMC,061110.41,A,4714.2847,N,00131.5793,W,08.0,288.8,120917,01,W*4F
$GPGSA,M,2,25,31,21,29,,,,,,,,,03.0,03.0,*1C
$PMGNST,01.10,2,T,938,12.8,+01835,23*45
$GPGLL,4714.2860,N,00131.5820,W,061111.410,A*23
$GPGGA,061111.41,4714.2860,N,00131.5820,W,1,04,3.0,00042,M,,,,*37
$GPRMC,061111.41,A,4714.2860,N,00131.5820,W,08.0,288.8,120917,01,W*4C
$GPGSA,M,2,25,31,21,29,,,,,,,,,03.0,03.0,*1C
$GPGSV,3,1,10,29,75,060,39,31,64,276,43,25,47,091,36,26,28,289,38*74
$GPGSV,3,2,10,21,23,172,,14,19,234,,02,17,041,,12,11,096,*7A
$GPGSV,3,3,10,32,08,219,,23,03,337,,124,31,151,,120,34,198,36*7F
$GPGLL,4714.2882,N,00131.5836,W,061111.918,A*2D
$GPGGA,061111.92,4714.2882,N,00131.5836,W,1,03,19.6,00042,M,,,,*08
$GPRMC,061111.92,A,4714.2882,N,00131.5836,W,10.9,304.2,120917,01,W*46
$GPGSA,M,2,31,29,25,,,,,,,,,,19.6,19.6,*1F
$PMGNST,01.10,2,T,938,12.8,+01835,00*44
$GPGLL,4714.2905,N,00131.5866,W,061112.914,A*29
$GPGGA,061112.91,4714.2905,N,00131.5866,W,1,03,13.2,00042,M,,,,*0D
$GPRMC,061112.91,A,4714.2905,N,00131.5866,W,11.6,310.3,120917,01,W*47
$GPGSA,M,2,29,31,25,,,,,,,,,,13.2,13.2,*1F
$GPGSV,3,1,10,29,75,060,41,31,64,276,41,25,47,091,38,26,28,289,39*76
$GPGSV,3,2,10,21,23,172,,14,19,234,,02,17,041,,12,11,096,*7A
$GPGSV,3,3,10,32,08,219,,23,03,337,,124,31,151,,120,34,198,38*71
$GPGLL,4714.2927,N,00131.5900,W,061113.910,A*2D
$GPGGA,061113.91,4714.2927,N,00131.5900,W,1,04,3.3,00042,M,,,,*3A
$GPRMC,061113.91,A,4714.2927,N,00131.5900,W,11.8,312.2,120917,01,W*4A
$GPGSA,M,2,21,31,29,25,,,,,,,,,03.3,03.3,*1C
$PMGNST,01.10,2,T,938,12.8,+01836,00*47
$GPGLL,4714.2951,N,00131.5936,W,061114.918,A*26
$GPGGA,061114.92,4714.2951,N,00131.5936,W,1,04,3.2,00042,M,,,,*3B
$GPRMC,061114.92,A,4714.2951,N,00131.5936,W,12.4,312.7,120917,01,W*40
$GPGSA,M,2,31,21,25,29,,,,,,,,,03.2,03.2,*1C
$GPGSV,3,1,10,29,75,060,38,31,64,276,42,25,47,091,36,26,28,289,41*7A
$GPGSV,3,2,10,21,23,172,40,14,19,234,,02,17,041,,12,11,096,36*7B
$GPGSV,3,3,10,32,08,219,,23,03,337,,124,31,151,,120,34,198,39*70
$GPGLL,4714.2974,N,00131.5973,W,061115.914,A*2D
$GPGGA,061115.91,4714.2974,N,00131.5973,W,1,03,4.1,00042,M,,,,*3C
$GPRMC,061115.91,A,4714.2974,N,00131.5973,W,12.6,313.6,120917,01,W*46
$GPGSA,M,2,31,21,29,,,,,,,,,,04.1,04.1,*1B
$PMGNST,01.10,2,T,938,12.8,+01836,00*47
$GPGLL,4714.2999,N,00131.6012,W,061116.910,A*24
$GPGGA,061116.91,4714.2999,N,00131.6012,W,1,03,4.2,00042,M,,,,*32
$GPRMC,061116.91,A,4714.2999,N,00131.6012,W,13.4,312.0,120917,01,W*4F
$GPGSA,M,2,31,21,29,,,,,,,,,,04.2,04.2,*1B
$GPGSV,3,1,10,29,75,060,38,31,64,276,44,25,47,091,38,26,28,289,*77
$GPGSV,3,2,10,21,23,172,39,14,19,234,,02,17,041,,12,11,096,*70
$GPGSV,3,3,10,32,08,219,,23,03,337,,124,31,151,,120,34,198,39*70
$GPGLL,4714.3024,N,00131.6053,W,061117.918,A*26
$GPGGA,061117.92,4714.3024,N,00131.6053,W,1,03,4.2,00042,M,,,,*3B
$GPRMC,061117.92,A,4714.3024,N,00131.6053,W,13.7,312.5,120917,01,W*40
$GPGSA,M,2,31,21,29,,,,,,,,,,04.2,04.2,*1B
$PMGNST,01.10,2,T,938,12.8,+01836,00*47
$GPGLL,4714.3051,N,00131.6092,W,061118.914,A*2A
$GPGGA,061118.91,4714.3051,N,00131.6092,W,1,03,4.9,00042,M,,,,*33
$GPRMC,061118.91,A,4714.3051,N,00131.6092,W,13.4,317.6,120917,01,W*46
$GPGSA,M,2,21,31,29,,,,,,,,,,04.9,04.9,*1B
$GPGSV,3,1,10,29,75,060,38,31,64,276,42,25,47,091,,26,28,289,41*7F
$GPGSV,3,2,10,21,23,172,42,14,19,234,,02,17,041,,12,11,096,*7C
$GPGSV,3,3,10,32,08,219,,23,03,337,,124,31,151,,120,34,198,36*7F
$GPGLL,4714.3077,N,00131.6130,W,061119.910,A*22
$GPGGA,061119.91,4714.3077,N,00131.6130,W,1,03,4.4,00042,M,,,,*32
$GPRMC,061119.91,A,4714.3077,N,00131.6130,W,13.3,314.4,120917,01,W*4C
$GPGSA,M,2,31,29,21,,,,,,,,,,04.4,04.4,*1B
$PMGNST,01.10,2,T,938,12.8,+01836,00*47
$GPGLL,4714.3116,N,00131.6188,W,061121.413,A*22
$GPGGA,061121.41,4714.3116,N,00131.6188,W,1,03,4.4,00042,M,,,,*31
$GPRMC,061121.41,A,4714.3116,N,00131.6188,W,13.3,314.4,120917,01,W*4F
$GPGSA,M,2,31,29,21,,,,,,,,,,04.4,04.4,*1B
$GPGSV,3,1,10,29,75,060,39,31,64,276,44,25,47,091,,26,28,289,39*77
$GPGSV,3,2,10,21,23,172,,14,19,234,,02,17,041,,12,11,096,*7A
$GPGSV,3,3,10,32,08,219,,23,03,337,,124,31,151,,120,34,198,36*7F
$GPGLL,4714.3120,N,00131.6195,W,061121.902,A*26
$GPGGA,061121.90,4714.3120,N,00131.6195,W,1,03,19.2,00042,M,,,,*0E
$GPRMC,061121.90,A,4714.3120,N,00131.6195,W,09.1,313.5,120917,01,W*45
$GPGSA,M,2,31,29,25,,,,,,,,,,19.2,19.2,*1F
$PMGNST,01.10,2,T,938,12.8,+01836,00*47
$GPGLL,4714.3137,N,00131.6221,W,061122.910,A*2C
$GPGGA,061122.91,4714.3137,N,00131.6221,W,1,03,21.7,00042,M,,,,*08
$GPRMC,061122.91,A,4714.3137,N,00131.6221,W,07.9,313.1,120917,01,W*4F
$GPGSA,M,2,31,29,25,,,,,,,,,,21.7,21.7,*1F
$GPGSV,3,1,10,29,75,060,41,31,64,276,41,25,47,091,36,26,28,289,42*74
$GPGSV,3,2,10,21,23,172,,14,19,234,,02,17,041,,12,11,096,*7A
$GPGSV,3,3,10,32,08,219,,23,03,337,,124,31,151,,120,34,198,38*71
$GPGLL,4714.3160,N,00131.6257,W,061124.425,A*22
$GPGGA,061124.42,4714.3160,N,00131.6257,W,1,03,21.7,00042,M,,,,*03
$GPRMC,061124.42,A,4714.3160,N,00131.6257,W,07.9,313.1,120917,01,W*44
$GPGSA,M,2,31,29,25,,,,,,,,,,21.7,21.7,*1F
$PMGNST,01.10,2,T,938,12.8,+01836,23*46
$GPGLL,4714.3171,N,00131.6273,W,061124.902,A*2C
$GPGGA,061124.90,4714.3171,N,00131.6273,W,1,03,6.8,00042,M,,,,*30
$GPRMC,061124.90,A,4714.3171,N,00131.6273,W,09.8,313.6,120917,01,W*45
$GPGSA,M,2,31,29,32,,,,,,,,,,06.8,06.8,*19
$GPGSV,3,1,10,29,75,060,36,31,64,276,44,25,47,091,36,26,28,289,41*72
$GPGSV,3,2,10,21,23,172,,14,19,234,,02,17,041,,12,11,096,*7A
$GPGSV,3,3,10,32,08,219,36,23,03,337,,124,31,151,,120,34,198,39*75
$GPGLL,4714.3190,N,00131.6303,W,061125.910,A*27
$GPGGA,061125.91,4714.3190,N,00131.6303,W,1,03,24.4,00042,M,,,,*05
$GPRMC,061125.91,A,4714.3190,N,00131.6303,W,10.3,313.2,120917,01,W*4B
$GPGSA,M,2,31,25,29,,,,,,,,,,24.4,24.4,*1F
$PMGNST,01.10,2,T,938,12.8,+01836,00*47
$GPGLL,4714.3209,N,00131.6335,W,061126.906,A*25
$GPGGA,061126.91,4714.3209,N,00131.6335,W,1,04,3.7,00042,M,,,,*31
$GPRMC,061126.91,A,4714.3209,N,00131.6335,W,10.4,311.3,120917,01,W*4A
$GPGSA,M,2,31,21,25,29,,,,,,,,,03.7,03.7,*1C
$GPGSV,3,1,10,29,75,060,36,31,64,276,41,25,47,091,36,26,28,289,39*78
$GPGSV,3,2,10,21,23,172,36,14,19,234,,02,17,041,,12,11,096,*7F
$GPGSV,3,3,10,32,08,219,,23,03,337,,124,31,151,,120,34,198,41*7F
$GPGLL,4714.3229,N,00131.6367,W,061127.902,A*25
$GPGGA,061127.90,4714.3229,N,00131.6367,W,1,04,3.4,00042,M,,,,*37
$GPRMC,061127.90,A,4714.3229,N,00131.6367,W,10.9,312.4,120917,01,W*46
$GPGSA,M,2,31,21,25,29,,,,,,,,,03.4,03.4,*1C
$PMGNST,01.10,2,T,938,12.8,+01836,00*47
$GPGLL,4714.3250,N,00131.6402,W,061128.910,A*23
$GPGGA,061128.91,4714.3250,N,00131.6402,W,1,04,3.4,00042,M,,,,*33
$GPRMC,061128.91,A,4714.3250,N,00131.6402,W,11.6,312.1,120917,01,W*49
$GPGSA,M,2,31,25,21,29,,,,,,,,,03.4,03.4,*1C
$GPGSV,3,1,10,29,75,060,36,31,64,276,41,25,47,091,39,26,28,289,40*79
$GPGSV,3,2,10,21,23,172,39,14,19,234,,02,17,041,,12,11,096,*70
$GPGSV,3,3,10,32,08,219,,23,03,337,,124,31,151,,120,34,198,36*7F
$GPGLL,4714.3273,N,00131.6439,W,061129.906,A*2C
$GPGGA,061129.91,4714.3273,N,00131.6439,W,1,04,3.3,00042,M,,,,*3C
$GPRMC,061129.91,A,4714.3273,N,00131.6439,W,13.2,313.5,120917,01,W*42
$GPGSA,M,2,31,21,25,29,,,,,,,,,03.3,03.3,*1C
$PMGNST,01.10,2,T,938,12.8,+01836,00*47
$GPGLL,4714.3300,N,00131.6479,W,061130.902,A*21
$GPGGA,061130.90,4714.3300,N,00131.6479,W,1,04,3.9,00042,M,,,,*3E
$GPRMC,061130.90,A,4714.3300,N,00131.6479,W,14.3,314.0,120917,01,W*4E
$GPGSA,M,2,31,25,29,21,,,,,,,,,03.9,03.9,*1C
$GPGSV,3,1,10,29,75,060,38,31,64,276,42,25,47,091,38,26,28,289,38*7A
$GPGSV,3,2,10,21,23,172,36,14,19,234,,02,17,041,,12,11,096,*7F
$GPGSV,3,3,10,32,08,219,,23,03,337,,124,31,151,,120,34,198,36*7F
$GPGLL,4714.3329,N,00131.6522,W,061131.910,A*27
$GPGGA,061131.91,4714.3329,N,00131.6522,W,1,04,3.2,00042,M,,,,*31
$GPRMC,061131.91,A,4714.3329,N,00131.6522,W,15.5,315.2,120917,01,W*4E
$GPGSA,M,2,25,31,29,21,,,,,,,,,03.2,03.2,*1C
$PMGNST,01.10,2,T,938,12.8,+01836,00*47
$GPGLL,4714.3360,N,00131.6568,W,061132.906,A*20
$GPGGA,061132.91,4714.3360,N,00131.6568,W,1,04,3.2,00042,M,,,,*31
$GPRMC,061132.91,A,4714.3360,N,00131.6568,W,16.2,314.9,120917,01,W*40
$GPGSA,M,2,31,21,29,25,,,,,,,,,03.2,03.2,*1C
$GPGSV,3,1,10,29,75,060,39,31,64,276,42,25,47,091,36,26,28,289,38*75
$GPGSV,3,2,10,21,23,172,39,14,19,234,,02,17,041,,12,11,096,*70
$GPGSV,3,3,10,32,08,219,,23,03,337,,124,31,151,,120,34,198,38*71
$GPGLL,4714.3392,N,00131.6616,W,061133.902,A*22
$GPGGA,061133.90,4714.3392,N,00131.6616,W,1,04,3.3,00042,M,,,,*37
$GPRMC,061133.90,A,4714.3392,N,00131.6616,W,16.9,315.0,120917,01,W*44
$GPGSA,M,2,31,21,29,25,,,,,,,,,03.3,03.3,*1C
$PMGNST,01.10,2,T,938,12.8,+01836,00*47
$GPGLL,4714.3425,N,00131.6664,W,061134.910,A*28
$GPGGA,061134.91,4714.3425,N,00131.6664,W,1,04,3.3,00042,M,,,,*3F
$GPRMC,061134.91,A,4714.3425,N,00131.6664,W,16.5,315.9,120917,01,W*49
$GPGSA,M,2,31,21,29,25,,,,,,,,,03.3,03.3,*1C
$GPGSV,3,1,10,29,75,060,39,31,64,276,44,25,47,091,36,26,28,289,36*7D
$GPGSV,3,2,10,21,23,172,40,14,19,234,,02,17,041,,12,11,096,*7E
$GPGSV,3,3,10,32,08,219,,23,03,337,,124,31,151,,120,34,198,36*7F
$GPGLL,4714.3458,N,00131.6710,W,061135.906,A*26
$GPGGA,061135.91,4714.3458,N,00131.6710,W,1,04,3.1,00042,M,,,,*34
$GPRMC,061135.91,A,4714.3458,N,00131.6710,W,16.2,316.0,120917,01,W*4D
$GPGSA,M,2,31,21,29,25,,,,,,,,,03.1,03.1,*1C
$PMGNST,01.10,2,T,938,12.8,+01835,00*44
$GPGLL,4714.3490,N,00131.6757,W,061136.902,A*26
$GPGGA,061136.90,4714.3490,N,00131.6757,W,1,04,3.8,00042,M,,,,*38
$GPRMC,061136.90,A,4714.3490,N,00131.6757,W,16.6,315.7,120917,01,W*48
$GPGSA,M,2,31,25,29,21,,,,,,,,,03.8,03.8,*1C
$GPGSV,3,1,10,29,75,060,40,31,64,276,42,25,47,091,40,26,28,289,36*74
$GPGSV,3,2,10,21,23,172,36,14,19,234,,02,17,041,,12,11,096,*7F
$GPGSV,3,3,10,32,08,219,,23,03,337,,124,31,151,,120,34,198,39*70
$GPGLL,4714.3524,N,00131.6805,W,061137.898,A*23
$GPGGA,061137.90,4714.3524,N,00131.6805,W,1,04,3.1,00042,M,,,,*36
$GPRMC,061137.90,A,4714.3524,N,00131.6805,W,17.1,315.3,120917,01,W*4D
$GPGSA,M,2,31,21,29,25,,,,,,,,,03.1,03.1,*1C
$PMGNST,01.10,2,T,938,12.8,+01835,00*44
$GPGLL,4714.3558,N,00131.6854,W,061138.894,A*2F
$GPGGA,061138.89,4714.3558,N,00131.6854,W,1,03,4.3,00042,M,,,,*3C
$GPRMC,061138.89,A,4714.3558,N,00131.6854,W,17.5,316.2,120917,01,W*43
$GPGSA,M,2,31,21,29,,,,,,,,,,04.3,04.3,*1B
$GPGSV,3,1,10,29,75,060,39,31,64,276,44,25,47,091,36,26,28,289,36*7D
$GPGSV,3,2,10,21,23,172,39,14,19,234,,02,17,041,,12,11,096,*70
$GPGSV,3,3,10,32,08,219,,23,03,337,,124,31,151,,120,34,198,*7A
$GPGLL,4714.3594,N,00131.6904,W,061139.902,A*24
$GPGGA,061139.90,4714.3594,N,00131.6904,W,1,03,4.3,00042,M,,,,*31
$GPRMC,061139.90,A,4714.3594,N,00131.6904,W,18.0,316.9,120917,01,W*4F
$GPGSA,M,2,31,29,21,,,,,,,,,,04.3,04.3,*1B
$PMGNST,01.10,2,T,938,12.8,+01835,00*44
$GPGLL,4714.3631,N,00131.6953,W,061140.898,A*26
$GPGGA,061140.90,4714.3631,N,00131.6953,W,1,03,4.1,00042,M,,,,*33
$GPRMC,061140.90,A,4714.3631,N,00131.6953,W,18.5,318.9,120917,01,W*44
$GPGSA,M,2,31,29,21,,,,,,,,,,04.1,04.1,*1B
$GPGSV,3,1,10,29,75,060,39,31,64,276,44,25,47,091,,26,28,289,39*77
$GPGSV,3,2,10,21,23,172,39,14,19,234,,02,17,041,,12,11,096,*70
$GPGSV,3,3,10,32,08,219,,23,03,337,,124,31,151,,120,34,198,*7A
$GPGLL,4714.3670,N,00131.7004,W,061141.894,A*24
$GPGGA,061141.89,4714.3670,N,00131.7004,W,1,03,4.2,00042,M,,,,*36
$GPRMC,061141.89,A,4714.3670,N,00131.7004,W,18.9,318.1,120917,01,W*46
$GPGSA,M,2,31,29,21,,,,,,,,,,04.2,04.2,*1B
$PMGNST,01.10,2,T,938,12.8,+01835,00*44
$GPGLL,4714.3710,N,00131.7057,W,061142.890,A*22
$GPGGA,061142.89,4714.3710,N,00131.7057,W,1,03,4.1,00042,M,,,,*37
$GPRMC,061142.89,A,4714.3710,N,00131.7057,W,19.9,317.8,120917,01,W*43
$GPGSA,M,2,31,21,29,,,,,,,,,,04.1,04.1,*1B
$GPGSV,3,1,10,29,75,060,39,31,64,276,44,25,47,091,,26,28,289,38*76
$GPGSV,3,2,10,21,23,172,38,14,19,234,,02,17,041,,12,11,096,*71
$GPGSV,3,3,10,32,08,219,,23,03,337,,124,31,151,,120,34,198,*7A
$GPGLL,4714.3752,N,00131.7112,W,061143.898,A*2D
$GPGGA,061143.90,4714.3752,N,00131.7112,W,1,04,3.2,00042,M,,,,*3B
$GPRMC,061143.90,A,4714.3752,N,00131.7112,W,20.5,317.7,120917,01,W*45
$GPGSA,M,2,31,21,29,25,,,,,,,,,03.2,03.2,*1C
$PMGNST,01.10,2,T,938,12.8,+01835,00*44
$GPGLL,4714.3795,N,00131.7169,W,061144.894,A*21
$GPGGA,061144.89,4714.3795,N,00131.7169,W,1,04,2.8,00042,M,,,,*38
$GPRMC,061144.89,A,4714.3795,N,00131.7169,W,21.2,318.0,120917,01,W*43
$GPGSA,M,2,31,21,29,25,,,,,,,,,02.8,02.8,*1C
$GPGSV,3,1,10,29,75,060,44,31,64,276,44,25,47,091,40,26,28,289,39*79
$GPGSV,3,2,10,21,23,172,44,14,19,234,,02,17,041,,12,11,096,*7A
$GPGSV,3,3,10,32,08,219,,23,03,337,,124,31,151,,120,34,198,*7A
$GPGLL,4714.3839,N,00131.7227,W,061145.890,A*24
$GPGGA,061145.89,4714.3839,N,00131.7227,W,1,04,3.2,00042,M,,,,*32
$GPRMC,061145.89,A,4714.3839,N,00131.7227,W,21.6,318.1,120917,01,W*47
$GPGSA,M,2,31,21,29,25,,,,,,,,,03.2,03.2,*1C
$PMGNST,01.10,2,T,938,12.8,+01835,00*44
$GPGLL,4714.3884,N,00131.7287,W,061146.898,A*23
$GPGGA,061146.90,4714.3884,N,00131.7287,W,1,04,3.6,00042,M,,,,*31
$GPRMC,061146.90,A,4714.3884,N,00131.7287,W,22.0,318.7,120917,01,W*43
$GPGSA,M,2,21,31,29,32,,,,,,,,,03.6,03.6,*1A
$GPGSV,3,1,10,29,75,060,44,31,64,276,44,25,47,091,,26,28,289,*77
$GPGSV,3,2,10,21,23,172,44,14,19,234,,02,17,041,,12,11,096,*7A
$GPGSV,3,3,10,32,08,219,36,23,03,337,,124,31,151,,120,34,198,*7F
$GPGLL,4714.3930,N,00131.7347,W,061147.895,A*2C
$GPGGA,061147.89,4714.3930,N,00131.7347,W,1,03,3.7,00042,M,,,,*3D
$GPRMC,061147.89,A,4714.3930,N,00131.7347,W,22.4,318.2,120917,01,W*48
$GPGSA,M,2,29,21,31,,,,,,,,,,03.7,03.7,*1B
$PMGNST,01.10,2,T,938,12.8,+01835,00*44
$GPGLL,4714.3977,N,00131.7408,W,061148.891,A*28
$GPGGA,061148.89,4714.3977,N,00131.7408,W,1,04,3.4,00042,M,,,,*39
$GPRMC,061148.89,A,4714.3977,N,00131.7408,W,22.5,318.5,120917,01,W*4E
$GPGSA,M,2,29,31,21,32,,,,,,,,,03.4,03.4,*1A
$GPGSV,3,1,10,29,75,060,44,31,64,276,44,25,47,091,,26,28,289,36*72
$GPGSV,3,2,10,21,23,172,42,14,19,234,,02,17,041,,12,11,096,*7C
$GPGSV,3,3,10,32,08,219,36,23,03,337,,124,31,151,,120,34,198,*7F
$GPGLL,4714.4024,N,00131.7469,W,061149.899,A*2E
$GPGGA,061149.90,4714.4024,N,00131.7469,W,1,03,3.6,00042,M,,,,*3A
$GPRMC,061149.90,A,4714.4024,N,00131.7469,W,22.5,318.2,120917,01,W*4F
$GPGSA,M,2,29,21,31,,,,,,,,,,03.6,03.6,*1B
$PMGNST,01.10,2,T,938,12.8,+01835,00*44
$GPGLL,4714.4069,N,00131.7531,W,061150.895,A*2F
$GPGGA,061150.89,4714.4069,N,00131.7531,W,1,03,3.9,00042,M,,,,*30
$GPRMC,061150.89,A,4714.4069,N,00131.7531,W,22.4,316.5,120917,01,W*42
$GPGSA,M,2,29,21,31,,,,,,,,,,03.9,03.9,*1B
$GPGSV,3,1,10,29,75,060,44,31,64,276,42,25,47,091,,26,28,289,36*74
$GPGSV,3,2,10,21,23,172,42,14,19,234,,02,17,041,,12,11,096,*7C
$GPGSV,3,3,10,32,08,219,,23,03,337,,124,31,151,,120,34,198,*7A
$GPGLL,4714.4113,N,00131.7596,W,061151.903,A*21
$GPGGA,061151.90,4714.4113,N,00131.7596,W,1,03,18.8,00042,M,,,,*03
$GPRMC,061151.90,A,4714.4113,N,00131.7596,W,22.3,313.8,120917,01,W*45
$GPGSA,M,2,31,29,25,,,,,,,,,,18.8,18.8,*1F
$PMGNST,01.10,2,T,938,12.8,+01835,00*44
$GPGLL,4714.4155,N,00131.7662,W,061152.899,A*2A
$GPGGA,061152.90,4714.4155,N,00131.7662,W,1,03,19.4,00042,M,,,,*07
$GPRMC,061152.90,A,4714.4155,N,00131.7662,W,22.1,311.7,120917,01,W*43
$GPGSA,M,2,31,25,29,,,,,,,,,,19.4,19.4,*1F
$GPGSV,3,1,10,29,75,060,38,31,64,276,42,25,47,091,36,26,28,289,44*7F
$GPGSV,3,2,10,21,23,172,,14,19,234,,02,17,041,,12,11,096,*7A
$GPGSV,3,3,10,32,08,219,,23,03,337,,124,31,151,,120,34,198,*7A
$GPGLL,4714.4197,N,00131.7731,W,061153.907,A*24
$GPGGA,061153.91,4714.4197,N,00131.7731,W,1,03,23.9,00042,M,,,,*0A
$GPRMC,061153.91,A,4714.4197,N,00131.7731,W,23.6,312.6,120917,01,W*4E
$GPGSA,M,2,31,25,29,,,,,,,,,,23.9,23.9,*1F
$PMGNST,01.10,2,T,938,12.8,+01834,00*45
$GPGLL,4714.4238,N,00131.7800,W,061154.903,A*2C
$GPGGA,061154.90,4714.4238,N,00131.7800,W,1,03,18.5,00042,M,,,,*03
$GPRMC,061154.90,A,4714.4238,N,00131.7800,W,21.2,309.3,120917,01,W*4A
$GPGSA,M,2,25,31,29,,,,,,,,,,18.5,18.5,*1F
$GPGSV,3,1,10,29,75,060,38,31,64,276,41,25,47,091,40,26,28,289,44*7D
$GPGSV,3,2,10,21,23,172,,14,19,234,,02,17,041,,12,11,096,*7A
$GPGSV,3,3,10,32,08,219,,23,03,337,,124,31,151,,120,34,198,*7A
$GPGLL,4714.4270,N,00131.7865,W,061155.899,A*20
$GPGGA,061155.90,4714.4270,N,00131.7865,W,1,03,17.0,00042,M,,,,*07
$GPRMC,061155.90,A,4714.4270,N,00131.7865,W,18.8,304.3,120917,01,W*49
$GPGSA,M,2,25,31,29,,,,,,,,,,17.0,17.0,*1F
$PMGNST,01.10,2,T,938,12.8,+01835,00*44
$GPGLL,4714.4297,N,00131.7925,W,061156.907,A*29
$GPGGA,061156.91,4714.4297,N,00131.7925,W,1,03,16.3,00042,M,,,,*0B
$GPRMC,061156.91,A,4714.4297,N,00131.7925,W,16.6,303.3,120917,01,W*40
$GPGSA,M,2,25,31,29,,,,,,,,,,16.3,16.3,*1F
$GPGSV,3,1,10,29,75,060,39,31,64,276,42,25,47,091,44,26,28,289,44*7B
$GPGSV,3,2,10,21,23,172,,14,19,234,,02,17,041,,12,11,096,*7A
$GPGSV,3,3,10,32,08,219,,23,03,337,,124,31,151,,120,34,198,*7A
$GPGLL,4714.4320,N,00131.7976,W,061157.903,A*27
$GPGGA,061157.90,4714.4320,N,00131.7976,W,1,03,21.6,00042,M,,,,*01
$GPRMC,061157.90,A,4714.4320,N,00131.7976,W,13.2,304.4,120917,01,W*4A
$GPGSA,M,2,25,31,29,,,,,,,,,,21.6,21.6,*1F
$PMGNST,01.10,2,T,938,12.8,+01835,00*44
$GPGLL,4714.4339,N,00131.8012,W,061158.899,A*26
$GPGGA,061158.90,4714.4339,N,00131.8012,W,1,03,24.4,00042,M,,,,*05
$GPRMC,061158.90,A,4714.4339,N,00131.8012,W,09.8,313.3,120917,01,W*49
$GPGSA,M,2,31,25,29,,,,,,,,,,24.4,24.4,*1F
$GPGSV,3,1,10,29,75,060,36,31,64,276,40,25,47,091,38,26,28,289,44*7D
$GPGSV,3,2,10,21,23,172,,14,19,234,,02,17,041,,12,11,096,*7A
$GPGSV,3,3,10,32,08,219,,23,03,337,,124,31,151,,120,34,198,*7A
$GPGLL,4714.4354,N,00131.8034,W,061159.907,A*2E
$GPGGA,061159.91,4714.4354,N,00131.8034,W,1,03,19.4,00042,M,,,,*04
$GPRMC,061159.91,A,4714.4354,N,00131.8034,W,05.2,314.8,120917,01,W*4C
$GPGSA,M,2,31,25,29,,,,,,,,,,19.4,19.4,*1F
$PMGNST,01.10,2,T,938,12.8,+01834,00*45
$GPGLL,4714.4362,N,00131.8044,W,061200.903,A*27
$GPGGA,061200.90,4714.4362,N,00131.8044,W,1,03,18.5,00042,M,,,,*08
$GPRMC,061200.90,A,4714.4362,N,00131.8044,W,02.0,315.9,120917,01,W*45
$GPGSA,M,2,31,25,29,,,,,,,,,,18.5,18.5,*1F
$GPGSV,3,1,10,29,75,060,41,31,64,276,42,25,47,091,41,26,28,289,36*74
$GPGSV,3,2,10,21,23,172,,14,19,234,,02,17,041,,12,11,096,*7A
$GPGSV,3,3,10,32,08,219,,23,03,337,,124,31,151,,120,34,198,*7A
$GPGLL,4714.4363,N,00131.8046,W,061201.899,A*27
$GPGGA,061201.90,4714.4363,N,00131.8046,W,1,04,5.6,00042,M,,,,*32
$GPRMC,061201.90,A,4714.4363,N,00131.8046,W,00.0,000.0,120917,01,W*4B
$GPGSA,M,2,29,31,25,32,,,,,,,,,05.6,05.6,*1E
$PMGNST,01.10,2,T,938,12.8,+01834,00*45
$GPGLL,4714.4363,N,00131.8046,W,061202.907,A*22
$GPGGA,061202.91,4714.4363,N,00131.8046,W,1,04,5.5,00042,M,,,,*33
$GPRMC,061202.91,A,4714.4363,N,00131.8046,W,00.0,000.0,120917,01,W*49
$GPGSA,M,2,29,31,25,32,,,,,,,,,05.5,05.5,*1E
$GPGSV,3,1,10,29,75,060,43,31,64,276,41,25,47,091,38,26,28,289,36*7B
$GPGSV,3,2,10,21,23,172,,14,19,234,44,02,17,041,,12,11,096,*7A
$GPGSV,3,3,10,32,08,219,36,23,03,337,,124,31,151,,120,34,198,*7F
$GPGLL,4714.4363,N,00131.8046,W,061203.903,A*27
$GPGGA,061203.90,4714.4363,N,00131.8046,W,1,04,5.2,00042,M,,,,*34
$GPRMC,061203.90,A,4714.4363,N,00131.8046,W,00.0,000.0,120917,01,W*49
$GPGSA,M,2,31,29,25,32,,,,,,,,,05.2,05.2,*1E
$PMGNST,01.10,2,T,938,12.8,+01833,00*42
$GPGLL,4714.4363,N,00131.8046,W,061204.899,A*22
$GPGGA,061204.90,4714.4363,N,00131.8046,W,1,04,5.1,00042,M,,,,*30
$GPRMC,061204.90,A,4714.4363,N,00131.8046,W,00.0,000.0,120917,01,W*4E
$GPGSA,M,2,31,29,25,32,,,,,,,,,05.1,05.1,*1E
$GPGSV,3,1,10,29,75,060,43,31,64,276,44,25,47,091,38,26,28,289,36*7E
$GPGSV,3,2,10,21,23,172,,14,19,234,43,02,17,041,,12,11,096,*7D
$GPGSV,3,3,10,32,08,219,36,23,03,337,,124,31,151,,120,34,198,*7F
$GPGLL,4714.4363,N,00131.8046,W,061205.895,A*2F
$GPGGA,061205.89,4714.4363,N,00131.8046,W,1,04,5.1,00042,M,,,,*39
$GPRMC,061205.89,A,4714.4363,N,00131.8046,W,00.0,000.0,120917,01,W*47
$GPGSA,M,2,31,29,25,32,,,,,,,,,05.1,05.1,*1E
$PMGNST,01.10,2,T,938,12.8,+01833,00*42
$GPGLL,4714.4366,N,00131.8050,W,061206.903,A*20
$GPGGA,061206.90,4714.4366,N,00131.8050,W,1,04,5.0,00042,M,,,,*31
$GPRMC,061206.90,A,4714.4366,N,00131.8050,W,02.6,316.9,120917,01,W*47
$GPGSA,M,2,31,29,25,32,,,,,,,,,05.0,05.0,*1E
$GPGSV,3,1,10,29,75,060,44,31,64,276,44,25,47,091,40,26,28,289,36*76
$GPGSV,3,2,10,21,23,172,,14,19,234,39,02,17,041,,12,11,096,*70
$GPGSV,3,3,10,32,08,219,36,23,03,337,,124,31,151,,120,34,198,*7F
$GPGLL,4714.4375,N,00131.8058,W,061207.899,A*29
$GPGGA,061207.90,4714.4375,N,00131.8058,W,1,03,13.4,00042,M,,,,*0E
$GPRMC,061207.90,A,4714.4375,N,00131.8058,W,04.8,319.7,120917,01,W*45
$GPGSA,M,2,31,29,25,,,,,,,,,,13.4,13.4,*1F
$PMGNST,01.10,2,T,938,12.8,+01834,00*45
$GPGLL,4714.4390,N,00131.8067,W,061208.907,A*27
$GPGGA,061208.91,4714.4390,N,00131.8067,W,1,03,9.7,00042,M,,,,*3F
$GPRMC,061208.91,A,4714.4390,N,00131.8067,W,07.6,330.7,120917,01,W*4A
$GPGSA,M,2,29,31,25,,,,,,,,,,09.7,09.7,*1F
$GPGSV,3,1,10,29,75,060,48,31,64,276,43,25,47,091,42,26,28,289,41*7F
$GPGSV,3,2,10,21,23,172,,14,19,234,41,02,17,041,,12,11,096,*7F
$GPGSV,3,3,10,32,08,219,,23,03,337,,124,31,151,,120,34,198,*7A
$GPGLL,4714.4412,N,00131.8070,W,061209.903,A*29
$GPGGA,061209.90,4714.4412,N,00131.8070,W,1,03,9.1,00042,M,,,,*32
$GPRMC,061209.90,A,4714.4412,N,00131.8070,W,08.5,344.8,120917,01,W*41
$GPGSA,M,2,29,31,25,,,,,,,,,,09.1,09.1,*1F
$PMGNST,01.10,2,T,938,12.8,+01833,00*42
$GPGLL,4714.4435,N,00131.8063,W,061210.899,A*24
$GPGGA,061210.90,4714.4435,N,00131.8063,W,1,03,13.1,00042,M,,,,*06
$GPRMC,061210.90,A,4714.4435,N,00131.8063,W,08.8,359.0,120917,01,W*47
$GPGSA,M,2,25,29,31,,,,,,,,,,13.1,13.1,*1F
$GPGSV,3,1,10,29,75,060,47,31,64,276,38,25,47,091,48,26,28,289,36*76
$GPGSV,3,2,10,21,23,172,,14,19,234,38,02,17,041,,12,11,096,*71
$GPGSV,3,3,10,32,08,219,,23,03,337,,124,31,151,,120,34,198,*7A
$GPGLL,4714.4457,N,00131.8049,W,061211.907,A*2F
$GPGGA,061211.91,4714.4457,N,00131.8049,W,1,03,11.8,00042,M,,,,*01
$GPRMC,061211.91,A,4714.4457,N,00131.8049,W,08.4,011.8,120917,01,W*40
$GPGSA,M,2,25,29,31,,,,,,,,,,11.8,11.8,*1F
$PMGNST,01.10,2,T,938,12.8,+01834,00*45
$GPGLL,4714.4484,N,00131.8027,W,061212.903,A*2E
$GPGGA,061212.90,4714.4484,N,00131.8027,W,1,03,13.6,00042,M,,,,*09
$GPRMC,061212.90,A,4714.4484,N,00131.8027,W,14.2,022.7,120917,01,W*40
$GPGSA,M,2,31,29,25,,,,,,,,,,13.6,13.6,*1F
$GPGSV,3,1,10,29,75,060,45,31,64,276,46,25,47,091,40,26,28,289,*70
$GPGSV,3,2,10,21,23,172,,14,19,234,,02,17,041,,12,11,096,*7A
$GPGSV,3,3,10,32,08,219,,23,03,337,,124,31,151,,120,34,198,*7A
$GPGLL,4714.4517,N,00131.7994,W,061213.899,A*28
$GPGGA,061213.90,4714.4517,N,00131.7994,W,1,03,9.1,00042,M,,,,*31
$GPRMC,061213.90,A,4714.4517,N,00131.7994,W,14.4,033.6,120917,01,W*43
$GPGSA,M,2,25,31,29,,,,,,,,,,09.1,09.1,*1F
$PMGNST,01.10,2,T,938,12.8,+01832,00*43
$GPGLL,4714.4550,N,00131.7956,W,061214.907,A*24
$GPGGA,061214.91,4714.4550,N,00131.7956,W,1,03,9.1,00042,M,,,,*3A
$GPRMC,061214.91,A,4714.4550,N,00131.7956,W,16.1,037.3,120917,01,W*4E
$GPGSA,M,2,31,29,25,,,,,,,,,,09.1,09.1,*1F
$GPGSV,3,1,10,29,75,060,46,31,64,276,47,25,47,091,46,26,28,289,*74
$GPGSV,3,2,10,21,23,172,,14,19,234,,02,17,041,,12,11,096,*7A
$GPGSV,3,3,10,32,08,219,,23,03,337,,124,31,151,,120,34,198,*7A
$GPGLL,4714.4587,N,00131.7914,W,061215.903,A*2D
$GPGGA,061215.90,4714.4587,N,00131.7914,W,1,04,2.6,00042,M,,,,*3D
$GPRMC,061215.90,A,4714.4587,N,00131.7914,W,17.3,037.3,120917,01,W*41
$GPGSA,M,2,31,29,25,21,,,,,,,,,02.6,02.6,*1C
$PMGNST,01.10,2,T,938,12.8,+01833,00*42
$GPGLL,4714.4625,N,00131.7872,W,061216.899,A*26
$GPGGA,061216.90,4714.4625,N,00131.7872,W,1,04,3.2,00042,M,,,,*31
$GPRMC,061216.90,A,4714.4625,N,00131.7872,W,17.3,037.3,120917,01,W*48
$GPGSA,M,2,31,29,25,21,,,,,,,,,03.2,03.2,*1C
$GPGSV,3,1,10,29,75,060,45,31,64,276,48,25,47,091,44,26,28,289,*7A
$GPGSV,3,2,10,21,23,172,36,14,19,234,,02,17,041,46,12,11,096,*7D
$GPGSV,3,3,10,32,08,219,36,23,03,337,,124,31,151,,120,34,198,*7F
$GPGLL,4714.4663,N,00131.7828,W,061217.907,A*2C
$GPGGA,061217.91,4714.4663,N,00131.7828,W,1,05,2.6,00042,M,,,,*38
$GPRMC,061217.91,A,4714.4663,N,00131.7828,W,17.3,039.0,120917,01,W*48
$GPGSA,M,2,31,29,21,25,32,,,,,,,,02.6,02.6,*1D
$PMGNST,01.10,2,T,938,12.8,+01833,00*42
$GPGLL,4714.4701,N,00131.7785,W,061218.903,A*2A
$GPGGA,061218.90,4714.4701,N,00131.7785,W,1,05,2.5,00042,M,,,,*38
$GPRMC,061218.90,A,4714.4701,N,00131.7785,W,17.3,037.5,120917,01,W*40
$GPGSA,M,2,31,25,29,21,32,,,,,,,,02.5,02.5,*1D
$GPGSV,3,1,10,29,75,060,45,31,64,276,48,25,47,091,46,26,28,289,*78
$GPGSV,3,2,10,21,23,172,39,14,19,234,,02,17,041,38,12,11,096,*7B
$GPGSV,3,3,10,32,08,219,36,23,03,337,,124,31,151,,120,34,198,*7F
$GPGLL,4714.4740,N,00131.7741,W,061219.899,A*24
$GPGGA,061219.90,4714.4740,N,00131.7741,W,1,04,4.9,00042,M,,,,*3F
$GPRMC,061219.90,A,4714.4740,N,00131.7741,W,18.4,037.9,120917,01,W*48
$GPGSA,M,2,31,29,25,32,,,,,,,,,04.9,04.9,*1E
$PMGNST,01.10,2,T,938,12.8,+01832,00*43
$GPGLL,4714.4785,N,00131.7694,W,061220.907,A*28
$GPGGA,061220.91,4714.4785,N,00131.7694,W,1,03,13.6,00042,M,,,,*0A
$GPRMC,061220.91,A,4714.4785,N,00131.7694,W,21.3,031.7,120917,01,W*46
$GPGSA,M,2,31,29,25,,,,,,,,,,13.6,13.6,*1F
$GPGSV,3,1,10,29,75,060,45,31,64,276,49,25,47,091,42,26,28,289,*7D
$GPGSV,3,2,10,21,23,172,36,14,19,234,,02,17,041,45,12,11,096,*7E
$GPGSV,3,3,10,32,08,219,36,23,03,337,,124,31,151,,120,34,198,*7F
$GPGLL,4714.4832,N,00131.7647,W,061221.903,A*20
$GPGGA,061221.90,4714.4832,N,00131.7647,W,1,03,12.2,00042,M,,,,*02
$GPRMC,061221.90,A,4714.4832,N,00131.7647,W,19.9,037.5,120917,01,W*4E
$GPGSA,M,2,31,25,29,,,,,,,,,,12.2,12.2,*1F
$PMGNST,01.10,2,T,938,12.8,+01832,00*43
$GPGLL,4714.4876,N,00131.7597,W,061222.899,A*2F
$GPGGA,061222.90,4714.4876,N,00131.7597,W,1,04,4.9,00042,M,,,,*34
$GPRMC,061222.90,A,4714.4876,N,00131.7597,W,20.4,038.0,120917,01,W*4E
$GPGSA,M,2,31,29,25,32,,,,,,,,,04.9,04.9,*1E
$GPGSV,3,1,10,29,75,060,45,31,64,276,50,25,47,091,44,26,28,289,*73
$GPGSV,3,2,10,21,23,172,,14,19,234,,02,17,041,36,12,11,096,*7F
$GPGSV,3,3,10,32,08,219,36,23,03,337,,124,31,151,,120,34,198,*7F
$GPGLL,4714.4921,N,00131.7544,W,061223.907,A*25
$GPGGA,061223.91,4714.4921,N,00131.7544,W,1,04,2.6,00042,M,,,,*30
$GPRMC,061223.91,A,4714.4921,N,00131.7544,W,20.9,038.5,120917,01,W*4B
$GPGSA,M,2,31,29,25,21,,,,,,,,,02.6,02.6,*1C
$PMGNST,01.10,2,T,938,12.8,+01832,00*43
$GPGLL,4714.4972,N,00131.7491,W,061224.903,A*29
$GPGGA,061224.90,4714.4972,N,00131.7491,W,1,03,13.9,00042,M,,,,*01
$GPRMC,061224.90,A,4714.4972,N,00131.7491,W,24.5,031.7,120917,01,W*41
$GPGSA,M,2,31,25,29,,,,,,,,,,13.9,13.9,*1F
$GPGSV,3,1,10,29,75,060,44,31,64,276,49,25,47,091,44,26,28,289,41*7F
$GPGSV,3,2,10,21,23,172,36,14,19,234,,02,17,041,44,12,11,096,*7F
$GPGSV,3,3,10,32,08,219,36,23,03,337,,124,31,151,,120,34,198,*7F
$GPGLL,4714.5022,N,00131.7439,W,061225.899,A*25
$GPGGA,061225.90,4714.5022,N,00131.7439,W,1,05,2.9,00042,M,,,,*39
$GPRMC,061225.90,A,4714.5022,N,00131.7439,W,20.0,039.1,120917,01,W*40
$GPGSA,M,2,31,25,29,21,32,,,,,,,,02.9,02.9,*1D
$PMGNST,01.10,2,T,938,12.8,+01832,00*43
$GPGLL,4714.5064,N,00131.7387,W,061226.907,A*20
$GPGGA,061226.91,4714.5064,N,00131.7387,W,1,03,11.8,00042,M,,,,*0E
$GPRMC,061226.91,A,4714.5064,N,00131.7387,W,19.4,040.2,120917,01,W*41
$GPGSA,M,2,31,25,29,,,,,,,,,,11.8,11.8,*1F
$GPGSV,3,1,10,29,75,060,45,31,64,276,49,25,47,091,46,26,28,289,41*7C
$GPGSV,3,2,10,21,23,172,36,14,19,234,,02,17,041,44,12,11,096,*7F
$GPGSV,3,3,10,32,08,219,,23,03,337,,124,31,151,,120,34,198,*7A
$GPGLL,4714.5103,N,00131.7338,W,061227.903,A*21
$GPGGA,061227.90,4714.5103,N,00131.7338,W,1,04,2.6,00042,M,,,,*31
$GPRMC,061227.90,A,4714.5103,N,00131.7338,W,18.0,041.3,120917,01,W*40
$GPGSA,M,2,31,25,29,21,,,,,,,,,02.6,02.6,*1C
$PMGNST,01.10,2,T,938,12.8,+01832,00*43
$GPGLL,4714.5139,N,00131.7291,W,061228.899,A*27
$GPGGA,061228.90,4714.5139,N,00131.7291,W,1,04,2.6,00042,M,,,,*35
$GPRMC,061228.90,A,4714.5139,N,00131.7291,W,17.0,040.4,120917,01,W*4D
$GPGSA,M,2,31,25,29,21,,,,,,,,,02.6,02.6,*1C
$GPGSV,3,1,10,29,75,060,45,31,64,276,50,25,47,091,47,26,28,289,42*76
$GPGSV,3,2,10,21,23,172,39,14,19,234,,02,17,041,44,12,11,096,*70
$GPGSV,3,3,10,32,08,219,,23,03,337,,124,31,151,,120,34,198,*7A
$GPGLL,4714.5174,N,00131.7248,W,061229.895,A*27
$GPRMC,061229.90,A,4714.5174,N,00131.7248,W,16.1,038.5,120917,01,W*4F
$GPGSA,M,2,31,25,29,,,,,,,,,,12.9,12.9,*1F
$PMGNST,01.10,2,T,938,12.8,+01832,00*43
$GPGLL,4714.5207,N,00131.7210,W,061230.903,A*2B
$GPGGA,061230.90,4714.5207,N,00131.7210,W,1,03,13.1,00042,M,,,,*0B
$GPRMC,061230.90,A,4714.5207,N,00131.7210,W,14.1,037.5,120917,01,W*40
$GPGSA,M,2,31,25,29,,,,,,,,,,13.1,13.1,*1F
$GPGSV,3,1,10,29,75,060,44,31,64,276,49,25,47,091,44,26,28,289,*7A
$GPGSV,3,2,10,21,23,172,,14,19,234,,02,17,041,44,12,11,096,*7A
$GPGSV,3,3,10,32,08,219,,23,03,337,,124,31,151,,120,34,198,*7A
$GPGLL,4714.5235,N,00131.7178,W,061231.899,A*24
$GPGGA,061231.90,4714.5235,N,00131.7178,W,1,03,14.1,00042,M,,,,*01
$GPRMC,061231.90,A,4714.5235,N,00131.7178,W,12.0,037.0,120917,01,W*4F
$GPGSA,M,2,31,29,25,,,,,,,,,,14.1,14.1,*1F
$PMGNST,01.10,2,T,938,12.8,+01832,00*43
$GPGLL,4714.5260,N,00131.7151,W,061232.895,A*20
$GPGGA,061232.90,4714.5260,N,00131.7151,W,1,03,13.6,00042,M,,,,*09
$GPRMC,061232.90,A,4714.5260,N,00131.7151,W,10.3,037.3,120917,01,W*45
$GPGSA,M,2,31,29,25,,,,,,,,,,13.6,13.6,*1F
$GPGSV,3,1,10,29,75,060,44,31,64,276,50,25,47,091,43,26,28,289,36*70
$GPGSV,3,2,10,21,23,172,,14,19,234,,02,17,041,45,12,11,096,*7B
$GPGSV,3,3,10,32,08,219,,23,03,337,,124,31,151,,120,34,198,*7A
$GPGLL,4714.5281,N,00131.7126,W,061233.903,A*20
$GPGGA,061233.90,4714.5281,N,00131.7126,W,1,03,12.9,00042,M,,,,*09
$GPRMC,061233.90,A,4714.5281,N,00131.7126,W,09.9,037.3,120917,01,W*49
$GPGSA,M,2,31,29,25,,,,,,,,,,12.9,12.9,*1F
$PMGNST,01.10,2,T,938,12.8,+01832,00*43
$GPGLL,4714.5302,N,00131.7103,W,061234.900,A*29
$GPGGA,061234.90,4714.5302,N,00131.7103,W,1,03,13.1,00042,M,,,,*0A
$GPRMC,061234.90,A,4714.5302,N,00131.7103,W,09.0,037.1,120917,01,W*48
$GPGSA,M,2,31,25,29,,,,,,,,,,13.1,13.1,*1F
$GPGSV,3,1,10,29,75,060,44,31,64,276,49,25,47,091,45,26,28,289,36*7E
$GPGSV,3,2,10,21,23,172,,14,19,234,,02,17,041,46,12,11,096,*78
$GPGSV,3,3,10,32,08,219,,23,03,337,,124,31,151,,120,34,198,*7A
$GPGLL,4714.5321,N,00131.7081,W,061235.896,A*2C
$GPGGA,061235.90,4714.5321,N,00131.7081,W,1,03,12.5,00042,M,,,,*04
$GPRMC,061235.90,A,4714.5321,N,00131.7081,W,08.7,037.4,120917,01,W*40
$GPGSA,M,2,31,29,25,,,,,,,,,,12.5,12.5,*1F
$PMGNST,01.10,2,T,938,12.8,+01832,00*43
$GPGLL,4714.5339,N,00131.7058,W,061236.904,A*28
$GPGGA,061236.90,4714.5339,N,00131.7058,W,1,03,13.0,00042,M,,,,*0E
$GPRMC,061236.90,A,4714.5339,N,00131.7058,W,08.9,038.1,120917,01,W*4A
$GPGSA,M,2,31,29,25,,,,,,,,,,13.0,13.0,*1F
$GPGSV,3,1,10,29,75,060,44,31,64,276,50,25,47,091,44,26,28,289,*72
$GPGSV,3,2,10,21,23,172,,14,19,234,,02,17,041,45,12,11,096,*7B
$GPGSV,3,3,10,32,08,219,,23,03,337,,124,31,151,,120,34,198,*7A
$GPGLL,4714.5358,N,00131.7035,W,061237.900,A*21
$GPGGA,061237.90,4714.5358,N,00131.7035,W,1,03,13.4,00042,M,,,,*07
$GPRMC,061237.90,A,4714.5358,N,00131.7035,W,09.3,038.7,120917,01,W*4A
$GPGSA,M,2,31,29,25,,,,,,,,,,13.4,13.4,*1F
$PMGNST,01.10,2,T,938,12.8,+01832,00*43
$GPGLL,4714.5378,N,00131.7009,W,061238.896,A*2D
$GPGGA,061238.90,4714.5378,N,00131.7009,W,1,03,12.5,00042,M,,,,*05
$GPRMC,061238.90,A,4714.5378,N,00131.7009,W,10.1,040.5,120917,01,W*4F
$GPGSA,M,2,31,25,29,,,,,,,,,,12.5,12.5,*1F
$GPGSV,3,1,10,29,75,060,45,31,64,276,51,25,47,091,45,26,28,289,41*76
$GPGSV,3,2,10,21,23,172,,14,19,234,,02,17,041,44,12,11,096,*7A
$GPGSV,3,3,10,32,08,219,,23,03,337,,124,31,151,,120,34,198,*7A
$GPGLL,4714.5400,N,00131.6980,W,061239.904,A*27
$GPGGA,061239.90,4714.5400,N,00131.6980,W,1,03,11.5,00042,M,,,,*06
$GPRMC,061239.90,A,4714.5400,N,00131.6980,W,11.2,042.7,120917,01,W*4D
$GPGSA,M,2,31,25,29,,,,,,,,,,11.5,11.5,*1F
$PMGNST,01.10,2,T,938,12.8,+01832,00*43
$GPGLL,4714.5423,N,00131.6947,W,061240.900,A*27
$GPGGA,061240.90,4714.5423,N,00131.6947,W,1,03,8.8,00042,M,,,,*37
$GPRMC,061240.90,A,4714.5423,N,00131.6947,W,12.3,042.5,120917,01,W*49
$GPGSA,M,2,31,25,29,,,,,,,,,,08.8,08.8,*1F
$GPGSV,3,1,10,29,75,060,46,31,64,276,50,25,47,091,46,26,28,289,42*74
$GPGSV,3,2,10,21,23,172,38,14,19,234,,02,17,041,42,12,11,096,*77
$GPGSV,3,3,10,32,08,219,,23,03,337,,124,31,151,,120,34,198,*7A
$GPGLL,4714.5450,N,00131.6913,W,061241.896,A*2D
$GPGGA,061241.90,4714.5450,N,00131.6913,W,1,04,2.5,00042,M,,,,*33
$GPRMC,061241.90,A,4714.5450,N,00131.6913,W,13.3,039.7,120917,01,W*42
$GPGSA,M,2,31,29,25,21,,,,,,,,,02.5,02.5,*1C
$PMGNST,01.10,2,T,938,12.8,+01832,00*43
$GPGLL,4714.5480,N,00131.6878,W,061242.904,A*25
$GPGGA,061242.90,4714.5480,N,00131.6878,W,1,04,2.5,00042,M,,,,*31
$GPRMC,061242.90,A,4714.5480,N,00131.6878,W,14.3,037.9,120917,01,W*47
$GPGSA,M,2,31,29,25,21,,,,,,,,,02.5,02.5,*1C
$GPGSV,3,1,10,29,75,060,45,31,64,276,49,25,47,091,45,26,28,289,42*7C
$GPGSV,3,2,10,21,23,172,40,14,19,234,,02,17,041,45,12,11,096,*7F
$GPGSV,3,3,10,32,08,219,36,23,03,337,,124,31,151,,120,34,198,*7F
$GPGLL,4714.5511,N,00131.6841,W,061243.900,A*23
$GPGGA,061243.90,4714.5511,N,00131.6841,W,1,05,2.5,00042,M,,,,*32
$GPRMC,061243.90,A,4714.5511,N,00131.6841,W,15.0,038.8,120917,01,W*49
$GPGSA,M,2,31,25,29,21,32,,,,,,,,02.5,02.5,*1D
$PMGNST,01.10,2,T,938,12.8,+01831,00*40
$GPGLL,4714.5544,N,00131.6802,W,061244.896,A*2D
$GPGGA,061244.90,4714.5544,N,00131.6802,W,1,05,2.5,00042,M,,,,*32
$GPRMC,061244.90,A,4714.5544,N,00131.6802,W,15.7,038.1,120917,01,W*47
$GPGSA,M,2,31,25,29,21,32,,,,,,,,02.5,02.5,*1D
$GPGSV,3,1,10,29,75,060,45,31,64,276,49,25,47,091,46,26,28,289,39*73
$GPGSV,3,2,10,21,23,172,39,14,19,234,,02,17,041,45,12,11,096,*71
$GPGSV,3,3,10,32,08,219,36,23,03,337,,124,31,151,,120,34,198,*7F
$GPGLL,4714.5580,N,00131.6762,W,061245.904,A*27
$GPGGA,061245.90,4714.5580,N,00131.6762,W,1,05,2.5,00042,M,,,,*32
$GPRMC,061245.90,A,4714.5580,N,00131.6762,W,16.4,037.5,120917,01,W*4C
$GPGSA,M,2,31,25,29,21,32,,,,,,,,02.5,02.5,*1D
$PMGNST,01.10,2,T,938,12.8,+01832,00*43
$GPGLL,4714.5617,N,00131.6720,W,061246.900,A*2B
$GPGGA,061246.90,4714.5617,N,00131.6720,W,1,05,2.5,00042,M,,,,*3A
$GPRMC,061246.90,A,4714.5617,N,00131.6720,W,16.9,037.5,120917,01,W*49
$GPGSA,M,2,31,25,29,21,32,,,,,,,,02.5,02.5,*1D
$GPGSV,3,1,10,29,75,060,44,31,64,276,49,25,47,091,45,26,28,289,40*7F
$GPGSV,3,2,10,21,23,172,38,14,19,234,,02,17,041,44,12,11,096,*71
$GPGSV,3,3,10,32,08,219,36,23,03,337,,124,31,151,,120,34,198,*7F
$GPGLL,4714.5654,N,00131.6678,W,061247.896,A*2F
$GPGGA,061247.90,4714.5654,N,00131.6678,W,1,05,2.5,00042,M,,,,*30
$GPRMC,061247.90,A,4714.5654,N,00131.6678,W,17.2,038.1,120917,01,W*42
$GPGSA,M,2,31,25,29,21,32,,,,,,,,02.5,02.5,*1D
$PMGNST,01.10,2,T,938,12.8,+01832,00*43
$GPGLL,4714.5691,N,00131.6634,W,061248.904,A*2B
$GPGGA,061248.90,4714.5691,N,00131.6634,W,1,05,2.6,00042,M,,,,*3D
$GPRMC,061248.90,A,4714.5691,N,00131.6634,W,17.3,038.8,120917,01,W*44
$GPGSA,M,2,31,29,25,21,32,,,,,,,,02.6,02.6,*1D
$GPGSV,3,1,10,29,75,060,44,31,64,276,49,25,47,091,44,26,28,289,*7A
$GPGSV,3,2,10,21,23,172,39,14,19,234,,02,17,041,44,12,11,096,*70
$GPGSV,3,3,10,32,08,219,36,23,03,337,,124,31,151,,120,34,198,*7F
$GPGLL,4714.5728,N,00131.6591,W,061249.900,A*21
$GPGGA,061249.90,4714.5728,N,00131.6591,W,1,05,2.5,00042,M,,,,*30
$GPRMC,061249.90,A,4714.5728,N,00131.6591,W,16.8,039.1,120917,01,W*48
$GPGSA,M,2,31,25,29,21,32,,,,,,,,02.5,02.5,*1D
$PMGNST,01.10,2,T,938,12.8,+01832,00*43
$GPGLL,4714.5764,N,00131.6549,W,061250.896,A*2A
$GPGGA,061250.90,4714.5764,N,00131.6549,W,1,04,2.6,00042,M,,,,*37
$GPRMC,061250.90,A,4714.5764,N,00131.6549,W,15.7,039.7,120917,01,W*47
$GPGSA,M,2,31,25,29,21,,,,,,,,,02.6,02.6,*1C
$GPGSV,3,1,10,29,74,059,45,31,65,274,49,25,46,092,47,26,29,289,*73
$GPGSV,3,2,10,21,24,171,39,14,18,234,,02,17,041,42,12,11,097,*72
$GPGSV,3,3,10,32,07,219,,16,03,283,,124,31,151,,120,34,198,*7D
$GPGLL,4714.5797,N,00131.6509,W,061251.904,A*29
$GPGGA,061251.90,4714.5797,N,00131.6509,W,1,04,2.6,00042,M,,,,*3E
$GPRMC,061251.90,A,4714.5797,N,00131.6509,W,14.3,041.5,120917,01,W*46
$GPGSA,M,2,31,25,29,21,,,,,,,,,02.6,02.6,*1C
$PMGNST,01.10,2,T,938,12.8,+01832,00*43
$GPGLL,4714.5821,N,00131.6469,W,061252.900,A*2B
$GPGGA,061252.90,4714.5821,N,00131.6469,W,1,03,10.6,00042,M,,,,*0C
$GPRMC,061252.90,A,4714.5821,N,00131.6469,W,11.8,056.6,120917,01,W*4B
$GPGSA,M,2,25,29,31,,,,,,,,,,10.6,10.6,*1F
$GPGSV,3,1,10,29,74,059,46,31,65,274,45,25,46,092,48,26,29,289,*73
$GPGSV,3,2,10,21,24,171,,14,18,234,,02,17,041,44,12,11,097,*7E
$GPGSV,3,3,10,32,07,219,,16,03,283,,124,31,151,,120,34,198,*7D
$GPGLL,4714.5838,N,00131.6429,W,061253.896,A*28
$GPRMC,061253.90,A,4714.5838,N,00131.6429,W,11.5,058.3,120917,01,W*40
$GPGSA,M,2,25,31,29,,,,,,,,,,13.4,13.4,*1F
$PMGNST,01.10,2,T,938,12.8,+01833,00*42
$GPGLL,4714.5858,N,00131.6392,W,061254.904,A*24
$GPGGA,061254.90,4714.5858,N,00131.6392,W,1,03,13.3,00042,M,,,,*01
$GPRMC,061254.90,A,4714.5858,N,00131.6392,W,12.0,046.4,120917,01,W*48
$GPGSA,M,2,25,31,29,,,,,,,,,,13.3,13.3,*1F
$GPGSV,3,1,10,29,74,059,41,31,65,274,44,25,46,092,48,26,29,289,*75
$GPGSV,3,2,10,21,24,171,,14,18,234,,02,17,041,40,12,11,097,*7A
$GPGSV,3,3,10,32,07,219,,16,03,283,,124,31,151,,120,34,198,*7D
$GPGLL,4714.5887,N,00131.6365,W,061255.900,A*2B
$GPGGA,061255.90,4714.5887,N,00131.6365,W,1,05,2.2,00042,M,,,,*3D
$GPRMC,061255.90,A,4714.5887,N,00131.6365,W,12.9,027.1,120917,01,W*48
$GPGSA,M,2,25,02,31,21,29,,,,,,,,02.2,02.2,*1E
$PMGNST,01.10,2,T,938,12.8,+01833,00*42
$GPGLL,4714.5922,N,00131.6343,W,061256.896,A*2C
$GPGGA,061256.90,4714.5922,N,00131.6343,W,1,05,2.2,00042,M,,,,*34
$GPRMC,061256.90,A,4714.5922,N,00131.6343,W,13.7,024.3,120917,01,W*4F
$GPGSA,M,2,25,02,31,21,29,,,,,,,,02.2,02.2,*1E
