20170922 Sortie Arzal / Le Crouesty et retour
partie 1/2

$GPGLL,4727.916,N,00237.357,W,105236,A,A*4E
$IIDBT,0025.7,f,0007.8,M,,*76
$IIVLW,0088.0,N,088.65,N*4E
$IIVHW,,,268.,M,01.44,N,02.66,K*10
$IIMWV,283,R,03.3,N,A*1A
$IIVWR,077.,L,03.3,N,01.7,M,006.1,K*66
$IIMWD,,,165.,M,03.2,N,01.6,M*0A
$IIMTA,21.7,C*01
$IIMTW,18.7,C*1D
$IIVWT,102.,L,03.2,N,01.6,M,005.9,K*68
$IIHDG,268.,,,,*75
$IIHDM,268.,M*1E
$IIGLL,4727.916,N,00237.357,W,105236,A,A*4E
$IIZDA,105236,07,07,2017,,*58
$IIVTG,270.,T,,M,03.3,N,06.1,K,A*28
$IIDPT,0007.8,,*7D
$IIDBT,0025.7,f,0007.8,M,,*76
$IIVLW,0088.0,N,088.65,N*4E
$IIVHW,,,268.,M,01.45,N,02.68,K*1F
$IIMWV,284,R,03.3,N,A*1D
$IIVWR,076.,L,03.3,N,01.7,M,006.1,K*67
$IIMWD,,,166.,M,03.2,N,01.6,M*09
$IIMTA,21.7,C*01
$IIMTW,18.7,C*1D
$IIVWT,102.,L,03.2,N,01.6,M,005.9,K*68
$IIHDG,268.,,,,*75
$IIHDM,268.,M*1E
$IIGLL,4727.915,N,00237.362,W,105238,A,A*45
$IIZDA,105238,07,07,2017,,*56
$IIVTG,270.,T,,M,03.3,N,06.1,K,A*28
$IIDPT,0007.8,,*7D
$IIDBT,0025.7,f,0007.8,M,,*76
$IIVLW,0088.0,N,088.65,N*4E
$IIVHW,,,268.,M,01.46,N,02.71,K*14
$IIMWV,284,R,03.3,N,A*1D
$IIVWR,076.,L,03.3,N,01.7,M,006.1,K*67
$IIMWD,,,167.,M,03.2,N,01.6,M*08
$IIMTA,21.7,C*01
$IIMTW,18.7,C*1D
$IIVWT,102.,L,03.2,N,01.6,M,005.9,K*68
$IIHDG,268.,,,,*75
$IIHDM,267.,M*11
$IIGLL,4727.915,N,00237.362,W,105238,A,A*45
$IIZDA,105238,07,07,2017,,*56
$IIVTG,266.,T,,M,03.2,N,05.9,K,A*25
$IIDPT,0007.9,,*7C
$IIDBT,0026.0,f,0007.9,M,,*73
$IIVLW,0088.0,N,088.65,N*4E
$IIVHW,,,268.,M,01.49,N,02.75,K*1F
$IIMWV,287,R,03.3,N,A*1E
$IIVWR,073.,L,03.3,N,01.7,M,006.1,K*62
$IIMWD,,,169.,M,03.1,N,01.6,M*05
$IIMTA,21.7,C*01
$IIMTW,18.8,C*12
$IIVWT,099.,L,03.1,N,01.6,M,005.7,K*66
$IIHDG,268.,,,,*75
$IIHDM,268.,M*1E
$IIGLL,4727.915,N,00237.365,W,105240,A,A*4D
$IIZDA,105240,07,07,2017,,*59
$IIVTG,266.,T,,M,03.2,N,05.9,K,A*25
$IIDPT,0007.8,,*7D
$IIDBT,0025.7,f,0007.8,M,,*76
$IIVLW,0088.0,N,088.65,N*4E
$IIVHW,,,268.,M,01.50,N,02.78,K*1A
$IIMWV,288,R,03.3,N,A*11
$IIVWR,072.,L,03.3,N,01.7,M,006.1,K*63
$IIMWD,,,169.,M,03.1,N,01.6,M*05
$IIMTA,21.7,C*01
$IIMTW,18.7,C*1D
$IIVWT,099.,L,03.1,N,01.6,M,005.7,K*66
$IIHDG,268.,,,,*75
$IIHDM,268.,M*1E
$IIGLL,4727.915,N,00237.365,W,105240,A,A*4D
$IIZDA,105240,07,07,2017,,*59
$IIVTG,264.,T,,M,03.2,N,05.9,K,A*27
$IIDPT,0007.8,,*7D
$IIDBT,0025.7,f,0007.8,M,,*76
$IIVLW,0088.0,N,088.65,N*4E
$IIVHW,,,268.,M,01.49,N,02.76,K*1C
$IIMWV,289,R,03.3,N,A*10
$IIVWR,071.,L,03.3,N,01.7,M,006.1,K*60
$IIMWD,,,169.,M,03.1,N,01.6,M*05
$IIMTA,21.7,C*01
$IIMTW,18.7,C*1D
$IIVWT,099.,L,03.1,N,01.6,M,005.7,K*66
$IIHDG,268.,,,,*75
$IIHDM,268.,M*1E
$IIGLL,4727.915,N,00237.368,W,105242,A,A*42
$IIZDA,105242,07,07,2017,,*5B
$IIVTG,268.,T,,M,03.2,N,05.9,K,A*2B
$IIDPT,0007.8,,*7D
$IIDBT,0025.7,f,0007.8,M,,*76
$IIVLW,0088.0,N,088.65,N*4E
$IIVHW,,,268.,M,01.50,N,02.77,K*15
$IIMWV,289,R,03.3,N,A*10
$IIVWR,071.,L,03.3,N,01.7,M,006.1,K*60
$IIMWD,,,170.,M,03.1,N,01.6,M*0D
$IIMTA,21.7,C*01
$IIMTW,18.7,C*1D
$IIVWT,098.,L,03.1,N,01.6,M,005.7,K*67
$IIHDG,268.,,,,*75
$IIHDM,268.,M*1E
$IIGLL,4727.915,N,00237.368,W,105242,A,A*42
$IIZDA,105242,07,07,2017,,*5B
$IIVTG,268.,T,,M,03.3,N,06.1,K,A*21
$IIDPT,0007.8,,*7D
$IIDBT,0025.7,f,0007.8,M,,*76
$IIVLW,0088.0,N,088.65,N*4E
$IIVHW,,,268.,M,01.47,N,02.73,K*17
$IIMWV,289,R,03.3,N,A*10
$IIVWR,071.,L,03.3,N,01.7,M,006.1,K*60
$IIMWD,,,171.,M,03.1,N,01.6,M*0C
$IIMTA,21.7,C*01
$IIMTW,18.7,C*1D
$IIVWT,097.,L,03.1,N,01.6,M,005.7,K*68
$IIHDG,268.,,,,*75
$IIHDM,268.,M*1E
$IIGLL,4727.915,N,00237.370,W,105244,A,A*4D
$IIZDA,105244,07,07,2017,,*5D
$IIVTG,267.,T,,M,03.2,N,05.9,K,A*24
$IIDPT,0007.8,,*7D
$IIDBT,0025.7,f,0007.8,M,,*76
$IIVLW,0088.0,N,088.65,N*4E
$IIVHW,,,268.,M,01.48,N,02.74,K*1F
$IIMWV,289,R,03.3,N,A*10
$IIVWR,071.,L,03.3,N,01.7,M,006.1,K*60
$IIMWD,,,171.,M,03.1,N,01.6,M*0C
$IIMTA,21.7,C*01
$IIMTW,18.7,C*1D
$IIVWT,097.,L,03.1,N,01.6,M,005.7,K*68
$IIHDG,268.,,,,*75
$IIHDM,268.,M*1E
$IIGLL,4727.915,N,00237.370,W,105246,A,A*4F
$IIZDA,105246,07,07,2017,,*5F
$IIVTG,267.,T,,M,03.2,N,05.9,K,A*24
$IIDPT,0007.8,,*7D
$IIDBT,0025.7,f,0007.8,M,,*76
$IIVLW,0088.0,N,088.65,N*4E
$IIVHW,,,268.,M,01.50,N,02.78,K*1A
$IIMWV,287,R,03.2,N,A*1F
$IIVWR,073.,L,03.2,N,01.6,M,005.9,K*69
$IIMWD,,,171.,M,03.1,N,01.6,M*0C
$IIMTA,21.7,C*01
$IIMTW,18.7,C*1D
$IIVWT,097.,L,03.1,N,01.6,M,005.7,K*68
$IIHDG,268.,,,,*75
$IIHDM,268.,M*1E
$IIGLL,4727.915,N,00237.373,W,105246,A,A*4C
$IIZDA,105246,07,07,2017,,*5F
$IIVTG,267.,T,,M,03.2,N,05.9,K,A*24
$IIDPT,0007.9,,*7C
$IIDBT,0026.0,f,0007.9,M,,*73
$IIVLW,0088.0,N,088.65,N*4E
$IIVHW,,,268.,M,01.49,N,02.76,K*1C
$IIMWV,288,R,03.2,N,A*10
$IIVWR,072.,L,03.2,N,01.6,M,005.9,K*68
$IIMWD,,,168.,M,03.1,N,01.6,M*04
$IIMTA,21.7,C*01
$IIMTW,18.7,C*1D
$IIVWT,099.,L,03.0,N,01.5,M,005.6,K*65
$IIHDG,268.,,,,*75
$IIHDM,268.,M*1E
$IIGLL,4727.915,N,00237.373,W,105248,A,A*42
$IIZDA,105248,07,07,2017,,*51
$IIVTG,267.,T,,M,03.2,N,05.9,K,A*24
$IIDPT,0007.8,,*7D
$IIDBT,0025.7,f,0007.8,M,,*76
$IIVLW,0088.0,N,088.66,N*4D
$IIVHW,,,268.,M,01.49,N,02.75,K*1F
$IIMWV,288,R,03.2,N,A*10
$IIVWR,072.,L,03.2,N,01.6,M,005.9,K*68
$IIMWD,,,169.,M,03.0,N,01.5,M*07
$IIMTA,21.7,C*01
$IIMTW,18.7,C*1D
$IIVWT,099.,L,03.0,N,01.5,M,005.6,K*65
$IIHDG,268.,,,,*75
$IIHDM,268.,M*1E
$IIGLL,4727.915,N,00237.373,W,105248,A,A*42
$IIZDA,105248,07,07,2017,,*51
$IIVTG,268.,T,,M,03.1,N,05.8,K,A*29
$IIDPT,0007.8,,*7D
$IIDBT,0025.7,f,0007.8,M,,*76
$IIVLW,0088.0,N,088.66,N*4D
$IIVHW,,,268.,M,01.51,N,02.80,K*1C
$IIMWV,287,R,03.2,N,A*1F
$IIVWR,073.,L,03.2,N,01.6,M,005.9,K*69
$IIMWD,,,167.,M,03.1,N,01.6,M*0B
$IIMTA,21.7,C*01
$IIMTW,18.7,C*1D
$IIVWT,101.,L,03.1,N,01.6,M,005.7,K*66
$IIHDG,268.,,,,*75
$IIHDM,268.,M*1E
$IIGLL,4727.915,N,00237.378,W,105250,A,A*40
$IIZDA,105250,07,07,2017,,*58
$IIVTG,268.,T,,M,03.1,N,05.8,K,A*29
$IIDPT,0007.8,,*7D
$IIDBT,0025.7,f,0007.8,M,,*76
$IIVLW,0088.0,N,088.66,N*4D
$IIVHW,,,268.,M,01.51,N,02.80,K*1C
$IIMWV,287,R,03.2,N,A*1F
$IIVWR,073.,L,03.2,N,01.6,M,005.9,K*69
$IIMWD,,,167.,M,03.1,N,01.6,M*0B
$IIMTA,21.7,C*01
$IIMTW,18.7,C*1D
$IIVWT,102.,L,03.1,N,01.6,M,005.7,K*65
$IIHDG,268.,,,,*75
$IIHDM,268.,M*1E
$IIGLL,4727.915,N,00237.378,W,105250,A,A*40
$IIZDA,105250,07,07,2017,,*58
$IIVTG,269.,T,,M,03.2,N,05.9,K,A*2A
$IIDPT,0007.8,,*7D
$IIDBT,0025.7,f,0007.8,M,,*76
$IIVLW,0088.0,N,088.66,N*4D
$IIVHW,,,268.,M,01.50,N,02.78,K*1A
$IIMWV,286,R,03.2,N,A*1E
$IIVWR,074.,L,03.2,N,01.6,M,005.9,K*6E
$IIMWD,,,168.,M,03.1,N,01.6,M*04
$IIMTA,21.7,C*01
$IIMTW,18.7,C*1D
$IIVWT,100.,L,03.1,N,01.6,M,005.7,K*67
$IIHDG,267.,,,,*7A
$IIHDM,267.,M*11
$IIGLL,4727.915,N,00237.381,W,105252,A,A*44
$IIZDA,105252,07,07,2017,,*5A
$IIVTG,269.,T,,M,03.2,N,05.9,K,A*2A
$IIDPT,0007.8,,*7D
$IIDBT,0025.7,f,0007.8,M,,*76
$IIVLW,0088.0,N,088.66,N*4D
$IIVHW,,,267.,M,01.50,N,02.78,K*15
$IIMWV,285,R,03.2,N,A*1D
$IIVWR,075.,L,03.2,N,01.6,M,005.9,K*6F
$IIMWD,,,165.,M,03.1,N,01.6,M*09
$IIMTA,21.7,C*01
$IIMTW,18.7,C*1D
$IIVWT,102.,L,03.1,N,01.6,M,005.7,K*65
$IIHDG,268.,,,,*75
$IIHDM,268.,M*1E
$IIGLL,4727.915,N,00237.381,W,105252,A,A*44
$IIZDA,105252,07,07,2017,,*5A
$IIVTG,268.,T,,M,03.1,N,05.8,K,A*29
$IIDPT,0007.9,,*7C
$IIDBT,0025.7,f,0007.8,M,,*76
$IIVLW,0088.0,N,088.66,N*4D
$IIVHW,,,268.,M,01.50,N,02.77,K*15
$IIMWV,286,R,03.2,N,A*1E
$IIVWR,074.,L,03.2,N,01.6,M,005.9,K*6E
$IIMWD,,,167.,M,03.1,N,01.6,M*0B
$IIMTA,21.7,C*01
$IIMTW,18.7,C*1D
$IIVWT,101.,L,03.1,N,01.6,M,005.7,K*66
$IIHDG,268.,,,,*75
$IIHDM,268.,M*1E
$IIGLL,4727.915,N,00237.383,W,105254,A,A*40
$IIZDA,105254,07,07,2017,,*5C
$IIVTG,266.,T,,M,03.1,N,05.8,K,A*27
$IIDPT,0007.8,,*7D
$IIDBT,0025.7,f,0007.8,M,,*76
$IIVLW,0088.0,N,088.66,N*4D
$IIVHW,,,268.,M,01.53,N,02.83,K*1D
$IIMWV,283,R,03.2,N,A*1B
$IIVWR,077.,L,03.2,N,01.6,M,005.9,K*6D
$IIMWD,,,164.,M,03.1,N,01.6,M*08
$IIMTA,21.7,C*01
$IIMTW,18.7,C*1D
$IIVWT,104.,L,03.1,N,01.6,M,005.7,K*63
$IIHDG,268.,,,,*75
$IIHDM,268.,M*1E
$IIGLL,4727.915,N,00237.383,W,105254,A,A*40
$IIZDA,105254,07,07,2017,,*5C
$IIVTG,266.,T,,M,03.1,N,05.8,K,A*27
$IIDPT,0007.8,,*7D
$IIDBT,0025.7,f,0007.8,M,,*76
$IIVLW,0088.0,N,088.66,N*4D
$IIVHW,,,268.,M,01.53,N,02.84,K*1A
$IIMWV,283,R,03.2,N,A*1B
$IIVWR,077.,L,03.2,N,01.6,M,005.9,K*6D
$IIMWD,,,164.,M,03.2,N,01.6,M*0B
$IIMTA,21.7,C*01
$IIMTW,18.7,C*1D
$IIVWT,104.,L,03.2,N,01.6,M,005.9,K*6E
$IIHDG,268.,,,,*75
$IIHDM,268.,M*1E
$IIGLL,4727.915,N,00237.386,W,105256,A,A*47
$IIZDA,105256,07,07,2017,,*5E
$IIVTG,266.,T,,M,03.1,N,05.8,K,A*27
$IIDPT,0007.8,,*7D
$IIDBT,0025.7,f,0007.8,M,,*76
$IIVLW,0088.0,N,088.66,N*4D
$IIVHW,,,268.,M,01.52,N,02.82,K*1D
$IIMWV,283,R,03.2,N,A*1B
$IIVWR,077.,L,03.2,N,01.6,M,005.9,K*6D
$IIMWD,,,164.,M,03.1,N,01.6,M*08
$IIMTA,21.7,C*01
$IIMTW,18.7,C*1D
$IIVWT,104.,L,03.1,N,01.6,M,005.7,K*63
$IIHDG,268.,,,,*75
$IIHDM,268.,M*1E
$IIGLL,4727.915,N,00237.386,W,105258,A,A*49
$IIZDA,105258,07,07,2017,,*50
$IIVTG,266.,T,,M,03.1,N,05.8,K,A*27
$IIDPT,0007.8,,*7D
$IIDBT,0025.7,f,0007.8,M,,*76
$IIVLW,0088.0,N,088.66,N*4D
$IIVHW,,,268.,M,01.52,N,02.82,K*1D
$IIMWV,282,R,03.1,N,A*19
$IIVWR,078.,L,03.1,N,01.6,M,005.7,K*6F
$IIMWD,,,164.,M,03.2,N,01.6,M*0B
$IIMTA,21.7,C*01
$IIMTW,18.7,C*1D
$IIVWT,104.,L,03.2,N,01.6,M,005.9,K*6E
$IIHDG,268.,,,,*75
$IIHDM,268.,M*1E
$IIGLL,4727.915,N,00237.388,W,105258,A,A*47
$IIZDA,105258,07,07,2017,,*50
$IIVTG,267.,T,,M,03.0,N,05.6,K,A*29
$IIDPT,0007.8,,*7D
$IIDBT,0025.7,f,0007.8,M,,*76
$IIVLW,0088.0,N,088.66,N*4D
$IIVHW,,,268.,M,01.51,N,02.79,K*1A
$IIMWV,284,R,03.1,N,A*1F
$IIVWR,076.,L,03.1,N,01.6,M,005.7,K*61
$IIMWD,,,162.,M,03.1,N,01.6,M*0E
$IIMTA,21.7,C*01
$IIMTW,18.7,C*1D
$IIVWT,105.,L,03.1,N,01.6,M,005.7,K*62
$IIHDG,268.,,,,*75
$IIHDM,268.,M*1E
$IIGLL,4727.915,N,00237.388,W,105300,A,A*4B
$IIZDA,105300,07,07,2017,,*5C
$IIVTG,267.,T,,M,03.0,N,05.6,K,A*29
$IIDPT,0007.8,,*7D
$IIDBT,0025.7,f,0007.8,M,,*76
$IIVLW,0088.0,N,088.66,N*4D
$IIVHW,,,268.,M,01.50,N,02.78,K*1A
$IIMWV,281,R,03.1,N,A*1A
$IIVWR,079.,L,03.1,N,01.6,M,005.7,K*6E
$IIMWD,,,161.,M,03.1,N,01.6,M*0D
$IIMTA,21.7,C*01
$IIMTW,18.7,C*1D
$IIVWT,107.,L,03.1,N,01.6,M,005.7,K*60
$IIHDG,268.,,,,*75
$IIHDM,268.,M*1E
$IIGLL,4727.915,N,00237.391,W,105300,A,A*43
$IIZDA,105300,07,07,2017,,*5C
$IIVTG,265.,T,,M,03.2,N,05.9,K,A*26
$IIDPT,0007.9,,*7C
$IIDBT,0025.7,f,0007.8,M,,*76
$IIVLW,0088.0,N,088.66,N*4D
$IIVHW,,,268.,M,01.46,N,02.71,K*14
$IIMWV,282,R,03.1,N,A*19
$IIVWR,078.,L,03.1,N,01.6,M,005.7,K*6F
$IIMWD,,,163.,M,03.1,N,01.6,M*0F
$IIMTA,21.7,C*01
$IIMTW,18.8,C*12
$IIVWT,105.,L,03.1,N,01.6,M,005.7,K*62
$IIHDG,268.,,,,*75
$IIHDM,268.,M*1E
$IIGLL,4727.914,N,00237.393,W,105302,A,A*42
$IIZDA,105302,07,07,2017,,*5E
$IIVTG,265.,T,,M,03.2,N,05.9,K,A*26
$IIDPT,0007.8,,*7D
$IIDBT,0025.7,f,0007.8,M,,*76
$IIVLW,0088.0,N,088.66,N*4D
$IIVHW,,,268.,M,01.45,N,02.68,K*1F
$IIMWV,282,R,03.1,N,A*19
$IIVWR,078.,L,03.1,N,01.6,M,005.7,K*6F
$IIMWD,,,163.,M,03.1,N,01.6,M*0F
$IIMTA,21.7,C*01
$IIMTW,18.8,C*12
$IIVWT,105.,L,03.1,N,01.6,M,005.7,K*62
$IIHDG,268.,,,,*75
$IIHDM,268.,M*1E
$IIGLL,4727.914,N,00237.393,W,105302,A,A*42
$IIZDA,105302,07,07,2017,,*5E
$IIVTG,269.,T,,M,03.0,N,05.6,K,A*27
$IIDPT,0007.8,,*7D
$IIDBT,0025.7,f,0007.8,M,,*76
$IIVLW,0088.0,N,088.66,N*4D
$IIVHW,,,268.,M,01.42,N,02.63,K*13
$IIMWV,282,R,03.1,N,A*19
$IIVWR,078.,L,03.1,N,01.6,M,005.7,K*6F
$IIMWD,,,163.,M,03.1,N,01.6,M*0F
$IIMTA,21.7,C*01
$IIMTW,18.8,C*12
$IIVWT,105.,L,03.1,N,01.6,M,005.7,K*62
$IIHDG,268.,,,,*75
$IIHDM,268.,M*1E
$IIGLL,4727.914,N,00237.396,W,105304,A,A*41
$IIZDA,105304,07,07,2017,,*58
$IIVTG,269.,T,,M,03.0,N,05.6,K,A*27
$IIDPT,0007.8,,*7D
$IIDBT,0025.7,f,0007.8,M,,*76
$IIVLW,0088.0,N,088.66,N*4D
$IIVHW,,,268.,M,01.44,N,02.66,K*10
$IIMWV,282,R,03.1,N,A*19
$IIVWR,078.,L,03.1,N,01.6,M,005.7,K*6F
$IIMWD,,,164.,M,03.1,N,01.6,M*08
$IIMTA,21.7,C*01
$IIMTW,18.8,C*12
$IIVWT,104.,L,03.1,N,01.6,M,005.7,K*63
$IIHDG,268.,,,,*75
$IIHDM,268.,M*1E
$IIGLL,4727.914,N,00237.396,W,105304,A,A*41
$IIZDA,105304,07,07,2017,,*58
$IIVTG,266.,T,,M,03.1,N,05.8,K,A*27
$IIDPT,0007.9,,*7C
$IIDBT,0026.0,f,0007.9,M,,*73
$IIVLW,0088.0,N,088.66,N*4D
$IIVHW,,,268.,M,01.45,N,02.68,K*1F
$IIMWV,281,R,03.0,N,A*1B
$IIVWR,079.,L,03.0,N,01.5,M,005.6,K*6D
$IIMWD,,,161.,M,03.0,N,01.5,M*0F
$IIMTA,21.7,C*01
$IIMTW,18.7,C*1D
$IIVWT,107.,L,03.0,N,01.5,M,005.6,K*63
$IIHDG,269.,,,,*74
$IIHDM,269.,M*1F
$IIGLL,4727.914,N,00237.398,W,105306,A,A*4D
$IIZDA,105306,07,07,2017,,*5A
$IIVTG,270.,T,,M,03.0,N,05.6,K,A*2F
$IIDPT,0007.8,,*7D
$IIDBT,0025.7,f,0007.8,M,,*76
$IIVLW,0088.0,N,088.66,N*4D
$IIVHW,,,268.,M,01.43,N,02.64,K*15
$IIMWV,282,R,03.0,N,A*18
$IIVWR,078.,L,03.0,N,01.5,M,005.6,K*6C
$IIMWD,,,164.,M,03.0,N,01.5,M*0A
$IIMTA,21.7,C*01
$IIMTW,18.7,C*1D
$IIVWT,105.,L,03.0,N,01.5,M,005.6,K*61
$IIHDG,268.,,,,*75
$IIHDM,268.,M*1E
$IIGLL,4727.914,N,00237.398,W,105308,A,A*43
$IIZDA,105308,07,07,2017,,*54
$IIVTG,270.,T,,M,03.0,N,05.6,K,A*2F
$IIDPT,0007.8,,*7D
$IIDBT,0025.7,f,0007.8,M,,*76
$IIVLW,0088.0,N,088.66,N*4D
$IIVHW,,,269.,M,01.43,N,02.64,K*14
$IIMWV,279,R,03.0,N,A*1C
$IIVWR,081.,L,03.0,N,01.5,M,005.6,K*6A
$IIMWD,,,160.,M,03.1,N,01.6,M*0C
$IIMTA,21.7,C*01
$IIMTW,18.8,C*12
$IIVWT,108.,L,03.1,N,01.6,M,005.7,K*6F
$IIHDG,269.,,,,*74
$IIHDM,269.,M*1F
$IIGLL,4727.914,N,00237.401,W,105308,A,A*44
$IIZDA,105308,07,07,2017,,*54
$IIVTG,270.,T,,M,03.0,N,05.6,K,A*2F
$IIDPT,0007.8,,*7D
$IIDBT,0025.7,f,0007.8,M,,*76
$IIVLW,0088.0,N,088.66,N*4D
$IIVHW,,,268.,M,01.41,N,02.61,K*12
$IIMWV,280,R,03.0,N,A*1A
$IIVWR,080.,L,03.0,N,01.5,M,005.6,K*6B
$IIMWD,,,162.,M,03.1,N,01.6,M*0E
$IIMTA,21.7,C*01
$IIMTW,18.8,C*12
$IIVWT,107.,L,03.1,N,01.6,M,005.7,K*60
$IIHDG,268.,,,,*75
$IIHDM,268.,M*1E
$IIGLL,4727.914,N,00237.401,W,105310,A,A*4D
$IIZDA,105310,07,07,2017,,*5D
$IIVTG,270.,T,,M,03.0,N,05.6,K,A*2F
$IIDPT,0007.8,,*7D
$IIDBT,0025.7,f,0007.8,M,,*76
$IIVLW,0088.0,N,088.66,N*4D
$IIVHW,,,268.,M,01.43,N,02.64,K*15
$IIMWV,279,R,03.0,N,A*1C
$IIVWR,081.,L,03.0,N,01.5,M,005.6,K*6A
$IIMWD,,,161.,M,03.0,N,01.5,M*0F
$IIMTA,21.7,C*01
$IIMTW,18.7,C*1D
$IIVWT,107.,L,03.0,N,01.5,M,005.6,K*63
$IIHDG,268.,,,,*75
$IIHDM,268.,M*1E
$IIGLL,4727.914,N,00237.403,W,105310,A,A*4F
$IIZDA,105310,07,07,2017,,*5D
$IIVTG,264.,T,,M,03.2,N,05.9,K,A*27
$IIDPT,0007.9,,*7C
$IIDBT,0026.0,f,0007.9,M,,*73
$IIVLW,0088.0,N,088.66,N*4D
$IIVHW,,,268.,M,01.43,N,02.65,K*14
$IIMWV,281,R,03.0,N,A*1B
$IIVWR,079.,L,03.0,N,01.5,M,005.6,K*6D
$IIMWD,,,160.,M,03.1,N,01.6,M*0C
$IIMTA,21.7,C*01
$IIMTW,18.7,C*1D
$IIVWT,105.,L,03.0,N,01.5,M,005.6,K*61
$IIHDG,269.,,,,*74
$IIHDM,269.,M*1F
$IIGLL,4727.914,N,00237.403,W,105312,A,A*4D
$IIZDA,105312,07,07,2017,,*5F
$IIVTG,264.,T,,M,03.2,N,05.9,K,A*27
$IIDPT,0007.8,,*7D
$IIDBT,0025.7,f,0007.8,M,,*76
$IIVLW,0088.0,N,088.67,N*4C
$IIVHW,,,269.,M,01.41,N,02.62,K*10
$IIMWV,280,R,03.0,N,A*1A
$IIVWR,080.,L,03.0,N,01.5,M,005.6,K*6B
$IIMWD,,,162.,M,03.0,N,01.5,M*0C
$IIMTA,21.7,C*01
$IIMTW,18.7,C*1D
$IIVWT,107.,L,03.0,N,01.5,M,005.6,K*63
$IIHDG,269.,,,,*74
$IIHDM,269.,M*1F
$IIGLL,4727.914,N,00237.406,W,105312,A,A*48
$IIZDA,105312,07,07,2017,,*5F
$IIVTG,266.,T,,M,02.9,N,05.4,K,A*22
$IIDPT,0007.8,,*7D
$IIDBT,0025.7,f,0007.8,M,,*76
$IIVLW,0088.0,N,088.67,N*4C
$IIVHW,,,268.,M,01.40,N,02.60,K*12
$IIMWV,281,R,03.0,N,A*1B
$IIVWR,079.,L,03.0,N,01.5,M,005.6,K*6D
$IIMWD,,,162.,M,03.0,N,01.5,M*0C
$IIMTA,21.7,C*01
$IIMTW,18.7,C*1D
$IIVWT,106.,L,03.0,N,01.5,M,005.6,K*62
$IIHDG,268.,,,,*75
$IIHDM,268.,M*1E
$IIGLL,4727.914,N,00237.408,W,105314,A,A*40
$IIZDA,105314,07,07,2017,,*59
$IIVTG,266.,T,,M,03.1,N,05.8,K,A*27
$IIDPT,0007.8,,*7D
$IIDBT,0025.7,f,0007.8,M,,*76
$IIVLW,0088.0,N,088.67,N*4C
$IIVHW,,,268.,M,01.40,N,02.59,K*18
$IIMWV,281,R,03.0,N,A*1B
$IIVWR,079.,L,03.0,N,01.5,M,005.6,K*6D
$IIMWD,,,162.,M,03.0,N,01.5,M*0C
$IIMTA,21.7,C*01
$IIMTW,18.7,C*1D
$IIVWT,106.,L,03.0,N,01.5,M,005.6,K*62
$IIHDG,268.,,,,*75
$IIHDM,269.,M*1F
$IIGLL,4727.914,N,00237.408,W,105314,A,A*40
$IIZDA,105314,07,07,2017,,*59
$IIVTG,266.,T,,M,03.1,N,05.8,K,A*27
$IIDPT,0007.9,,*7C
$IIDBT,0026.0,f,0007.9,M,,*73
$IIVLW,0088.0,N,088.67,N*4C
$IIVHW,,,269.,M,01.36,N,02.52,K*13
$IIMWV,284,R,03.0,N,A*1E
$IIVWR,076.,L,03.0,N,01.5,M,005.6,K*62
$IIMTA,21.7,C*01
$IIMTW,18.7,C*1D
$IIVWT,103.,L,02.9,N,01.5,M,005.4,K*6D
$IIHDG,269.,,,,*74
$IIHDM,269.,M*1F
$IIGLL,4727.914,N,00237.411,W,105316,A,A*4A
$IIZDA,105316,07,07,2017,,*5B
$IIVTG,266.,T,,M,03.1,N,05.8,K,A*27
$IIDPT,0007.8,,*7D
$IIDBT,0025.7,f,0007.8,M,,*76
$IIVLW,0088.0,N,088.67,N*4C
$IIVHW,,,269.,M,01.34,N,02.48,K*1A
$IIMWV,283,R,03.0,N,A*19
$IIVWR,077.,L,03.0,N,01.5,M,005.6,K*63
$IIMWD,,,167.,M,02.9,N,01.5,M*01
$IIMTA,21.7,C*01
$IIMTW,18.7,C*1D
$IIVWT,102.,L,02.9,N,01.5,M,005.4,K*6C
$IIHDG,269.,,,,*74
$IIHDM,269.,M*1F
$IIGLL,4727.914,N,00237.411,W,105316,A,A*4A
$IIZDA,105316,07,07,2017,,*5B
$IIVTG,267.,T,,M,02.8,N,05.2,K,A*24
$IIDPT,0007.8,,*7D
$IIDBT,0025.7,f,0007.8,M,,*76
$IIVLW,0088.0,N,088.67,N*4C
$IIVHW,,,268.,M,01.33,N,02.46,K*12
$IIMWV,283,R,03.0,N,A*19
$IIVWR,077.,L,03.0,N,01.5,M,005.6,K*63
$IIMTA,21.7,C*01
$IIMTW,18.7,C*1D
$IIVWT,103.,L,02.9,N,01.5,M,005.4,K*6D
$IIHDG,269.,,,,*74
$IIHDM,269.,M*1F
$IIGLL,4727.914,N,00237.413,W,105318,A,A*46
$IIZDA,105318,07,07,2017,,*55
$IIVTG,269.,T,,M,03.0,N,05.6,K,A*27
$IIDPT,0007.8,,*7D
$IIDBT,0025.7,f,0007.8,M,,*76
$IIVLW,0088.0,N,088.67,N*4C
$IIVHW,,,269.,M,01.29,N,02.38,K*11
$IIMWV,284,R,03.0,N,A*1E
$IIVWR,076.,L,03.0,N,01.5,M,005.6,K*62
$IIMTA,21.7,C*01
$IIMTW,18.7,C*1D
$IIVWT,102.,L,02.9,N,01.5,M,005.4,K*6C
$IIHDG,269.,,,,*74
$IIHDM,269.,M*1F
$IIGLL,4727.914,N,00237.413,W,105320,A,A*4D
$IIZDA,105320,07,07,2017,,*5E
$IIVTG,269.,T,,M,03.0,N,05.6,K,A*27
$IIDPT,0007.8,,*7D
$IIDBT,0025.7,f,0007.8,M,,*76
$IIVLW,0088.0,N,088.67,N*4C
$IIVHW,,,269.,M,01.27,N,02.35,K*12
$IIMWV,284,R,03.0,N,A*1E
$IIVWR,076.,L,03.0,N,01.5,M,005.6,K*62
$IIMWD,,,168.,M,02.9,N,01.5,M*0E
$IIMTA,21.7,C*01
$IIMTW,18.7,C*1D
$IIVWT,102.,L,03.0,N,01.5,M,005.6,K*66
$IIHDG,269.,,,,*74
$IIHDM,269.,M*1F
$IIGLL,4727.914,N,00237.416,W,105320,A,A*48
$IIZDA,105320,07,07,2017,,*5E
$IIVTG,269.,T,,M,02.8,N,05.2,K,A*2A
$IIDPT,0007.9,,*7C
$IIDBT,0026.0,f,0007.9,M,,*73
$IIVLW,0088.0,N,088.67,N*4C
$IIVHW,,,269.,M,01.25,N,02.31,K*14
$IIMWV,283,R,03.0,N,A*19
$IIVWR,077.,L,03.0,N,01.5,M,005.6,K*63
$IIMWD,,,167.,M,02.9,N,01.5,M*01
$IIMTA,21.7,C*01
$IIMTW,18.7,C*1D
$IIVWT,101.,L,02.9,N,01.5,M,005.4,K*6F
$IIHDG,270.,,,,*7C
$IIHDM,270.,M*17
$IIGLL,4727.914,N,00237.416,W,105322,A,A*4A
$IIZDA,105322,07,07,2017,,*5C
$IIVTG,269.,T,,M,02.8,N,05.2,K,A*2A
$IIDPT,0007.9,,*7C
$IIDBT,0026.0,f,0007.9,M,,*73
$IIVLW,0088.0,N,088.67,N*4C
$IIVHW,,,270.,M,01.26,N,02.34,K*1A
$IIMWV,284,R,03.0,N,A*1E
$IIVWR,076.,L,03.0,N,01.5,M,005.6,K*62
$IIMWD,,,170.,M,02.9,N,01.5,M*07
$IIMTA,21.7,C*01
$IIMTW,18.7,C*1D
$IIVWT,101.,L,02.9,N,01.5,M,005.4,K*6F
$IIHDG,270.,,,,*7C
$IIHDM,270.,M*17
$IIGLL,4727.914,N,00237.418,W,105322,A,A*44
$IIZDA,105322,07,07,2017,,*5C
$IIVTG,267.,T,,M,02.8,N,05.2,K,A*24
$IIDPT,0007.8,,*7D
$IIDBT,0025.7,f,0007.8,M,,*76
$IIVLW,0088.0,N,088.67,N*4C
$IIVHW,,,270.,M,01.27,N,02.35,K*1A
$IIMWV,284,R,03.0,N,A*1E
$IIVWR,076.,L,03.0,N,01.5,M,005.6,K*62
$IIMWD,,,170.,M,02.9,N,01.5,M*07
$IIMTA,21.7,C*01
$IIMTW,18.7,C*1D
$IIVWT,100.,L,02.9,N,01.5,M,005.4,K*6E
$IIHDG,270.,,,,*7C
$IIHDM,270.,M*17
$IIGLL,4727.914,N,00237.420,W,105324,A,A*49
$IIZDA,105324,07,07,2017,,*5A
$IIVTG,267.,T,,M,02.8,N,05.2,K,A*24
$IIDPT,0007.8,,*7D
$IIDBT,0025.7,f,0007.8,M,,*76
$IIVLW,0088.0,N,088.67,N*4C
$IIVHW,,,270.,M,01.23,N,02.27,K*1D
$IIMWV,283,R,02.9,N,A*11
$IIVWR,077.,L,02.9,N,01.5,M,005.4,K*69
$IIMWD,,,170.,M,02.9,N,01.5,M*07
$IIMTA,21.7,C*01
$IIMTW,18.7,C*1D
$IIVWT,100.,L,02.9,N,01.5,M,005.4,K*6E
$IIHDG,270.,,,,*7C
$IIHDM,270.,M*17
$IIGLL,4727.914,N,00237.420,W,105324,A,A*49
$IIZDA,105324,07,07,2017,,*5A
$IIVTG,268.,T,,M,03.0,N,05.6,K,A*26
$IIDPT,0007.8,,*7D
$IIDBT,0025.7,f,0007.8,M,,*76
$IIVLW,0088.0,N,088.67,N*4C
$IIVHW,,,270.,M,01.21,N,02.24,K*1C
$IIMWV,284,R,02.9,N,A*16
$IIVWR,076.,L,02.9,N,01.5,M,005.4,K*68
$IIMWD,,,170.,M,02.8,N,01.4,M*07
$IIMTA,21.7,C*01
$IIMTW,18.8,C*12
$IIVWT,100.,L,02.8,N,01.4,M,005.2,K*68
$IIHDG,270.,,,,*7C
$IIHDM,270.,M*17
$IIGLL,4727.914,N,00237.423,W,105326,A,A*48
$IIZDA,105326,07,07,2017,,*58
$IIVTG,267.,T,,M,02.8,N,05.2,K,A*24
$IIDPT,0007.8,,*7D
$IIDBT,0025.7,f,0007.8,M,,*76
$IIVLW,0088.0,N,088.67,N*4C
$IIVHW,,,270.,M,01.20,N,02.22,K*1B
$IIMWV,283,R,02.9,N,A*11
$IIVWR,077.,L,02.9,N,01.5,M,005.4,K*69
$IIMWD,,,170.,M,02.8,N,01.4,M*07
$IIMTA,21.7,C*01
$IIMTW,18.7,C*1D
$IIVWT,100.,L,02.8,N,01.4,M,005.2,K*68
$IIHDG,270.,,,,*7C
$IIHDM,271.,M*16
$IIGLL,4727.914,N,00237.423,W,105326,A,A*48
$IIZDA,105326,07,07,2017,,*58
$IIVTG,267.,T,,M,02.8,N,05.2,K,A*24
$IIDPT,0007.8,,*7D
$IIDBT,0025.7,f,0007.8,M,,*76
$IIVLW,0088.0,N,088.67,N*4C
$IIVHW,,,271.,M,01.17,N,02.16,K*19
$IIMWV,285,R,03.0,N,A*1F
$IIVWR,075.,L,03.0,N,01.5,M,005.6,K*61
$IIMWD,,,173.,M,02.9,N,01.5,M*04
$IIMTA,21.7,C*01
$IIMTW,18.7,C*1D
$IIVWT,098.,L,02.9,N,01.5,M,005.4,K*6E
$IIHDG,271.,,,,*7D
$IIHDM,271.,M*16
$IIGLL,4727.913,N,00237.425,W,105328,A,A*47
$IIZDA,105328,07,07,2017,,*56
$IIVTG,267.,T,,M,02.8,N,05.2,K,A*24
$IIDPT,0007.8,,*7D
$IIDBT,0025.7,f,0007.8,M,,*76
$IIVLW,0088.0,N,088.67,N*4C
$IIVHW,,,271.,M,01.17,N,02.16,K*19
$IIMWV,283,R,03.0,N,A*19
$IIVWR,077.,L,03.0,N,01.5,M,005.6,K*63
$IIMWD,,,173.,M,02.9,N,01.5,M*04
$IIMTA,21.7,C*01
$IIMTW,18.7,C*1D
$IIVWT,098.,L,02.9,N,01.5,M,005.4,K*6E
$IIHDG,271.,,,,*7D
$IIHDM,271.,M*16
$IIGLL,4727.913,N,00237.425,W,105328,A,A*47
$IIZDA,105328,07,07,2017,,*56
$IIVTG,265.,T,,M,02.9,N,05.4,K,A*21
$IIDPT,0007.9,,*7C
$IIDBT,0026.0,f,0007.9,M,,*73
$IIVLW,0088.0,N,088.67,N*4C
$IIVHW,,,271.,M,01.16,N,02.15,K*1B
$IIMWV,285,R,03.0,N,A*1F
$IIVWR,075.,L,03.0,N,01.5,M,005.6,K*61
$IIMWD,,,172.,M,02.9,N,01.5,M*05
$IIMTA,21.7,C*01
$IIMTW,18.7,C*1D
$IIVWT,099.,L,02.9,N,01.5,M,005.4,K*6F
$IIHDG,271.,,,,*7D
$IIHDM,271.,M*16
$IIGLL,4727.913,N,00237.427,W,105330,A,A*4C
$IIZDA,105330,07,07,2017,,*5F
$IIVTG,272.,T,,M,02.9,N,05.4,K,A*27
$IIDPT,0008.0,,*7A
$IIDBT,0026.4,f,0008.0,M,,*71
$IIVLW,0088.0,N,088.67,N*4C
$IIVHW,,,271.,M,01.15,N,02.13,K*1E
$IIMWV,285,R,03.0,N,A*1F
$IIVWR,075.,L,03.0,N,01.5,M,005.6,K*61
$IIMWD,,,173.,M,02.9,N,01.5,M*04
$IIMTA,21.7,C*01
$IIMTW,18.7,C*1D
$IIVWT,098.,L,02.9,N,01.5,M,005.4,K*6E
$IIHDG,271.,,,,*7D
$IIHDM,271.,M*16
$IIGLL,4727.913,N,00237.427,W,105332,A,A*4E
$IIZDA,105332,07,07,2017,,*5D
$IIVTG,272.,T,,M,02.9,N,05.4,K,A*27
$IIDPT,0007.9,,*7C
$IIDBT,0025.7,f,0007.8,M,,*76
$IIVLW,0088.0,N,088.67,N*4C
$IIVHW,,,272.,M,01.15,N,02.13,K*1D
$IIMWV,286,R,03.0,N,A*1C
$IIVWR,074.,L,03.0,N,01.5,M,005.6,K*60
$IIMWD,,,174.,M,02.9,N,01.5,M*03
$IIMTA,21.7,C*01
$IIMTW,18.7,C*1D
$IIVWT,098.,L,02.9,N,01.5,M,005.4,K*6E
$IIHDG,272.,,,,*7E
$IIHDM,272.,M*15
$IIGLL,4727.914,N,00237.430,W,105332,A,A*4F
$IIZDA,105332,07,07,2017,,*5D
$IIVTG,272.,T,,M,02.6,N,04.8,K,A*25
$IIDPT,0007.8,,*7D
$IIDBT,0025.7,f,0007.8,M,,*76
$IIVLW,0088.0,N,088.67,N*4C
$IIVHW,,,272.,M,01.14,N,02.12,K*1D
$IIMWV,284,R,03.0,N,A*1E
$IIVWR,076.,L,03.0,N,01.5,M,005.6,K*62
$IIMWD,,,174.,M,02.9,N,01.5,M*03
$IIMTA,21.7,C*01
$IIMTW,18.7,C*1D
$IIVWT,098.,L,02.9,N,01.5,M,005.4,K*6E
$IIHDG,272.,,,,*7E
$IIHDM,272.,M*15
$IIGLL,4727.914,N,00237.430,W,105334,A,A*49
$IIZDA,105334,07,07,2017,,*5B
$IIVTG,272.,T,,M,02.6,N,04.8,K,A*25
$IIDPT,0007.8,,*7D
$IIDBT,0025.7,f,0007.8,M,,*76
$IIVLW,0088.0,N,088.67,N*4C
$IIVHW,,,272.,M,01.17,N,02.17,K*1B
$IIMWV,285,R,03.0,N,A*1F
$IIVWR,075.,L,03.0,N,01.5,M,005.6,K*61
$IIMWD,,,174.,M,02.9,N,01.5,M*03
$IIMTA,21.7,C*01
$IIMTW,18.7,C*1D
$IIVWT,098.,L,02.9,N,01.5,M,005.4,K*6E
$IIHDG,272.,,,,*7E
$IIHDM,272.,M*15
$IIGLL,4727.914,N,00237.432,W,105334,A,A*4B
$IIZDA,105334,07,07,2017,,*5B
$IIVTG,270.,T,,M,02.9,N,05.4,K,A*25
$IIDPT,0007.8,,*7D
$IIDBT,0025.7,f,0007.8,M,,*76
$IIVLW,0088.0,N,088.67,N*4C
$IIVHW,,,272.,M,01.18,N,02.18,K*1B
$IIMWV,286,R,03.0,N,A*1C
$IIVWR,074.,L,03.0,N,01.5,M,005.6,K*60
$IIMWD,,,174.,M,02.9,N,01.5,M*03
$IIMTA,21.7,C*01
$IIMTW,18.7,C*1D
$IIVWT,097.,L,02.9,N,01.5,M,005.4,K*61
$IIHDG,272.,,,,*7E
$IIHDM,272.,M*15
$IIGLL,4727.914,N,00237.434,W,105336,A,A*4F
$IIZDA,105336,07,07,2017,,*59
$IIVTG,270.,T,,M,02.9,N,05.4,K,A*25
$IIDPT,0007.9,,*7C
$IIDBT,0026.0,f,0007.9,M,,*73
$IIVLW,0088.0,N,088.67,N*4C
$IIVHW,,,272.,M,01.16,N,02.15,K*18
$IIMWV,286,R,03.0,N,A*1C
$IIVWR,074.,L,03.0,N,01.5,M,005.6,K*60
$IIMWD,,,175.,M,02.9,N,01.5,M*02
$IIMTA,21.7,C*01
$IIMTW,18.7,C*1D
$IIVWT,097.,L,02.9,N,01.5,M,005.4,K*61
$IIHDG,272.,,,,*7E
$IIHDM,272.,M*15
$IIGLL,4727.914,N,00237.434,W,105336,A,A*4F
$IIZDA,105336,07,07,2017,,*59
$IIVTG,273.,T,,M,02.9,N,05.4,K,A*26
$IIDPT,0007.9,,*7C
$IIDBT,0026.0,f,0007.9,M,,*73
$IIVLW,0088.0,N,088.67,N*4C
$IIVHW,,,272.,M,01.14,N,02.12,K*1D
$IIMWV,286,R,03.0,N,A*1C
$IIVWR,074.,L,03.0,N,01.5,M,005.6,K*60
$IIMWD,,,176.,M,02.9,N,01.5,M*01
$IIMTA,21.7,C*01
$IIMTW,18.7,C*1D
$IIVWT,096.,L,02.9,N,01.5,M,005.4,K*60
$IIHDG,272.,,,,*7E
$IIHDM,272.,M*15
$IIGLL,4727.914,N,00237.437,W,105338,A,A*42
$IIZDA,105338,07,07,2017,,*57
$IIVTG,271.,T,,M,02.9,N,05.4,K,A*24
$IIDPT,0007.8,,*7D
$IIDBT,0025.7,f,0007.8,M,,*76
$IIVLW,0088.0,N,088.67,N*4C
$IIVHW,,,272.,M,01.14,N,02.11,K*1E
$IIMWV,284,R,03.0,N,A*1E
$IIVWR,076.,L,03.0,N,01.5,M,005.6,K*62
$IIMWD,,,175.,M,02.9,N,01.5,M*02
$IIMTA,21.7,C*01
$IIMTW,18.7,C*1D
$IIVWT,097.,L,02.9,N,01.5,M,005.4,K*61
$IIHDG,272.,,,,*7E
$IIHDM,272.,M*15
$IIGLL,4727.914,N,00237.437,W,105338,A,A*42
$IIZDA,105338,07,07,2017,,*57
$IIVTG,271.,T,,M,02.9,N,05.4,K,A*24
$IIDPT,0007.9,,*7C
$IIDBT,0026.0,f,0007.9,M,,*73
$IIVLW,0088.0,N,088.67,N*4C
$IIVHW,,,272.,M,01.14,N,02.12,K*1D
$IIMWV,285,R,03.0,N,A*1F
$IIVWR,075.,L,03.0,N,01.5,M,005.6,K*61
$IIMWD,,,174.,M,02.9,N,01.5,M*03
$IIMTA,21.7,C*01
$IIMTW,18.7,C*1D
$IIVWT,098.,L,02.9,N,01.5,M,005.4,K*6E
$IIHDG,273.,,,,*7F
$IIHDM,273.,M*14
$IIGLL,4727.914,N,00237.439,W,105340,A,A*43
$IIZDA,105340,07,07,2017,,*58
$IIVTG,274.,T,,M,03.0,N,05.6,K,A*2B
$IIDPT,0007.8,,*7D
$IIDBT,0025.7,f,0007.8,M,,*76
$IIVLW,0088.0,N,088.67,N*4C
$IIVHW,,,273.,M,01.15,N,02.13,K*1C
$IIMWV,285,R,03.0,N,A*1F
$IIVWR,075.,L,03.0,N,01.5,M,005.6,K*61
$IIMWD,,,176.,M,02.9,N,01.5,M*01
$IIMTA,21.7,C*01
$IIMTW,18.7,C*1D
$IIVWT,097.,L,02.9,N,01.5,M,005.4,K*61
$IIHDG,272.,,,,*7E
$IIHDM,272.,M*15
$IIGLL,4727.914,N,00237.439,W,105342,A,A*41
$IIZDA,105342,07,07,2017,,*5A
$IIVTG,274.,T,,M,03.0,N,05.6,K,A*2B
$IIDPT,0007.9,,*7C
$IIDBT,0026.0,f,0007.9,M,,*73
$IIVLW,0088.0,N,088.68,N*43
$IIVHW,,,272.,M,01.15,N,02.13,K*1D
$IIMWV,283,R,03.0,N,A*19
$IIVWR,077.,L,03.0,N,01.5,M,005.6,K*63
$IIMWD,,,172.,M,02.9,N,01.5,M*05
$IIMTA,21.7,C*01
$IIMTW,18.7,C*1D
$IIVWT,100.,L,02.9,N,01.5,M,005.4,K*6E
$IIHDG,272.,,,,*7E
$IIHDM,272.,M*15
$IIGLL,4727.914,N,00237.441,W,105342,A,A*4E
$IIZDA,105342,07,07,2017,,*5A
$IIVTG,272.,T,,M,02.9,N,05.4,K,A*27
$IIDPT,0007.9,,*7C
$IIDBT,0026.0,f,0007.9,M,,*73
$IIVLW,0088.0,N,088.68,N*43
$IIVHW,,,273.,M,01.16,N,02.14,K*18
$IIMWV,285,R,03.0,N,A*1F
$IIVWR,075.,L,03.0,N,01.5,M,005.6,K*61
$IIMWD,,,173.,M,02.9,N,01.5,M*04
$IIMTA,21.7,C*01
$IIMTW,18.7,C*1D
$IIVWT,099.,L,02.9,N,01.5,M,005.4,K*6F
$IIHDG,273.,,,,*7F
$IIHDM,273.,M*14
$IIGLL,4727.914,N,00237.441,W,105344,A,A*48
$IIZDA,105344,07,07,2017,,*5C
$IIVTG,272.,T,,M,02.9,N,05.4,K,A*27
$IIDPT,0007.8,,*7D
$IIDBT,0025.7,f,0007.8,M,,*76
$IIVLW,0088.0,N,088.68,N*43
$IIVHW,,,273.,M,01.15,N,02.13,K*1C
$IIMWV,286,R,03.0,N,A*1C
$IIVWR,074.,L,03.0,N,01.5,M,005.6,K*60
$IIMWD,,,176.,M,02.9,N,01.5,M*01
$IIMTA,21.7,C*01
$IIMTW,18.7,C*1D
$IIVWT,096.,L,02.9,N,01.5,M,005.4,K*60
$IIHDG,272.,,,,*7E
$IIHDM,272.,M*15
$IIGLL,4727.914,N,00237.444,W,105344,A,A*4D
$IIZDA,105344,07,07,2017,,*5C
$IIVTG,269.,T,,M,03.0,N,05.6,K,A*27
$IIDPT,0007.8,,*7D
$IIDBT,0025.7,f,0007.8,M,,*76
$IIVLW,0088.0,N,088.68,N*43
$IIVHW,,,272.,M,01.16,N,02.14,K*19
$IIMWV,285,R,03.0,N,A*1F
$IIVWR,075.,L,03.0,N,01.5,M,005.6,K*61
$IIMWD,,,176.,M,02.9,N,01.5,M*01
$IIMTA,21.7,C*01
$IIMTW,18.7,C*1D
$IIVWT,097.,L,02.9,N,01.5,M,005.4,K*61
$IIHDG,272.,,,,*7E
$IIHDM,272.,M*15
$IIGLL,4727.914,N,00237.444,W,105346,A,A*4F
$IIZDA,105346,07,07,2017,,*5E
$IIVTG,269.,T,,M,03.0,N,05.6,K,A*27
$IIDPT,0007.8,,*7D
$IIDBT,0025.7,f,0007.8,M,,*76
$IIVLW,0088.0,N,088.68,N*43
$IIVHW,,,271.,M,01.17,N,02.16,K*19
$IIMWV,286,R,03.0,N,A*1C
$IIVWR,074.,L,03.0,N,01.5,M,005.6,K*60
$IIMWD,,,174.,M,02.9,N,01.5,M*03
$IIMTA,21.7,C*01
$IIMTW,18.7,C*1D
$IIVWT,097.,L,02.9,N,01.5,M,005.4,K*61
$IIHDG,271.,,,,*7D
$IIHDM,271.,M*16
$IIGLL,4727.914,N,00237.446,W,105346,A,A*4D
$IIZDA,105346,07,07,2017,,*5E
$IIVTG,269.,T,,M,03.0,N,05.6,K,A*27
$IIDPT,0008.0,,*7A
$IIDBT,0026.4,f,0008.0,M,,*71
$IIVLW,0088.0,N,088.68,N*43
$IIVHW,,,272.,M,01.18,N,02.19,K*1A
$IIMWV,288,R,03.0,N,A*12
$IIVWR,072.,L,03.0,N,01.5,M,005.6,K*66
$IIMTA,21.7,C*01
$IIMTW,18.7,C*1D
$IIVWT,095.,L,02.8,N,01.4,M,005.2,K*65
$IIHDG,272.,,,,*7E
$IIHDM,272.,M*15
$IIGLL,4727.914,N,00237.449,W,105348,A,A*4C
$IIZDA,105348,07,07,2017,,*50
$IIVTG,269.,T,,M,03.0,N,05.6,K,A*27
$IIDPT,0007.8,,*7D
$IIDBT,0025.7,f,0007.8,M,,*76
$IIVLW,0088.0,N,088.68,N*43
$IIVHW,,,272.,M,01.13,N,02.10,K*18
$IIMWV,288,R,02.9,N,A*1A
$IIVWR,072.,L,02.9,N,01.5,M,005.4,K*6C
$IIMWD,,,177.,M,02.7,N,01.4,M*0F
$IIMTA,21.7,C*01
$IIMTW,18.7,C*1D
$IIVWT,095.,L,02.7,N,01.4,M,005.0,K*68
$IIHDG,272.,,,,*7E
$IIHDM,272.,M*15
$IIGLL,4727.914,N,00237.449,W,105348,A,A*4C
$IIZDA,105348,07,07,2017,,*50
$IIVTG,270.,T,,M,02.8,N,05.2,K,A*22
$IIDPT,0007.8,,*7D
$IIDBT,0025.7,f,0007.8,M,,*76
$IIVLW,0088.0,N,088.68,N*43
$IIVHW,,,271.,M,01.19,N,02.21,K*13
$IIMWV,288,R,02.9,N,A*1A
$IIVWR,072.,L,02.9,N,01.5,M,005.4,K*6C
$IIMWD,,,177.,M,02.7,N,01.4,M*0F
$IIMTA,21.7,C*01
$IIMTW,18.7,C*1D
$IIVWT,095.,L,02.7,N,01.4,M,005.0,K*68
$IIHDG,271.,,,,*7D
$IIHDM,271.,M*16
$IIGLL,4727.914,N,00237.451,W,105350,A,A*4C
$IIZDA,105350,07,07,2017,,*59
$IIVTG,277.,T,,M,02.8,N,05.2,K,A*25
$IIDPT,0007.9,,*7C
$IIDBT,0026.0,f,0007.9,M,,*73
$IIVLW,0088.0,N,088.68,N*43
$IIVHW,,,271.,M,01.18,N,02.18,K*18
$IIMWV,289,R,02.9,N,A*1B
$IIVWR,071.,L,02.9,N,01.5,M,005.4,K*6F
$IIMWD,,,174.,M,02.7,N,01.4,M*0C
$IIMTA,21.7,C*01
$IIMTW,18.8,C*12
$IIVWT,097.,L,02.7,N,01.4,M,005.0,K*6A
$IIHDG,272.,,,,*7E
$IIHDM,272.,M*15
$IIGLL,4727.914,N,00237.451,W,105350,A,A*4C
$IIZDA,105350,07,07,2017,,*59
$IIVTG,277.,T,,M,02.8,N,05.2,K,A*25
$IIDPT,0007.8,,*7D
$IIDBT,0025.7,f,0007.8,M,,*76
$IIVLW,0088.0,N,088.68,N*43
$IIVHW,,,271.,M,01.19,N,02.20,K*12
$IIMWV,287,R,03.0,N,A*1D
$IIVWR,073.,L,03.0,N,01.5,M,005.6,K*67
$IIMWD,,,176.,M,02.7,N,01.4,M*0E
$IIMTA,21.7,C*01
$IIMTW,18.7,C*1D
$IIVWT,096.,L,02.7,N,01.4,M,005.0,K*6B
$IIHDG,271.,,,,*7D
$IIHDM,271.,M*16
$IIGLL,4727.914,N,00237.453,W,105352,A,A*4C
$IIZDA,105352,07,07,2017,,*5B
$IIVTG,269.,T,,M,02.9,N,05.4,K,A*2D
$IIDPT,0007.8,,*7D
$IIDBT,0025.7,f,0007.8,M,,*76
$IIVLW,0088.0,N,088.68,N*43
$IIVHW,,,271.,M,01.20,N,02.23,K*1B
$IIMWV,289,R,03.0,N,A*13
$IIVWR,071.,L,03.0,N,01.5,M,005.6,K*65
$IIMWD,,,175.,M,02.8,N,01.4,M*02
$IIMTA,21.7,C*01
$IIMTW,18.8,C*12
$IIVWT,096.,L,02.8,N,01.4,M,005.2,K*66
$IIHDG,271.,,,,*7D
$IIHDM,271.,M*16
$IIGLL,4727.914,N,00237.453,W,105354,A,A*4A
$IIZDA,105354,07,07,2017,,*5D
$IIVTG,269.,T,,M,02.9,N,05.4,K,A*2D
$IIDPT,0008.0,,*7A
$IIDBT,0026.4,f,0008.0,M,,*71
$IIVLW,0088.0,N,088.68,N*43
$IIVHW,,,271.,M,01.18,N,02.19,K*19
$IIMWV,291,R,03.0,N,A*1A
$IIVWR,069.,L,03.0,N,01.5,M,005.6,K*6C
$IIMTA,21.7,C*01
$IIMTW,18.8,C*12
$IIVWT,092.,L,02.8,N,01.4,M,005.2,K*62
$IIHDG,271.,,,,*7D
$IIHDM,271.,M*16
$IIGLL,4727.914,N,00237.456,W,105354,A,A*4F
$IIZDA,105354,07,07,2017,,*5D
$IIVTG,282.,T,,M,02.8,N,05.2,K,A*2F
$IIDPT,0007.9,,*7C
$IIDBT,0025.7,f,0007.8,M,,*76
$IIVLW,0088.0,N,088.68,N*43
$IIVHW,,,271.,M,01.18,N,02.18,K*18
$IIMWV,291,R,03.0,N,A*1A
$IIVWR,069.,L,03.0,N,01.5,M,005.6,K*6C
$IIMWD,,,179.,M,02.8,N,01.4,M*0E
$IIMTA,21.7,C*01
$IIMTW,18.7,C*1D
$IIVWT,092.,L,02.8,N,01.4,M,005.2,K*62
$IIHDG,271.,,,,*7D
$IIHDM,271.,M*16
$IIGLL,4727.914,N,00237.458,W,105356,A,A*43
$IIZDA,105356,07,07,2017,,*5F
$IIVTG,282.,T,,M,02.8,N,05.2,K,A*2F
$IIDPT,0007.8,,*7D
$IIDBT,0025.7,f,0007.8,M,,*76
$IIVLW,0088.0,N,088.68,N*43
$IIVHW,,,271.,M,01.22,N,02.26,K*1C
$IIMWV,290,R,03.0,N,A*1B
$IIVWR,070.,L,03.0,N,01.5,M,005.6,K*64
$IIMWD,,,179.,M,02.8,N,01.4,M*0E
$IIMTA,21.7,C*01
$IIMTW,18.7,C*1D
$IIVWT,094.,L,02.8,N,01.4,M,005.2,K*64
$IIHDG,271.,,,,*7D
$IIHDM,271.,M*16
$IIGLL,4727.914,N,00237.458,W,105356,A,A*43
$IIZDA,105356,07,07,2017,,*5F
$IIVTG,265.,T,,M,03.0,N,05.6,K,A*2B
$IIDPT,0007.8,,*7D
$IIDBT,0025.7,f,0007.8,M,,*76
$IIVLW,0088.0,N,088.68,N*43
$IIVHW,,,270.,M,01.23,N,02.27,K*1D
$IIMWV,293,R,03.0,N,A*18
$IIVWR,067.,L,03.0,N,01.5,M,005.6,K*62
$IIMWD,,,177.,M,02.7,N,01.4,M*0F
$IIMTA,21.7,C*01
$IIMTW,18.7,C*1D
$IIVWT,091.,L,02.7,N,01.4,M,005.0,K*6C
$IIHDG,270.,,,,*7C
$IIHDM,270.,M*17
$IIGLL,4727.914,N,00237.458,W,105358,A,A*4D
$IIZDA,105358,07,07,2017,,*51
$IIVTG,265.,T,,M,03.0,N,05.6,K,A*2B
$IIDPT,0008.0,,*7A
$IIDBT,0026.4,f,0008.0,M,,*71
$IIVLW,0088.0,N,088.68,N*43
$IIVHW,,,270.,M,01.22,N,02.25,K*1E
$IIMWV,292,R,02.9,N,A*11
$IIVWR,068.,L,02.9,N,01.5,M,005.4,K*67
$IIMWD,,,177.,M,02.6,N,01.3,M*09
$IIMTA,21.7,C*01
$IIMTW,18.7,C*1D
$IIVWT,093.,L,02.6,N,01.3,M,004.8,K*61
$IIHDG,270.,,,,*7C
$IIHDM,270.,M*17
$IIGLL,4727.914,N,00237.460,W,105358,A,A*46
$IIZDA,105358,07,07,2017,,*51
$IIVTG,271.,T,,M,03.0,N,05.6,K,A*2E
$IIDPT,0008.0,,*7A
$IIDBT,0026.4,f,0008.0,M,,*71
$IIVLW,0088.0,N,088.68,N*43
$IIVHW,,,270.,M,01.19,N,02.21,K*12
$IIMWV,294,R,02.9,N,A*17
$IIVWR,066.,L,02.9,N,01.5,M,005.4,K*69
$IIMWD,,,180.,M,02.6,N,01.3,M*01
$IIMTA,21.7,C*01
$IIMTW,18.8,C*12
$IIVWT,090.,L,02.6,N,01.3,M,004.8,K*62
$IIHDG,270.,,,,*7C
$IIHDM,270.,M*17
$IIGLL,4727.914,N,00237.463,W,105400,A,A*4F
$IIZDA,105400,07,07,2017,,*5B
$IIVTG,272.,T,,M,02.9,N,05.4,K,A*27
$IIDPT,0007.9,,*7C
$IIDBT,0026.0,f,0007.9,M,,*73
$IIVLW,0088.0,N,088.68,N*43
$IIVHW,,,270.,M,01.20,N,02.22,K*1B
$IIMWV,292,R,02.9,N,A*11
$IIVWR,068.,L,02.9,N,01.5,M,005.4,K*67
$IIMWD,,,179.,M,02.6,N,01.3,M*07
$IIMTA,21.7,C*01
$IIMTW,18.8,C*12
$IIVWT,091.,L,02.6,N,01.3,M,004.8,K*63
$IIHDG,270.,,,,*7C
$IIHDM,270.,M*17
$IIGLL,4727.914,N,00237.463,W,105400,A,A*4F
$IIZDA,105400,07,07,2017,,*5B
$IIVTG,272.,T,,M,02.9,N,05.4,K,A*27
$IIDPT,0007.8,,*7D
$IIDBT,0025.7,f,0007.8,M,,*76
$IIVLW,0088.0,N,088.68,N*43
$IIVHW,,,270.,M,01.20,N,02.22,K*1B
$IIMWV,292,R,02.9,N,A*11
$IIVWR,068.,L,02.9,N,01.5,M,005.4,K*67
$IIMWD,,,178.,M,02.6,N,01.3,M*06
$IIMTA,21.7,C*01
$IIMTW,18.7,C*1D
$IIVWT,092.,L,02.6,N,01.3,M,004.8,K*60
$IIHDG,270.,,,,*7C
$IIHDM,270.,M*17
$IIGLL,4727.914,N,00237.465,W,105402,A,A*4B
$IIZDA,105402,07,07,2017,,*59
$IIVTG,268.,T,,M,02.8,N,05.2,K,A*2B
$IIDPT,0007.8,,*7D
$IIDBT,0025.7,f,0007.8,M,,*76
$IIVLW,0088.0,N,088.68,N*43
$IIVHW,,,270.,M,01.20,N,02.22,K*1B
$IIMWV,291,R,02.9,N,A*12
$IIVWR,069.,L,02.9,N,01.5,M,005.4,K*66
$IIMWD,,,178.,M,02.6,N,01.3,M*06
$IIMTA,21.7,C*01
$IIMTW,18.8,C*12
$IIVWT,092.,L,02.6,N,01.3,M,004.8,K*60
$IIHDG,270.,,,,*7C
$IIHDM,270.,M*17
$IIGLL,4727.914,N,00237.465,W,105404,A,A*4D
$IIZDA,105404,07,07,2017,,*5F
$IIVTG,268.,T,,M,02.8,N,05.2,K,A*2B
$IIDPT,0007.8,,*7D
$IIDBT,0025.7,f,0007.8,M,,*76
$IIVLW,0088.0,N,088.68,N*43
$IIVHW,,,270.,M,01.14,N,02.11,K*1C
$IIMWV,291,R,02.9,N,A*12
$IIVWR,069.,L,02.9,N,01.5,M,005.4,K*66
$IIMWD,,,177.,M,02.7,N,01.4,M*0F
$IIMTA,21.7,C*01
$IIMTW,18.8,C*12
$IIVWT,093.,L,02.7,N,01.4,M,005.0,K*6E
$IIHDG,270.,,,,*7C
$IIHDM,270.,M*17
$IIGLL,4727.914,N,00237.468,W,105404,A,A*40
$IIZDA,105404,07,07,2017,,*5F
$IIVTG,269.,T,,M,02.9,N,05.4,K,A*2D
$IIDPT,0007.9,,*7C
$IIDBT,0026.0,f,0007.9,M,,*73
$IIVLW,0088.0,N,088.68,N*43
$IIVHW,,,270.,M,01.16,N,02.15,K*1A
$IIMWV,289,R,02.9,N,A*1B
$IIVWR,071.,L,02.9,N,01.5,M,005.4,K*6F
$IIMTA,21.7,C*01
$IIMTW,18.8,C*12
$IIVWT,092.,L,02.7,N,01.4,M,005.0,K*6F
$IIHDG,270.,,,,*7C
$IIHDM,270.,M*17
$IIGLL,4727.914,N,00237.468,W,105406,A,A*42
$IIZDA,105406,07,07,2017,,*5D
$IIVTG,269.,T,,M,02.9,N,05.4,K,A*2D
$IIDPT,0008.0,,*7A
$IIDBT,0026.4,f,0008.0,M,,*71
$IIVLW,0088.0,N,088.68,N*43
$IIVHW,,,270.,M,01.18,N,02.18,K*19
$IIMWV,291,R,02.9,N,A*12
$IIVWR,069.,L,02.9,N,01.5,M,005.4,K*66
$IIMWD,,,175.,M,02.7,N,01.4,M*0D
$IIMTA,21.7,C*01
$IIMTW,18.8,C*12
$IIVWT,093.,L,02.7,N,01.4,M,005.0,K*6E
$IIHDG,270.,,,,*7C
$IIHDM,270.,M*17
$IIGLL,4727.914,N,00237.468,W,105406,A,A*42
$IIZDA,105406,07,07,2017,,*5D
$IIVTG,269.,T,,M,02.9,N,05.4,K,A*2D
$IIDPT,0008.0,,*7A
$IIDBT,0026.4,f,0008.0,M,,*71
$IIVLW,0088.0,N,088.68,N*43
$IIVHW,,,270.,M,01.18,N,02.19,K*18
$IIMWV,290,R,02.9,N,A*13
$IIVWR,070.,L,02.9,N,01.5,M,005.4,K*6E
$IIMWD,,,176.,M,02.7,N,01.4,M*0E
$IIMTA,21.7,C*01
$IIMTW,18.8,C*12
$IIVWT,094.,L,02.7,N,01.4,M,005.0,K*69
$IIHDG,270.,,,,*7C
$IIHDM,270.,M*17
$IIGLL,4727.914,N,00237.472,W,105408,A,A*47
$IIZDA,105408,07,07,2017,,*53
$IIVTG,269.,T,,M,02.9,N,05.4,K,A*2D
$IIDPT,0007.9,,*7C
$IIDBT,0026.0,f,0007.9,M,,*73
$IIVLW,0088.0,N,088.68,N*43
$IIVHW,,,270.,M,01.16,N,02.14,K*1B
$IIMWV,290,R,02.9,N,A*13
$IIVWR,070.,L,02.9,N,01.5,M,005.4,K*6E
$IIMWD,,,176.,M,02.7,N,01.4,M*0E
$IIMTA,21.7,C*01
$IIMTW,18.8,C*12
$IIVWT,093.,L,02.7,N,01.4,M,005.0,K*6E
$IIHDG,270.,,,,*7C
$IIHDM,270.,M*17
$IIGLL,4727.914,N,00237.472,W,105408,A,A*47
$IIZDA,105408,07,07,2017,,*53
$IIVTG,265.,T,,M,02.9,N,05.4,K,A*21
$IIDPT,0007.8,,*7D
$IIDBT,0025.7,f,0007.8,M,,*76
$IIVLW,0088.0,N,088.68,N*43
$IIVHW,,,270.,M,01.20,N,02.23,K*1A
$IIMWV,288,R,02.9,N,A*1A
$IIVWR,072.,L,02.9,N,01.5,M,005.4,K*6C
$IIMWD,,,174.,M,02.7,N,01.4,M*0C
$IIMTA,21.7,C*01
$IIMTW,18.8,C*12
$IIVWT,096.,L,02.7,N,01.4,M,005.0,K*6B
$IIHDG,270.,,,,*7C
$IIHDM,270.,M*17
$IIGLL,4727.914,N,00237.472,W,105410,A,A*4E
$IIZDA,105410,07,07,2017,,*5A
$IIVTG,265.,T,,M,02.9,N,05.4,K,A*21
$IIDPT,0007.9,,*7C
$IIDBT,0026.0,f,0007.9,M,,*73
$IIVLW,0088.0,N,088.68,N*43
$IIVHW,,,270.,M,01.19,N,02.21,K*12
$IIMWV,289,R,02.9,N,A*1B
$IIVWR,071.,L,02.9,N,01.5,M,005.4,K*6F
$IIMWD,,,175.,M,02.7,N,01.4,M*0D
$IIMTA,21.7,C*01
$IIMTW,18.8,C*12
$IIVWT,095.,L,02.7,N,01.4,M,005.0,K*68
$IIHDG,270.,,,,*7C
$IIHDM,270.,M*17
$IIGLL,4727.914,N,00237.475,W,105410,A,A*49
$IIZDA,105410,07,07,2017,,*5A
$IIVTG,270.,T,,M,03.0,N,05.6,K,A*2F
$IIDPT,0007.8,,*7D
$IIDBT,0025.7,f,0007.8,M,,*76
$IIVLW,0088.0,N,088.69,N*42
$IIVHW,,,270.,M,01.19,N,02.20,K*13
$IIMWV,287,R,02.9,N,A*15
$IIVWR,073.,L,02.9,N,01.5,M,005.4,K*6D
$IIMWD,,,173.,M,02.7,N,01.4,M*0B
$IIMTA,21.7,C*01
$IIMTW,18.8,C*12
$IIVWT,097.,L,02.7,N,01.4,M,005.0,K*6A
$IIHDG,270.,,,,*7C
$IIHDM,270.,M*17
$IIGLL,4727.914,N,00237.477,W,105412,A,A*49
$IIZDA,105412,07,07,2017,,*58
$IIVTG,265.,T,,M,02.8,N,05.2,K,A*26
$IIDPT,0007.8,,*7D
$IIDBT,0025.7,f,0007.8,M,,*76
$IIVLW,0088.0,N,088.69,N*42
$IIVHW,,,270.,M,01.16,N,02.14,K*1B
$IIMWV,287,R,02.9,N,A*15
$IIVWR,073.,L,02.9,N,01.5,M,005.4,K*6D
$IIMWD,,,174.,M,02.7,N,01.4,M*0C
$IIMTA,21.7,C*01
$IIMTW,18.8,C*12
$IIVWT,096.,L,02.7,N,01.4,M,005.0,K*6B
$IIHDG,270.,,,,*7C
$IIHDM,270.,M*17
$IIGLL,4727.914,N,00237.477,W,105412,A,A*49
$IIZDA,105412,07,07,2017,,*58
$IIVTG,265.,T,,M,02.8,N,05.2,K,A*26
$IIDPT,0007.8,,*7D
$IIDBT,0025.7,f,0007.8,M,,*76
$IIVLW,0088.0,N,088.69,N*42
$IIVHW,,,270.,M,01.18,N,02.18,K*19
$IIMWV,286,R,02.9,N,A*14
$IIVWR,074.,L,02.9,N,01.5,M,005.4,K*6A
$IIMWD,,,174.,M,02.7,N,01.4,M*0C
$IIMTA,21.7,C*01
$IIMTW,18.8,C*12
$IIVWT,096.,L,02.7,N,01.4,M,005.0,K*6B
$IIHDG,270.,,,,*7C
$IIHDM,270.,M*17
$IIGLL,4727.914,N,00237.479,W,105414,A,A*41
$IIZDA,105414,07,07,2017,,*5E
$IIVTG,273.,T,,M,02.8,N,05.2,K,A*21
$IIDPT,0007.8,,*7D
$IIDBT,0025.7,f,0007.8,M,,*76
$IIVLW,0088.0,N,088.69,N*42
$IIVHW,,,270.,M,01.19,N,02.20,K*13
$IIMWV,285,R,02.9,N,A*17
$IIVWR,075.,L,02.9,N,01.5,M,005.4,K*6B
$IIMWD,,,172.,M,02.8,N,01.4,M*05
$IIMTA,21.7,C*01
$IIMTW,18.8,C*12
$IIVWT,098.,L,02.8,N,01.4,M,005.2,K*68
$IIHDG,270.,,,,*7C
$IIHDM,270.,M*17
$IIGLL,4727.914,N,00237.479,W,105416,A,A*43
$IIZDA,105416,07,07,2017,,*5C
$IIVTG,273.,T,,M,02.8,N,05.2,K,A*21
$IIDPT,0008.0,,*7A
$IIDBT,0026.4,f,0008.0,M,,*71
$IIVLW,0088.0,N,088.69,N*42
$IIVHW,,,270.,M,01.20,N,02.22,K*1B
$IIMWV,285,R,02.8,N,A*16
$IIVWR,075.,L,02.8,N,01.4,M,005.2,K*6D
$IIMWD,,,171.,M,02.8,N,01.4,M*06
$IIMTA,21.7,C*01
$IIMTW,18.8,C*12
$IIVWT,099.,L,02.8,N,01.4,M,005.2,K*69
$IIHDG,270.,,,,*7C
$IIHDM,270.,M*17
$IIGLL,4727.914,N,00237.482,W,105416,A,A*47
$IIZDA,105416,07,07,2017,,*5C
$IIVTG,271.,T,,M,02.9,N,05.4,K,A*24
$IIDPT,0008.0,,*7A
$IIDBT,0026.4,f,0008.0,M,,*71
$IIVLW,0088.0,N,088.69,N*42
$IIVHW,,,270.,M,01.20,N,02.23,K*1A
$IIMWV,284,R,02.8,N,A*17
$IIVWR,076.,L,02.8,N,01.4,M,005.2,K*6E
$IIMTA,21.7,C*01
$IIMTW,18.8,C*12
$IIVWT,101.,L,02.7,N,01.4,M,005.0,K*64
$IIHDG,270.,,,,*7C
$IIHDM,270.,M*17
$IIGLL,4727.914,N,00237.482,W,105418,A,A*49
$IIZDA,105418,07,07,2017,,*52
$IIVTG,271.,T,,M,02.9,N,05.4,K,A*24
$IIDPT,0008.0,,*7A
$IIDBT,0026.4,f,0008.0,M,,*71
$IIVLW,0088.0,N,088.69,N*42
$IIVHW,,,270.,M,01.22,N,02.25,K*1E
$IIMWV,284,R,02.8,N,A*17
$IIVWR,076.,L,02.8,N,01.4,M,005.2,K*6E
$IIMWD,,,168.,M,02.7,N,01.4,M*01
$IIMTA,21.7,C*01
$IIMTW,18.8,C*12
$IIVWT,101.,L,02.7,N,01.4,M,005.0,K*64
$IIHDG,270.,,,,*7C
$IIHDM,270.,M*17
$IIGLL,4727.914,N,00237.482,W,105418,A,A*49
$IIZDA,105418,07,07,2017,,*52
$IIVTG,273.,T,,M,02.8,N,05.2,K,A*21
$IIDPT,0008.0,,*7A
$IIDBT,0026.4,f,0008.0,M,,*71
$IIVLW,0088.0,N,088.69,N*42
$IIVHW,,,270.,M,01.20,N,02.23,K*1A
$IIMWV,283,R,02.8,N,A*10
$IIVWR,077.,L,02.8,N,01.4,M,005.2,K*6F
$IIMWD,,,168.,M,02.7,N,01.4,M*01
$IIMTA,21.7,C*01
$IIMTW,18.8,C*12
$IIVWT,102.,L,02.7,N,01.4,M,005.0,K*67
$IIHDG,270.,,,,*7C
$IIHDM,270.,M*17
$IIGLL,4727.914,N,00237.486,W,105420,A,A*46
$IIZDA,105420,07,07,2017,,*59
$IIVTG,273.,T,,M,02.8,N,05.2,K,A*21
$IIDPT,0007.8,,*7D
$IIDBT,0025.7,f,0007.8,M,,*76
$IIVLW,0088.0,N,088.69,N*42
$IIVHW,,,270.,M,01.21,N,02.24,K*1C
$IIMWV,283,R,02.8,N,A*10
$IIVWR,077.,L,02.8,N,01.4,M,005.2,K*6F
$IIMWD,,,168.,M,02.7,N,01.4,M*01
$IIMTA,21.7,C*01
$IIMTW,18.8,C*12
$IIVWT,102.,L,02.7,N,01.4,M,005.0,K*67
$IIHDG,270.,,,,*7C
$IIHDM,270.,M*17
$IIGLL,4727.914,N,00237.486,W,105420,A,A*46
$IIZDA,105420,07,07,2017,,*59
$IIVTG,269.,T,,M,02.9,N,05.4,K,A*2D
$IIDPT,0007.8,,*7D
$IIDBT,0025.7,f,0007.8,M,,*76
$IIVLW,0088.0,N,088.69,N*42
$IIVHW,,,270.,M,01.22,N,02.26,K*1D
$IIMWV,282,R,02.8,N,A*11
$IIVWR,078.,L,02.8,N,01.4,M,005.2,K*60
$IIMTA,21.7,C*01
$IIMTW,18.8,C*12
$IIVWT,101.,L,02.7,N,01.4,M,005.0,K*64
$IIHDG,270.,,,,*7C
$IIHDM,270.,M*17
$IIGLL,4727.914,N,00237.489,W,105422,A,A*4B
$IIZDA,105422,07,07,2017,,*5B
$IIVTG,269.,T,,M,02.9,N,05.4,K,A*2D
$IIDPT,0007.8,,*7D
$IIDBT,0025.7,f,0007.8,M,,*76
$IIVLW,0088.0,N,088.69,N*42
$IIVHW,,,270.,M,01.20,N,02.23,K*1A
$IIMWV,282,R,02.8,N,A*11
$IIVWR,078.,L,02.8,N,01.4,M,005.2,K*60
$IIMWD,,,167.,M,02.8,N,01.4,M*01
$IIMTA,21.7,C*01
$IIMTW,18.7,C*1D
$IIVWT,103.,L,02.8,N,01.4,M,005.2,K*6B
$IIHDG,270.,,,,*7C
$IIHDM,270.,M*17
$IIGLL,4727.914,N,00237.489,W,105422,A,A*4B
$IIZDA,105422,07,07,2017,,*5B
$IIVTG,269.,T,,M,02.9,N,05.4,K,A*2D
$IIDPT,0007.8,,*7D
$IIDBT,0025.7,f,0007.8,M,,*76
$IIVLW,0088.0,N,088.69,N*42
$IIVHW,,,270.,M,01.18,N,02.19,K*18
$IIMWV,282,R,02.8,N,A*11
$IIVWR,078.,L,02.8,N,01.4,M,005.2,K*60
$IIMTA,21.7,C*01
$IIMTW,18.8,C*12
$IIVWT,101.,L,02.7,N,01.4,M,005.0,K*64
$IIHDG,270.,,,,*7C
$IIHDM,270.,M*17
$IIGLL,4727.914,N,00237.491,W,105424,A,A*44
$IIZDA,105424,07,07,2017,,*5D
$IIVTG,269.,T,,M,02.9,N,05.4,K,A*2D
$IIDPT,0007.8,,*7D
$IIDBT,0025.7,f,0007.8,M,,*76
$IIVLW,0088.0,N,088.69,N*42
$IIVHW,,,270.,M,01.22,N,02.25,K*1E
$IIMWV,280,R,02.8,N,A*13
$IIVWR,080.,L,02.8,N,01.4,M,005.2,K*67
$IIMTA,21.7,C*01
$IIMTW,18.8,C*12
$IIVWT,104.,L,02.8,N,01.4,M,005.2,K*6C
$IIHDG,270.,,,,*7C
$IIHDM,270.,M*17
$IIGLL,4727.914,N,00237.491,W,105424,A,A*44
$IIZDA,105424,07,07,2017,,*5D
$IIVTG,269.,T,,M,02.9,N,05.4,K,A*2D
$IIDPT,0008.0,,*7A
$IIDBT,0026.4,f,0008.0,M,,*71
$IIVLW,0088.0,N,088.69,N*42
$IIVHW,,,270.,M,01.18,N,02.18,K*19
$IIMWV,282,R,02.8,N,A*11
$IIVWR,078.,L,02.8,N,01.4,M,005.2,K*60
$IIMWD,,,165.,M,02.8,N,01.4,M*03
$IIMTA,21.7,C*01
$IIMTW,18.8,C*12
$IIVWT,105.,L,02.8,N,01.4,M,005.2,K*6D
$IIHDG,270.,,,,*7C
$IIHDM,270.,M*17
$IIGLL,4727.914,N,00237.494,W,105426,A,A*43
$IIZDA,105426,07,07,2017,,*5F
$IIVTG,270.,T,,M,02.8,N,05.2,K,A*22
$IIDPT,0008.0,,*7A
$IIDBT,0026.4,f,0008.0,M,,*71
$IIVLW,0088.0,N,088.69,N*42
$IIVHW,,,270.,M,01.19,N,02.21,K*12
$IIMWV,279,R,02.8,N,A*15
$IIVWR,081.,L,02.8,N,01.4,M,005.2,K*66
$IIMWD,,,168.,M,02.8,N,01.4,M*0E
$IIMTA,21.7,C*01
$IIMTW,18.8,C*12
$IIVWT,102.,L,02.8,N,01.4,M,005.2,K*6A
$IIHDG,270.,,,,*7C
$IIHDM,270.,M*17
$IIGLL,4727.914,N,00237.494,W,105428,A,A*4D
$IIZDA,105428,07,07,2017,,*51
$IIVTG,270.,T,,M,02.8,N,05.2,K,A*22
$IIDPT,0008.0,,*7A
$IIDBT,0026.4,f,0008.0,M,,*71
$IIVLW,0088.0,N,088.69,N*42
$IIVHW,,,270.,M,01.18,N,02.19,K*18
$IIMWV,281,R,02.7,N,A*1D
$IIVWR,079.,L,02.7,N,01.4,M,005.0,K*6C
$IIMWD,,,165.,M,02.8,N,01.4,M*03
$IIMTA,21.7,C*01
$IIMTW,18.8,C*12
$IIVWT,105.,L,02.8,N,01.4,M,005.2,K*6D
$IIHDG,270.,,,,*7C
$IIHDM,270.,M*17
$IIGLL,4727.914,N,00237.496,W,105428,A,A*4F
$IIZDA,105428,07,07,2017,,*51
$IIVTG,270.,T,,M,02.8,N,05.2,K,A*22
$IIDPT,0007.9,,*7C
$IIDBT,0026.0,f,0007.9,M,,*73
$IIVLW,0088.0,N,088.69,N*42
$IIVHW,,,270.,M,01.19,N,02.20,K*13
$IIMWV,281,R,02.7,N,A*1D
$IIVWR,079.,L,02.7,N,01.4,M,005.0,K*6C
$IIMWD,,,166.,M,02.7,N,01.4,M*0F
$IIMTA,21.7,C*01
$IIMTW,18.8,C*12
$IIVWT,104.,L,02.7,N,01.4,M,005.0,K*61
$IIHDG,270.,,,,*7C
$IIHDM,270.,M*17
$IIGLL,4727.914,N,00237.496,W,105430,A,A*46
$IIZDA,105430,07,07,2017,,*58
$IIVTG,270.,T,,M,02.8,N,05.2,K,A*22
$IIDPT,0007.8,,*7D
$IIDBT,0025.7,f,0007.8,M,,*76
$IIVLW,0088.0,N,088.69,N*42
$IIVHW,,,270.,M,01.20,N,02.22,K*1B
$IIMWV,281,R,02.7,N,A*1D
$IIVWR,079.,L,02.7,N,01.4,M,005.0,K*6C
$IIMWD,,,166.,M,02.7,N,01.4,M*0F
$IIMTA,21.7,C*01
$IIMTW,18.8,C*12
$IIVWT,104.,L,02.7,N,01.4,M,005.0,K*61
$IIHDG,270.,,,,*7C
$IIHDM,270.,M*17
$IIGLL,4727.914,N,00237.496,W,105430,A,A*46
$IIZDA,105430,07,07,2017,,*58
$IIVTG,265.,T,,M,02.9,N,05.4,K,A*21
$IIDPT,0007.8,,*7D
$IIDBT,0025.7,f,0007.8,M,,*76
$IIVLW,0088.0,N,088.69,N*42
$IIVHW,,,270.,M,01.20,N,02.23,K*1A
$IIMWV,282,R,02.7,N,A*1E
$IIVWR,078.,L,02.7,N,01.4,M,005.0,K*6D
$IIMWD,,,166.,M,02.7,N,01.4,M*0F
$IIMTA,21.7,C*01
$IIMTW,18.8,C*12
$IIVWT,104.,L,02.7,N,01.4,M,005.0,K*61
$IIHDG,270.,,,,*7C
$IIHDM,270.,M*17
$IIGLL,4727.913,N,00237.501,W,105432,A,A*4C
$IIZDA,105432,07,07,2017,,*5A
$IIVTG,268.,T,,M,03.0,N,05.6,K,A*26
$IIDPT,0007.8,,*7D
$IIDBT,0025.7,f,0007.8,M,,*76
$IIVLW,0088.0,N,088.69,N*42
$IIVHW,,,270.,M,01.18,N,02.18,K*19
$IIMWV,282,R,02.7,N,A*1E
$IIVWR,078.,L,02.7,N,01.4,M,005.0,K*6D
$IIMWD,,,167.,M,02.7,N,01.4,M*0E
$IIMTA,21.7,C*01
$IIMTW,18.8,C*12
$IIVWT,103.,L,02.7,N,01.4,M,005.0,K*66
$IIHDG,269.,,,,*74
$IIHDM,269.,M*1F
$IIGLL,4727.913,N,00237.501,W,105432,A,A*4C
$IIZDA,105432,07,07,2017,,*5A
$IIVTG,268.,T,,M,03.0,N,05.6,K,A*26
$IIDPT,0007.9,,*7C
$IIDBT,0026.4,f,0008.0,M,,*71
$IIVLW,0088.0,N,088.69,N*42
$IIVHW,,,270.,M,01.14,N,02.12,K*1F
$IIMWV,283,R,02.7,N,A*1F
$IIVWR,077.,L,02.7,N,01.4,M,005.0,K*62
$IIMWD,,,167.,M,02.6,N,01.3,M*08
$IIMTA,21.7,C*01
$IIMTW,18.8,C*12
$IIVWT,102.,L,02.6,N,01.3,M,004.8,K*68
$IIHDG,270.,,,,*7C
$IIHDM,270.,M*17
$IIGLL,4727.913,N,00237.503,W,105434,A,A*48
$IIZDA,105434,07,07,2017,,*5C
$IIVTG,268.,T,,M,03.0,N,05.6,K,A*26
$IIDPT,0007.8,,*7D
$IIDBT,0025.7,f,0007.8,M,,*76
$IIVLW,0088.0,N,088.69,N*42
$IIVHW,,,270.,M,01.13,N,02.09,K*12
$IIMWV,284,R,02.7,N,A*18
$IIVWR,076.,L,02.7,N,01.4,M,005.0,K*63
$IIMWD,,,169.,M,02.6,N,01.3,M*06
$IIMTA,21.7,C*01
$IIMTW,18.8,C*12
$IIVWT,101.,L,02.6,N,01.3,M,004.8,K*6B
$IIHDG,270.,,,,*7C
$IIHDM,270.,M*17
$IIGLL,4727.913,N,00237.503,W,105434,A,A*48
$IIZDA,105434,07,07,2017,,*5C
$IIVTG,270.,T,,M,02.7,N,05.0,K,A*2F
$IIDPT,0007.9,,*7C
$IIDBT,0026.0,f,0007.9,M,,*73
$IIVLW,0088.0,N,088.69,N*42
$IIVHW,,,270.,M,01.13,N,02.09,K*12
$IIMWV,283,R,02.7,N,A*1F
$IIVWR,077.,L,02.7,N,01.4,M,005.0,K*62
$IIMWD,,,170.,M,02.6,N,01.3,M*0E
$IIMTA,21.7,C*01
$IIMTW,18.8,C*12
$IIVWT,100.,L,02.6,N,01.3,M,004.8,K*6A
$IIHDG,270.,,,,*7C
$IIHDM,270.,M*17
$IIGLL,4727.913,N,00237.506,W,105436,A,A*4F
$IIZDA,105436,07,07,2017,,*5E
$IIVTG,268.,T,,M,02.8,N,05.2,K,A*2B
$IIDPT,0008.0,,*7A
$IIDBT,0026.4,f,0008.0,M,,*71
$IIVLW,0088.0,N,088.69,N*42
$IIVHW,,,270.,M,01.11,N,02.06,K*1F
$IIMWV,284,R,02.7,N,A*18
$IIVWR,076.,L,02.7,N,01.4,M,005.0,K*63
$IIMWD,,,169.,M,02.6,N,01.3,M*06
$IIMTA,21.7,C*01
$IIMTW,18.8,C*12
$IIVWT,101.,L,02.6,N,01.3,M,004.8,K*6B
$IIHDG,270.,,,,*7C
$IIHDM,270.,M*17
$IIGLL,4727.913,N,00237.506,W,105438,A,A*41
$IIZDA,105438,07,07,2017,,*50
$IIVTG,268.,T,,M,02.8,N,05.2,K,A*2B
$IIDPT,0008.0,,*7A
$IIDBT,0026.4,f,0008.0,M,,*71
$IIVLW,0088.0,N,088.69,N*42
$IIVHW,,,270.,M,01.08,N,02.00,K*11
$IIMWV,285,R,02.7,N,A*19
$IIVWR,075.,L,02.7,N,01.4,M,005.0,K*60
$IIMWD,,,172.,M,02.6,N,01.3,M*0C
$IIMTA,21.7,C*01
$IIMTW,18.8,C*12
$IIVWT,098.,L,02.6,N,01.3,M,004.8,K*6A
$IIHDG,270.,,,,*7C
$IIHDM,270.,M*17
$IIGLL,4727.913,N,00237.508,W,105438,A,A*4F
$IIZDA,105438,07,07,2017,,*50
$IIVTG,273.,T,,M,02.7,N,05.0,K,A*2C
$IIDPT,0007.9,,*7C
$IIDBT,0026.0,f,0007.9,M,,*73
$IIVLW,0088.0,N,088.69,N*42
$IIVHW,,,270.,M,01.05,N,01.94,K*12
$IIMWV,284,R,02.7,N,A*18
$IIVWR,076.,L,02.7,N,01.4,M,005.0,K*63
$IIMWD,,,172.,M,02.6,N,01.3,M*0C
$IIMTA,21.7,C*01
$IIMTW,18.8,C*12
$IIVWT,098.,L,02.6,N,01.3,M,004.8,K*6A
$IIHDG,270.,,,,*7C
$IIHDM,270.,M*17
$IIGLL,4727.913,N,00237.508,W,105440,A,A*40
$IIZDA,105440,07,07,2017,,*5F
$IIVTG,273.,T,,M,02.7,N,05.0,K,A*2C
$IIDPT,0007.8,,*7D
$IIDBT,0025.7,f,0007.8,M,,*76
$IIVLW,0088.0,N,088.69,N*42
$IIVHW,,,270.,M,01.02,N,01.89,K*19
$IIMWV,285,R,02.7,N,A*19
$IIVWR,075.,L,02.7,N,01.4,M,005.0,K*60
$IIMWD,,,172.,M,02.6,N,01.3,M*0C
$IIMTA,21.7,C*01
$IIMTW,18.8,C*12
$IIVWT,098.,L,02.6,N,01.3,M,004.8,K*6A
$IIHDG,270.,,,,*7C
$IIHDM,270.,M*17
$IIGLL,4727.913,N,00237.510,W,105440,A,A*49
$IIZDA,105440,07,07,2017,,*5F
$IIVTG,265.,T,,M,02.8,N,05.2,K,A*26
$IIDPT,0007.9,,*7C
$IIDBT,0026.0,f,0007.9,M,,*73
$IIVLW,0088.0,N,088.69,N*42
$IIVHW,,,270.,M,01.02,N,01.89,K*19
$IIMWV,286,R,02.6,N,A*1B
$IIVWR,074.,L,02.6,N,01.3,M,004.8,K*6E
$IIMWD,,,173.,M,02.6,N,01.3,M*0D
$IIMTA,21.7,C*01
$IIMTW,18.8,C*12
$IIVWT,097.,L,02.5,N,01.3,M,004.6,K*68
$IIHDG,269.,,,,*74
$IIHDM,269.,M*1F
$IIGLL,4727.913,N,00237.510,W,105442,A,A*4B
$IIZDA,105442,07,07,2017,,*5D
$IIVTG,265.,T,,M,02.8,N,05.2,K,A*26
$IIDPT,0007.9,,*7C
$IIDBT,0026.0,f,0007.9,M,,*73
$IIVLW,0088.0,N,088.70,N*4A
$IIVHW,,,270.,M,00.98,N,01.81,K*13
$IIMWV,286,R,02.6,N,A*1B
$IIVWR,074.,L,02.6,N,01.3,M,004.8,K*6E
$IIMWD,,,173.,M,02.5,N,01.3,M*0E
$IIMTA,21.7,C*01
$IIMTW,18.8,C*12
$IIVWT,096.,L,02.5,N,01.3,M,004.6,K*69
$IIHDG,270.,,,,*7C
$IIHDM,270.,M*17
$IIGLL,4727.913,N,00237.510,W,105442,A,A*4B
$IIZDA,105442,07,07,2017,,*5D
$IIVTG,268.,T,,M,02.7,N,05.0,K,A*26
$IIDPT,0007.9,,*7C
$IIDBT,0026.0,f,0007.9,M,,*73
$IIVLW,0088.0,N,088.70,N*4A
$IIVHW,,,270.,M,00.99,N,01.83,K*10
$IIMWV,286,R,02.6,N,A*1B
$IIVWR,074.,L,02.6,N,01.3,M,004.8,K*6E
$IIMWD,,,174.,M,02.5,N,01.3,M*09
$IIMTA,21.7,C*01
$IIMTW,18.8,C*12
$IIVWT,096.,L,02.5,N,01.3,M,004.6,K*69
$IIHDG,270.,,,,*7C
$IIHDM,270.,M*17
$IIGLL,4727.913,N,00237.514,W,105444,A,A*49
$IIZDA,105444,07,07,2017,,*5B
$IIVTG,270.,T,,M,02.7,N,05.0,K,A*2F
$IIDPT,0008.0,,*7A
$IIDBT,0026.4,f,0008.0,M,,*71
$IIVLW,0088.0,N,088.70,N*4A
$IIVHW,,,270.,M,01.01,N,01.87,K*14
$IIMWV,285,R,02.6,N,A*18
$IIVWR,075.,L,02.6,N,01.3,M,004.8,K*6F
$IIMWD,,,172.,M,02.5,N,01.3,M*0F
$IIMTA,21.7,C*01
$IIMTW,18.8,C*12
$IIVWT,098.,L,02.5,N,01.3,M,004.6,K*67
$IIHDG,270.,,,,*7C
$IIHDM,270.,M*17
$IIGLL,4727.913,N,00237.514,W,105444,A,A*49
$IIZDA,105444,07,07,2017,,*5B
$IIVTG,270.,T,,M,02.7,N,05.0,K,A*2F
$IIDPT,0007.8,,*7D
$IIDBT,0025.7,f,0007.8,M,,*76
$IIVLW,0088.0,N,088.70,N*4A
$IIVHW,,,270.,M,00.98,N,01.82,K*10
$IIMWV,286,R,02.6,N,A*1B
$IIVWR,074.,L,02.6,N,01.3,M,004.8,K*6E
$IIMWD,,,174.,M,02.5,N,01.3,M*09
$IIMTA,21.7,C*01
$IIMTW,18.8,C*12
$IIVWT,096.,L,02.5,N,01.3,M,004.6,K*69
$IIHDG,270.,,,,*7C
$IIHDM,270.,M*17
$IIGLL,4727.913,N,00237.517,W,105446,A,A*48
$IIZDA,105446,07,07,2017,,*59
$IIVTG,270.,T,,M,02.7,N,05.0,K,A*2F
$IIDPT,0007.9,,*7C
$IIDBT,0026.0,f,0007.9,M,,*73
$IIVLW,0088.0,N,088.70,N*4A
$IIVHW,,,270.,M,00.99,N,01.83,K*10
$IIMWV,284,R,02.6,N,A*19
$IIVWR,076.,L,02.6,N,01.3,M,004.8,K*6C
$IIMWD,,,173.,M,02.5,N,01.3,M*0E
$IIMTA,21.7,C*01
$IIMTW,18.8,C*12
$IIVWT,097.,L,02.5,N,01.3,M,004.6,K*68
$IIHDG,270.,,,,*7C
$IIHDM,270.,M*17
$IIGLL,4727.913,N,00237.517,W,105446,A,A*48
$IIZDA,105446,07,07,2017,,*59
$IIVTG,268.,T,,M,02.6,N,04.8,K,A*2E
$IIDPT,0008.0,,*7A
$IIDBT,0026.4,f,0008.0,M,,*71
$IIVLW,0088.0,N,088.70,N*4A
$IIVHW,,,270.,M,00.97,N,01.80,K*1D
$IIMWV,283,R,02.6,N,A*1E
$IIVWR,077.,L,02.6,N,01.3,M,004.8,K*6D
$IIMWD,,,172.,M,02.5,N,01.3,M*0F
$IIMTA,21.7,C*01
$IIMTW,18.8,C*12
$IIVWT,098.,L,02.5,N,01.3,M,004.6,K*67
$IIHDG,270.,,,,*7C
$IIHDM,271.,M*16
$IIGLL,4727.913,N,00237.519,W,105448,A,A*48
$IIZDA,105448,07,07,2017,,*57
$IIVTG,269.,T,,M,02.6,N,04.8,K,A*2F
$IIDPT,0008.0,,*7A
$IIDBT,0026.4,f,0008.0,M,,*71
$IIVLW,0088.0,N,088.70,N*4A
$IIVHW,,,271.,M,00.90,N,01.67,K*12
$IIMWV,284,R,02.6,N,A*19
$IIVWR,076.,L,02.6,N,01.3,M,004.8,K*6C
$IIMWD,,,172.,M,02.5,N,01.3,M*0F
$IIMTA,21.7,C*01
$IIMTW,18.8,C*12
$IIVWT,098.,L,02.5,N,01.3,M,004.6,K*67
$IIHDG,271.,,,,*7D
$IIHDM,271.,M*16
$IIGLL,4727.913,N,00237.519,W,105450,A,A*41
$IIZDA,105450,07,07,2017,,*5E
$IIVTG,269.,T,,M,02.6,N,04.8,K,A*2F
$IIDPT,0007.9,,*7C
$IIDBT,0026.0,f,0007.9,M,,*73
$IIVLW,0088.0,N,088.70,N*4A
$IIVHW,,,271.,M,00.84,N,01.56,K*15
$IIMWV,283,R,02.6,N,A*1E
$IIVWR,077.,L,02.6,N,01.3,M,004.8,K*6D
$IIMWD,,,175.,M,02.5,N,01.3,M*08
$IIMTA,21.7,C*01
$IIMTW,18.8,C*12
$IIVWT,096.,L,02.5,N,01.3,M,004.6,K*69
$IIHDG,271.,,,,*7D
$IIHDM,271.,M*16
$IIGLL,4727.913,N,00237.521,W,105450,A,A*4A
$IIZDA,105450,07,07,2017,,*5E
$IIVTG,269.,T,,M,02.7,N,05.0,K,A*27
$IIDPT,0007.9,,*7C
$IIDBT,0026.0,f,0007.9,M,,*73
$IIVLW,0088.0,N,088.70,N*4A
$IIVHW,,,270.,M,00.79,N,01.46,K*17
$IIMWV,282,R,02.6,N,A*1F
$IIVWR,078.,L,02.6,N,01.3,M,004.8,K*62
$IIMWD,,,175.,M,02.5,N,01.3,M*08
$IIMTA,21.7,C*01
$IIMTW,18.8,C*12
$IIVWT,095.,L,02.5,N,01.3,M,004.6,K*6A
$IIHDG,271.,,,,*7D
$IIHDM,271.,M*16
$IIGLL,4727.913,N,00237.521,W,105452,A,A*48
$IIZDA,105452,07,07,2017,,*5C
$IIVTG,269.,T,,M,02.7,N,05.0,K,A*27
$IIDPT,0007.9,,*7C
$IIDBT,0026.0,f,0007.9,M,,*73
$IIVLW,0088.0,N,088.70,N*4A
$IIVHW,,,271.,M,00.76,N,01.41,K*1E
$IIMWV,283,R,02.6,N,A*1E
$IIVWR,077.,L,02.6,N,01.3,M,004.8,K*6D
$IIMWD,,,177.,M,02.5,N,01.3,M*0A
$IIMTA,21.7,C*01
$IIMTW,18.8,C*12
$IIVWT,094.,L,02.5,N,01.3,M,004.6,K*6B
$IIHDG,271.,,,,*7D
$IIHDM,271.,M*16
$IIGLL,4727.913,N,00237.523,W,105452,A,A*4A
$IIZDA,105452,07,07,2017,,*5C
$IIVTG,266.,T,,M,02.6,N,04.8,K,A*20
$IIDPT,0007.8,,*7D
$IIDBT,0025.7,f,0007.8,M,,*76
$IIVLW,0088.0,N,088.70,N*4A
$IIVHW,,,271.,M,00.77,N,01.42,K*1C
$IIMWV,282,R,02.6,N,A*1F
$IIVWR,078.,L,02.6,N,01.3,M,004.8,K*62
$IIMWD,,,177.,M,02.5,N,01.3,M*0A
$IIMTA,21.7,C*01
$IIMTW,18.8,C*12
$IIVWT,095.,L,02.5,N,01.3,M,004.6,K*6A
$IIHDG,271.,,,,*7D
$IIHDM,271.,M*16
$IIGLL,4727.913,N,00237.525,W,105454,A,A*4A
$IIZDA,105454,07,07,2017,,*5A
$IIVTG,266.,T,,M,02.6,N,04.8,K,A*20
$IIDPT,0007.8,,*7D
$IIDBT,0025.7,f,0007.8,M,,*76
$IIVLW,0088.0,N,088.70,N*4A
$IIVHW,,,271.,M,00.77,N,01.42,K*1C
$IIMWV,283,R,02.6,N,A*1E
$IIVWR,077.,L,02.6,N,01.3,M,004.8,K*6D
$IIMWD,,,176.,M,02.5,N,01.3,M*0B
$IIMTA,21.7,C*01
$IIMTW,18.8,C*12
$IIVWT,094.,L,02.5,N,01.3,M,004.6,K*6B
$IIHDG,271.,,,,*7D
$IIHDM,271.,M*16
$IIGLL,4727.913,N,00237.525,W,105454,A,A*4A
$IIZDA,105454,07,07,2017,,*5A
$IIVTG,266.,T,,M,02.7,N,05.0,K,A*28
$IIDPT,0007.9,,*7C
$IIDBT,0026.0,f,0007.9,M,,*73
$IIVLW,0088.0,N,088.70,N*4A
$IIVHW,,,271.,M,00.77,N,01.42,K*1C
$IIMWV,283,R,02.6,N,A*1E
$IIVWR,077.,L,02.6,N,01.3,M,004.8,K*6D
$IIMWD,,,177.,M,02.5,N,01.3,M*0A
$IIMTA,21.7,C*01
$IIMTW,18.8,C*12
$IIVWT,094.,L,02.5,N,01.3,M,004.6,K*6B
$IIHDG,271.,,,,*7D
$IIHDM,271.,M*16
$IIGLL,4727.913,N,00237.527,W,105456,A,A*4A
$IIZDA,105456,07,07,2017,,*58
$IIVTG,268.,T,,M,02.6,N,04.8,K,A*2E
$IIDPT,0008.0,,*7A
$IIDBT,0026.4,f,0008.0,M,,*71
$IIVLW,0088.0,N,088.70,N*4A
$IIVHW,,,271.,M,00.77,N,01.42,K*1C
$IIMWV,283,R,02.5,N,A*1D
$IIVWR,077.,L,02.5,N,01.3,M,004.6,K*60
$IIMWD,,,176.,M,02.4,N,01.2,M*0B
$IIMTA,21.7,C*01
$IIMTW,18.8,C*12
$IIVWT,095.,L,02.4,N,01.2,M,004.4,K*68
$IIHDG,271.,,,,*7D
$IIHDM,272.,M*15
$IIGLL,4727.913,N,00237.527,W,105456,A,A*4A
$IIZDA,105456,07,07,2017,,*58
$IIVTG,268.,T,,M,02.6,N,04.8,K,A*2E
$IIDPT,0008.0,,*7A
$IIDBT,0026.4,f,0008.0,M,,*71
$IIVLW,0088.0,N,088.70,N*4A
$IIVHW,,,272.,M,00.79,N,01.46,K*15
$IIMWV,284,R,02.5,N,A*1A
$IIVWR,076.,L,02.5,N,01.3,M,004.6,K*61
$IIMWD,,,177.,M,02.4,N,01.2,M*0A
$IIMTA,21.7,C*01
$IIMTW,18.8,C*12
$IIVWT,095.,L,02.4,N,01.2,M,004.4,K*68
$IIHDG,271.,,,,*7D
$IIHDM,271.,M*16
$IIGLL,4727.913,N,00237.529,W,105458,A,A*4A
$IIZDA,105458,07,07,2017,,*56
$IIVTG,271.,T,,M,02.6,N,04.8,K,A*26
$IIDPT,0007.9,,*7C
$IIDBT,0026.0,f,0007.9,M,,*73
$IIVLW,0088.0,N,088.70,N*4A
$IIVHW,,,272.,M,00.79,N,01.47,K*14
$IIMWV,283,R,02.5,N,A*1D
$IIVWR,077.,L,02.5,N,01.3,M,004.6,K*60
$IIMWD,,,176.,M,02.4,N,01.2,M*0B
$IIMTA,21.7,C*01
$IIMTW,18.8,C*12
$IIVWT,095.,L,02.4,N,01.2,M,004.4,K*68
$IIHDG,272.,,,,*7E
$IIHDM,272.,M*15
$IIGLL,4727.913,N,00237.529,W,105500,A,A*46
$IIZDA,105500,07,07,2017,,*5A
$IIVTG,271.,T,,M,02.6,N,04.8,K,A*26
$IIDPT,0007.8,,*7D
$IIDBT,0025.7,f,0007.8,M,,*76
$IIVLW,0088.0,N,088.70,N*4A
$IIVHW,,,272.,M,00.82,N,01.51,K*17
$IIMWV,285,R,02.5,N,A*1B
$IIVWR,075.,L,02.5,N,01.3,M,004.6,K*62
$IIMWD,,,177.,M,02.4,N,01.2,M*0A
$IIMTA,21.7,C*01
$IIMTW,18.8,C*12
$IIVWT,095.,L,02.4,N,01.2,M,004.4,K*68
$IIHDG,271.,,,,*7D
$IIHDM,271.,M*16
$IIGLL,4727.913,N,00237.531,W,105500,A,A*4F
$IIZDA,105500,07,07,2017,,*5A
$IIVTG,270.,T,,M,02.6,N,04.8,K,A*27
$IIDPT,0008.0,,*7A
$IIDBT,0026.4,f,0008.0,M,,*71
$IIVLW,0088.0,N,088.70,N*4A
$IIVHW,,,271.,M,00.82,N,01.52,K*17
$IIMWV,284,R,02.5,N,A*1A
$IIVWR,076.,L,02.5,N,01.3,M,004.6,K*61
$IIMWD,,,177.,M,02.4,N,01.2,M*0A
$IIMTA,21.7,C*01
$IIMTW,18.8,C*12
$IIVWT,094.,L,02.4,N,01.2,M,004.4,K*69
$IIHDG,272.,,,,*7E
$IIHDM,272.,M*15
$IIGLL,4727.913,N,00237.531,W,105502,A,A*4D
$IIZDA,105502,07,07,2017,,*58
$IIVTG,270.,T,,M,02.6,N,04.8,K,A*27
$IIDPT,0007.9,,*7C
$IIDBT,0026.0,f,0007.9,M,,*73
$IIVLW,0088.0,N,088.70,N*4A
$IIVHW,,,272.,M,00.78,N,01.45,K*17
$IIMWV,284,R,02.5,N,A*1A
$IIVWR,076.,L,02.5,N,01.3,M,004.6,K*61
$IIMWD,,,176.,M,02.4,N,01.2,M*0B
$IIMTA,21.7,C*01
$IIMTW,18.8,C*12
$IIVWT,095.,L,02.4,N,01.2,M,004.4,K*68
$IIHDG,272.,,,,*7E
$IIHDM,272.,M*15
$IIGLL,4727.913,N,00237.533,W,105502,A,A*4F
$IIZDA,105502,07,07,2017,,*58
$IIVTG,269.,T,,M,02.6,N,04.8,K,A*2F
$IIDPT,0007.8,,*7D
$IIDBT,0025.7,f,0007.8,M,,*76
$IIVLW,0088.0,N,088.70,N*4A
$IIVHW,,,272.,M,00.76,N,01.40,K*1C
$IIMWV,281,R,02.5,N,A*1F
$IIVWR,079.,L,02.5,N,01.3,M,004.6,K*6E
$IIMWD,,,178.,M,02.4,N,01.2,M*05
$IIMTA,21.7,C*01
$IIMTW,18.8,C*12
$IIVWT,096.,L,02.4,N,01.2,M,004.4,K*6B
$IIHDG,272.,,,,*7E
$IIHDM,272.,M*15
$IIGLL,4727.913,N,00237.533,W,105504,A,A*49
$IIZDA,105504,07,07,2017,,*5E
$IIVTG,269.,T,,M,02.6,N,04.8,K,A*2F
$IIDPT,0008.0,,*7A
$IIDBT,0026.4,f,0008.0,M,,*71
$IIVLW,0088.0,N,088.70,N*4A
$IIVHW,,,272.,M,00.73,N,01.36,K*18
$IIMWV,283,R,02.5,N,A*1D
$IIVWR,077.,L,02.5,N,01.3,M,004.6,K*60
$IIMWD,,,176.,M,02.4,N,01.2,M*0B
$IIMTA,21.7,C*01
$IIMTW,18.8,C*12
$IIVWT,096.,L,02.4,N,01.2,M,004.4,K*6B
$IIHDG,272.,,,,*7E
$IIHDM,272.,M*15
$IIGLL,4727.913,N,00237.535,W,105504,A,A*4F
$IIZDA,105504,07,07,2017,,*5E
$IIVTG,271.,T,,M,02.5,N,04.6,K,A*2B
