20170922 Sortie Arzal / Le Crouesty et retour
partie 2/2

$IIGLL,4728.422,N,00247.213,W,125258,A,A*47
$IIZDA,125258,07,07,2017,,*52
$IIVTG,269.,T,,M,03.6,N,06.7,K,A*23
$IIDPT,0005.9,,*7E
$IIDBT,0019.2,f,0005.9,M,,*7F
$IIVLW,0093.0,N,093.82,N*47
$IIVHW,,,266.,M,03.29,N,06.09,K*1A
$IIMWV,326,R,07.9,N,A*1A
$IIVWR,034.,L,07.9,N,04.1,M,014.6,K*68
$IIMWD,,,213.,M,05.4,N,02.8,M*05
$IIMTA,20.6,C*01
$IIMTW,18.6,C*1C
$IIVWT,053.,L,05.4,N,02.8,M,010.0,K*6D
$IIHDG,266.,,,,*7B
$IIHDM,266.,M*10
$IIGLL,4728.422,N,00247.213,W,125300,A,A*4B
$IIZDA,125300,07,07,2017,,*5E
$IIVTG,269.,T,,M,03.6,N,06.7,K,A*23
$IIDPT,0005.9,,*7E
$IIDBT,0019.2,f,0005.9,M,,*7F
$IIVLW,0093.0,N,093.82,N*47
$IIVHW,,,266.,M,03.25,N,06.02,K*1D
$IIMWV,327,R,07.9,N,A*1B
$IIVWR,033.,L,07.9,N,04.1,M,014.6,K*6F
$IIMWD,,,214.,M,05.4,N,02.8,M*02
$IIMTA,20.6,C*01
$IIMTW,18.6,C*1C
$IIVWT,052.,L,05.4,N,02.8,M,010.0,K*6C
$IIHDG,266.,,,,*7B
$IIHDM,266.,M*10
$IIGLL,4728.422,N,00247.216,W,125300,A,A*4E
$IIZDA,125300,07,07,2017,,*5E
$IIVTG,267.,T,,M,03.4,N,06.3,K,A*2B
$IIDPT,0005.9,,*7E
$IIDBT,0019.2,f,0005.9,M,,*7F
$IIVLW,0093.0,N,093.82,N*47
$IIVHW,,,266.,M,03.22,N,05.96,K*14
$IIMWV,327,R,07.9,N,A*1B
$IIVWR,033.,L,07.9,N,04.1,M,014.6,K*6F
$IIMWD,,,214.,M,05.4,N,02.8,M*02
$IIMTA,20.6,C*01
$IIMTW,18.6,C*1C
$IIVWT,052.,L,05.4,N,02.8,M,010.0,K*6C
$IIHDG,266.,,,,*7B
$IIHDM,266.,M*10
$IIGLL,4728.422,N,00247.216,W,125302,A,A*4C
$IIZDA,125302,07,07,2017,,*5C
$IIVTG,267.,T,,M,03.4,N,06.3,K,A*2B
$IIDPT,0005.9,,*7E
$IIDBT,0019.2,f,0005.9,M,,*7F
$IIVLW,0093.0,N,093.82,N*47
$IIVHW,,,267.,M,03.20,N,05.93,K*12
$IIMWV,327,R,07.9,N,A*1B
$IIVWR,033.,L,07.9,N,04.1,M,014.6,K*6F
$IIMWD,,,214.,M,05.4,N,02.8,M*02
$IIMTA,20.6,C*01
$IIMTW,18.6,C*1C
$IIVWT,051.,L,05.4,N,02.8,M,010.0,K*6F
$IIHDG,267.,,,,*7A
$IIHDM,267.,M*11
$IIGLL,4728.422,N,00247.219,W,125302,A,A*43
$IIZDA,125302,07,07,2017,,*5C
$IIVTG,270.,T,,M,03.5,N,06.5,K,A*2A
$IIDPT,0005.9,,*7E
$IIDBT,0019.2,f,0005.9,M,,*7F
$IIVLW,0093.0,N,093.82,N*47
$IIVHW,,,267.,M,03.19,N,05.91,K*1A
$IIMWV,327,R,07.9,N,A*1B
$IIVWR,033.,L,07.9,N,04.1,M,014.6,K*6F
$IIMTA,20.6,C*01
$IIMTW,18.6,C*1C
$IIVWT,051.,L,05.4,N,02.8,M,010.0,K*6F
$IIHDG,267.,,,,*7A
$IIHDM,267.,M*11
$IIGLL,4728.422,N,00247.222,W,125304,A,A*4D
$IIZDA,125304,07,07,2017,,*5A
$IIVTG,270.,T,,M,03.5,N,06.5,K,A*2A
$IIDPT,0005.9,,*7E
$IIDBT,0019.2,f,0005.9,M,,*7F
$IIVLW,0093.0,N,093.82,N*47
$IIVHW,,,267.,M,03.14,N,05.82,K*15
$IIMWV,326,R,07.9,N,A*1A
$IIVWR,034.,L,07.9,N,04.1,M,014.6,K*68
$IIMWD,,,216.,M,05.5,N,02.8,M*01
$IIMTA,20.6,C*01
$IIMTW,18.6,C*1C
$IIVWT,051.,L,05.5,N,02.8,M,010.2,K*6C
$IIHDG,268.,,,,*75
$IIHDM,268.,M*1E
$IIGLL,4728.422,N,00247.222,W,125304,A,A*4D
$IIZDA,125304,07,07,2017,,*5A
$IIVTG,271.,T,,M,03.5,N,06.5,K,A*2B
$IIDPT,0005.9,,*7E
$IIDBT,0019.2,f,0005.9,M,,*7F
$IIVLW,0093.0,N,093.82,N*47
$IIVHW,,,268.,M,03.13,N,05.80,K*1F
$IIMWV,326,R,07.9,N,A*1A
$IIVWR,034.,L,07.9,N,04.1,M,014.6,K*68
$IIMWD,,,215.,M,05.5,N,02.8,M*02
$IIMTA,20.6,C*01
$IIMTW,18.6,C*1C
$IIVWT,052.,L,05.5,N,02.8,M,010.2,K*6F
$IIHDG,268.,,,,*75
$IIHDM,268.,M*1E
$IIGLL,4728.422,N,00247.224,W,125306,A,A*49
$IIZDA,125306,07,07,2017,,*58
$IIVTG,271.,T,,M,03.5,N,06.5,K,A*2B
$IIDPT,0005.7,,*70
$IIDBT,0018.8,f,0005.7,M,,*7A
$IIVLW,0093.0,N,093.82,N*47
$IIVHW,,,268.,M,03.12,N,05.78,K*19
$IIMWV,326,R,07.9,N,A*1A
$IIVWR,034.,L,07.9,N,04.1,M,014.6,K*68
$IIMWD,,,216.,M,05.5,N,02.8,M*01
$IIMTA,20.6,C*01
$IIMTW,18.6,C*1C
$IIVWT,052.,L,05.5,N,02.8,M,010.2,K*6F
$IIHDG,268.,,,,*75
$IIHDM,268.,M*1E
$IIGLL,4728.422,N,00247.224,W,125306,A,A*49
$IIZDA,125306,07,07,2017,,*58
$IIVTG,269.,T,,M,03.4,N,06.3,K,A*25
$IIDPT,0005.9,,*7E
$IIDBT,0019.2,f,0005.9,M,,*7F
$IIVLW,0093.0,N,093.83,N*46
$IIVHW,,,268.,M,03.12,N,05.77,K*16
$IIMWV,326,R,07.9,N,A*1A
$IIVWR,034.,L,07.9,N,04.1,M,014.6,K*68
$IIMWD,,,216.,M,05.5,N,02.8,M*01
$IIMTA,20.6,C*01
$IIMTW,18.6,C*1C
$IIVWT,052.,L,05.5,N,02.8,M,010.2,K*6F
$IIHDG,268.,,,,*75
$IIHDM,268.,M*1E
$IIGLL,4728.422,N,00247.227,W,125308,A,A*44
$IIZDA,125308,07,07,2017,,*56
$IIVTG,271.,T,,M,03.4,N,06.3,K,A*2C
$IIDPT,0005.9,,*7E
$IIDBT,0019.2,f,0005.9,M,,*7F
$IIVLW,0093.0,N,093.83,N*46
$IIVHW,,,268.,M,03.12,N,05.77,K*16
$IIMWV,325,R,07.9,N,A*19
$IIVWR,035.,L,07.9,N,04.1,M,014.6,K*69
$IIMTA,20.6,C*01
$IIMTW,18.6,C*1C
$IIVWT,053.,L,05.6,N,02.9,M,010.4,K*6A
$IIHDG,269.,,,,*74
$IIHDM,269.,M*1F
$IIGLL,4728.422,N,00247.227,W,125310,A,A*4D
$IIZDA,125310,07,07,2017,,*5F
$IIVTG,271.,T,,M,03.4,N,06.3,K,A*2C
$IIDPT,0005.7,,*70
$IIDBT,0018.8,f,0005.7,M,,*7A
$IIVLW,0093.0,N,093.83,N*46
$IIVHW,,,269.,M,03.12,N,05.77,K*17
$IIMWV,325,R,07.9,N,A*19
$IIVWR,035.,L,07.9,N,04.1,M,014.6,K*69
$IIMWD,,,216.,M,05.6,N,02.9,M*03
$IIMTA,20.6,C*01
$IIMTW,18.6,C*1C
$IIVWT,053.,L,05.6,N,02.9,M,010.4,K*6A
$IIHDG,269.,,,,*74
$IIHDM,269.,M*1F
$IIGLL,4728.422,N,00247.230,W,125310,A,A*4B
$IIZDA,125310,07,07,2017,,*5F
$IIVTG,273.,T,,M,03.3,N,06.1,K,A*2B
$IIDPT,0005.7,,*70
$IIDBT,0018.8,f,0005.7,M,,*7A
$IIVLW,0093.0,N,093.83,N*46
$IIVHW,,,269.,M,03.11,N,05.76,K*15
$IIMWV,325,R,07.9,N,A*19
$IIVWR,035.,L,07.9,N,04.1,M,014.6,K*69
$IIMWD,,,216.,M,05.6,N,02.9,M*03
$IIMTA,20.6,C*01
$IIMTW,18.6,C*1C
$IIVWT,053.,L,05.6,N,02.9,M,010.4,K*6A
$IIHDG,269.,,,,*74
$IIHDM,269.,M*1F
$IIGLL,4728.422,N,00247.230,W,125312,A,A*49
$IIZDA,125312,07,07,2017,,*5D
$IIVTG,273.,T,,M,03.3,N,06.1,K,A*2B
$IIDPT,0005.6,,*71
$IIDBT,0018.5,f,0005.6,M,,*76
$IIVLW,0093.0,N,093.83,N*46
$IIVHW,,,270.,M,03.09,N,05.73,K*11
$IIMWV,325,R,07.9,N,A*19
$IIVWR,035.,L,07.9,N,04.1,M,014.6,K*69
$IIMWD,,,216.,M,05.6,N,02.9,M*03
$IIMTA,20.6,C*01
$IIMTW,18.6,C*1C
$IIVWT,053.,L,05.6,N,02.9,M,010.4,K*6A
$IIHDG,270.,,,,*7C
$IIHDM,270.,M*17
$IIGLL,4728.422,N,00247.233,W,125312,A,A*4A
$IIZDA,125312,07,07,2017,,*5D
$IIVTG,273.,T,,M,03.5,N,06.5,K,A*29
$IIDPT,0005.6,,*71
$IIDBT,0018.5,f,0005.6,M,,*76
$IIVLW,0093.0,N,093.83,N*46
$IIVHW,,,270.,M,03.07,N,05.68,K*15
$IIMWV,325,R,07.9,N,A*19
$IIVWR,035.,L,07.9,N,04.1,M,014.6,K*69
$IIMWD,,,217.,M,05.6,N,02.9,M*02
$IIMTA,20.6,C*01
$IIMTW,18.5,C*1F
$IIVWT,053.,L,05.6,N,02.9,M,010.4,K*6A
$IIHDG,270.,,,,*7C
$IIHDM,270.,M*17
$IIGLL,4728.422,N,00247.235,W,125314,A,A*4A
$IIZDA,125314,07,07,2017,,*5B
$IIVTG,273.,T,,M,03.5,N,06.5,K,A*29
$IIDPT,0005.7,,*70
$IIDBT,0018.8,f,0005.7,M,,*7A
$IIVLW,0093.0,N,093.83,N*46
$IIVHW,,,270.,M,03.09,N,05.72,K*10
$IIMWV,325,R,07.8,N,A*18
$IIVWR,035.,L,07.8,N,04.0,M,014.4,K*6B
$IIMWD,,,217.,M,05.6,N,02.9,M*02
$IIMTA,20.6,C*01
$IIMTW,18.6,C*1C
$IIVWT,053.,L,05.5,N,02.8,M,010.2,K*6E
$IIHDG,270.,,,,*7C
$IIHDM,270.,M*17
$IIGLL,4728.422,N,00247.235,W,125314,A,A*4A
$IIZDA,125314,07,07,2017,,*5B
$IIVTG,277.,T,,M,03.5,N,06.5,K,A*2D
$IIDPT,0005.9,,*7E
$IIDBT,0019.2,f,0005.9,M,,*7F
$IIVLW,0093.0,N,093.83,N*46
$IIVHW,,,270.,M,03.05,N,05.65,K*1A
$IIMWV,325,R,07.8,N,A*18
$IIVWR,035.,L,07.8,N,04.0,M,014.4,K*6B
$IIMTA,20.6,C*01
$IIMTW,18.6,C*1C
$IIVWT,053.,L,05.5,N,02.8,M,010.2,K*6E
$IIHDG,271.,,,,*7D
$IIHDM,271.,M*16
$IIGLL,4728.422,N,00247.238,W,125316,A,A*45
$IIZDA,125316,07,07,2017,,*59
$IIVTG,277.,T,,M,03.5,N,06.5,K,A*2D
$IIDPT,0005.7,,*70
$IIDBT,0018.8,f,0005.7,M,,*7A
$IIVLW,0093.0,N,093.83,N*46
$IIVHW,,,271.,M,03.05,N,05.65,K*1B
$IIMWV,325,R,07.8,N,A*18
$IIVWR,035.,L,07.8,N,04.0,M,014.4,K*6B
$IIMTA,20.6,C*01
$IIMTW,18.6,C*1C
$IIVWT,053.,L,05.5,N,02.8,M,010.2,K*6E
$IIHDG,271.,,,,*7D
$IIHDM,271.,M*16
$IIGLL,4728.422,N,00247.238,W,125316,A,A*45
$IIZDA,125316,07,07,2017,,*59
$IIVTG,277.,T,,M,03.3,N,06.1,K,A*2F
$IIDPT,0005.6,,*71
$IIDBT,0018.5,f,0005.6,M,,*76
$IIVLW,0093.0,N,093.83,N*46
$IIVHW,,,271.,M,03.07,N,05.68,K*14
$IIMWV,325,R,07.8,N,A*18
$IIVWR,035.,L,07.8,N,04.0,M,014.4,K*6B
$IIMWD,,,218.,M,05.5,N,02.8,M*0F
$IIMTA,20.6,C*01
$IIMTW,18.6,C*1C
$IIVWT,053.,L,05.5,N,02.8,M,010.2,K*6E
$IIHDG,272.,,,,*7E
$IIHDM,272.,M*15
$IIGLL,4728.423,N,00247.241,W,125318,A,A*44
$IIZDA,125318,07,07,2017,,*57
$IIVTG,277.,T,,M,03.4,N,06.3,K,A*2A
$IIDPT,0005.6,,*71
$IIDBT,0018.5,f,0005.6,M,,*76
$IIVLW,0093.0,N,093.83,N*46
$IIVHW,,,272.,M,03.08,N,05.70,K*11
$IIMWV,325,R,07.8,N,A*18
$IIVWR,035.,L,07.8,N,04.0,M,014.4,K*6B
$IIMWD,,,219.,M,05.5,N,02.8,M*0E
$IIMTA,20.6,C*01
$IIMTW,18.6,C*1C
$IIVWT,053.,L,05.5,N,02.8,M,010.2,K*6E
$IIHDG,272.,,,,*7E
$IIHDM,272.,M*15
$IIGLL,4728.423,N,00247.241,W,125318,A,A*44
$IIZDA,125318,07,07,2017,,*57
$IIVTG,277.,T,,M,03.4,N,06.3,K,A*2A
$IIDPT,0005.6,,*71
$IIDBT,0018.5,f,0005.6,M,,*76
$IIVLW,0093.0,N,093.84,N*41
$IIVHW,,,272.,M,03.09,N,05.72,K*12
$IIMWV,325,R,07.9,N,A*19
$IIVWR,035.,L,07.9,N,04.1,M,014.6,K*69
$IIMWD,,,219.,M,05.6,N,02.9,M*0C
$IIMTA,20.6,C*01
$IIMTW,18.6,C*1C
$IIVWT,053.,L,05.6,N,02.9,M,010.4,K*6A
$IIHDG,272.,,,,*7E
$IIHDM,272.,M*15
$IIGLL,4728.423,N,00247.244,W,125320,A,A*4A
$IIZDA,125320,07,07,2017,,*5C
$IIVTG,276.,T,,M,03.5,N,06.5,K,A*2C
$IIDPT,0005.6,,*71
$IIDBT,0018.5,f,0005.6,M,,*76
$IIVLW,0093.0,N,093.84,N*41
$IIVHW,,,272.,M,03.11,N,05.76,K*1F
$IIMWV,325,R,07.9,N,A*19
$IIVWR,035.,L,07.9,N,04.1,M,014.6,K*69
$IIMWD,,,219.,M,05.6,N,02.9,M*0C
$IIMTA,20.6,C*01
$IIMTW,18.6,C*1C
$IIVWT,053.,L,05.6,N,02.9,M,010.4,K*6A
$IIHDG,273.,,,,*7F
$IIHDM,273.,M*14
$IIGLL,4728.423,N,00247.244,W,125322,A,A*48
$IIZDA,125322,07,07,2017,,*5E
$IIVTG,276.,T,,M,03.5,N,06.5,K,A*2C
$IIDPT,0005.9,,*7E
$IIDBT,0019.2,f,0005.9,M,,*7F
$IIVLW,0093.0,N,093.84,N*41
$IIVHW,,,273.,M,03.12,N,05.77,K*1C
$IIMWV,324,R,07.9,N,A*18
$IIVWR,036.,L,07.9,N,04.1,M,014.6,K*6A
$IIMWD,,,220.,M,05.6,N,02.9,M*06
$IIMTA,20.6,C*01
$IIMTW,18.6,C*1C
$IIVWT,053.,L,05.6,N,02.9,M,010.4,K*6A
$IIHDG,273.,,,,*7F
$IIHDM,273.,M*14
$IIGLL,4728.423,N,00247.247,W,125322,A,A*4B
$IIZDA,125322,07,07,2017,,*5E
$IIVTG,281.,T,,M,03.5,N,06.5,K,A*24
$IIDPT,0005.9,,*7E
$IIDBT,0019.2,f,0005.9,M,,*7F
$IIVLW,0093.0,N,093.84,N*41
$IIVHW,,,273.,M,03.11,N,05.76,K*1E
$IIMWV,324,R,08.0,N,A*1E
$IIVWR,036.,L,08.0,N,04.1,M,014.8,K*62
$IIMWD,,,218.,M,05.6,N,02.9,M*0D
$IIMTA,20.6,C*01
$IIMTW,18.6,C*1C
$IIVWT,055.,L,05.6,N,02.9,M,010.4,K*6C
$IIHDG,273.,,,,*7F
$IIHDM,273.,M*14
$IIGLL,4728.423,N,00247.247,W,125324,A,A*4D
$IIZDA,125324,07,07,2017,,*58
$IIVTG,281.,T,,M,03.5,N,06.5,K,A*24
$IIDPT,0005.9,,*7E
$IIDBT,0019.2,f,0005.9,M,,*7F
$IIVLW,0093.0,N,093.84,N*41
$IIVHW,,,272.,M,03.16,N,05.86,K*17
$IIMWV,324,R,08.0,N,A*1E
$IIVWR,036.,L,08.0,N,04.1,M,014.8,K*62
$IIMWD,,,218.,M,05.7,N,02.9,M*0C
$IIMTA,20.6,C*01
$IIMTW,18.6,C*1C
$IIVWT,055.,L,05.7,N,02.9,M,010.6,K*6F
$IIHDG,273.,,,,*7F
$IIHDM,273.,M*14
$IIGLL,4728.424,N,00247.249,W,125324,A,A*44
$IIZDA,125324,07,07,2017,,*58
$IIVTG,280.,T,,M,03.7,N,06.9,K,A*2B
$IIDPT,0005.6,,*71
$IIDBT,0018.5,f,0005.6,M,,*76
$IIVLW,0093.0,N,093.84,N*41
$IIVHW,,,273.,M,03.15,N,05.84,K*17
$IIMWV,323,R,08.0,N,A*19
$IIVWR,037.,L,08.0,N,04.1,M,014.8,K*63
$IIMWD,,,217.,M,05.7,N,02.9,M*03
$IIMTA,20.6,C*01
$IIMTW,18.5,C*1F
$IIVWT,055.,L,05.7,N,02.9,M,010.6,K*6F
$IIHDG,273.,,,,*7F
$IIHDM,273.,M*14
$IIGLL,4728.424,N,00247.252,W,125326,A,A*4C
$IIZDA,125326,07,07,2017,,*5A
$IIVTG,280.,T,,M,03.7,N,06.9,K,A*2B
$IIDPT,0005.6,,*71
$IIDBT,0018.5,f,0005.6,M,,*76
$IIVLW,0093.0,N,093.84,N*41
$IIVHW,,,273.,M,03.15,N,05.84,K*17
$IIMWV,323,R,08.0,N,A*19
$IIVWR,037.,L,08.0,N,04.1,M,014.8,K*63
$IIMWD,,,217.,M,05.8,N,03.0,M*04
$IIMTA,20.6,C*01
$IIMTW,18.6,C*1C
$IIVWT,056.,L,05.8,N,03.0,M,010.7,K*6A
$IIHDG,273.,,,,*7F
$IIHDM,273.,M*14
$IIGLL,4728.424,N,00247.252,W,125326,A,A*4C
$IIZDA,125326,07,07,2017,,*5A
$IIVTG,276.,T,,M,03.5,N,06.5,K,A*2C
$IIDPT,0005.6,,*71
$IIDBT,0018.5,f,0005.6,M,,*76
$IIVLW,0093.0,N,093.84,N*41
$IIVHW,,,272.,M,03.15,N,05.84,K*16
$IIMWV,323,R,08.0,N,A*19
$IIVWR,037.,L,08.0,N,04.1,M,014.8,K*63
$IIMWD,,,216.,M,05.8,N,03.0,M*05
$IIMTA,20.6,C*01
$IIMTW,18.6,C*1C
$IIVWT,056.,L,05.8,N,03.0,M,010.7,K*6A
$IIHDG,272.,,,,*7E
$IIHDM,272.,M*15
$IIGLL,4728.424,N,00247.255,W,125328,A,A*45
$IIZDA,125328,07,07,2017,,*54
$IIVTG,276.,T,,M,03.5,N,06.5,K,A*2C
$IIDPT,0005.6,,*71
$IIDBT,0018.5,f,0005.6,M,,*76
$IIVLW,0093.0,N,093.84,N*41
$IIVHW,,,272.,M,03.18,N,05.88,K*17
$IIMWV,323,R,08.0,N,A*19
$IIVWR,037.,L,08.0,N,04.1,M,014.8,K*63
$IIMWD,,,216.,M,05.7,N,02.9,M*02
$IIMTA,20.6,C*01
$IIMTW,18.6,C*1C
$IIVWT,056.,L,05.7,N,02.9,M,010.6,K*6C
$IIHDG,272.,,,,*7E
$IIHDM,272.,M*15
$IIGLL,4728.424,N,00247.255,W,125328,A,A*45
$IIZDA,125328,07,07,2017,,*54
$IIVTG,274.,T,,M,03.6,N,06.7,K,A*2F
$IIDPT,0005.7,,*70
$IIDBT,0018.8,f,0005.7,M,,*7A
$IIVLW,0093.0,N,093.84,N*41
$IIVHW,,,272.,M,03.18,N,05.89,K*16
$IIMWV,323,R,08.0,N,A*19
$IIVWR,037.,L,08.0,N,04.1,M,014.8,K*63
$IIMWD,,,216.,M,05.7,N,02.9,M*02
$IIMTA,20.6,C*01
$IIMTW,18.6,C*1C
$IIVWT,056.,L,05.7,N,02.9,M,010.6,K*6C
$IIHDG,272.,,,,*7E
$IIHDM,272.,M*15
$IIGLL,4728.424,N,00247.258,W,125330,A,A*41
$IIZDA,125330,07,07,2017,,*5D
$IIVTG,277.,T,,M,03.7,N,06.9,K,A*23
$IIDPT,0005.6,,*71
$IIDBT,0018.5,f,0005.6,M,,*76
$IIVLW,0093.0,N,093.84,N*41
$IIVHW,,,272.,M,03.21,N,05.94,K*10
$IIMWV,323,R,08.0,N,A*19
$IIVWR,037.,L,08.0,N,04.1,M,014.8,K*63
$IIMWD,,,216.,M,05.7,N,02.9,M*02
$IIMTA,20.6,C*01
$IIMTW,18.6,C*1C
$IIVWT,056.,L,05.7,N,02.9,M,010.6,K*6C
$IIHDG,272.,,,,*7E
$IIHDM,272.,M*15
$IIGLL,4728.424,N,00247.258,W,125330,A,A*41
$IIZDA,125330,07,07,2017,,*5D
$IIVTG,277.,T,,M,03.7,N,06.9,K,A*23
$IIDPT,0005.6,,*71
$IIDBT,0018.5,f,0005.6,M,,*76
$IIVLW,0093.0,N,093.85,N*40
$IIVHW,,,271.,M,03.25,N,06.01,K*18
$IIMWV,323,R,08.0,N,A*19
$IIVWR,037.,L,08.0,N,04.1,M,014.8,K*63
$IIMTA,20.6,C*01
$IIMTW,18.6,C*1C
$IIVWT,057.,L,05.7,N,02.9,M,010.6,K*6D
$IIHDG,271.,,,,*7D
$IIHDM,271.,M*16
$IIGLL,4728.424,N,00247.261,W,125332,A,A*49
$IIZDA,125332,07,07,2017,,*5F
$IIVTG,273.,T,,M,03.7,N,06.9,K,A*27
$IIDPT,0005.7,,*70
$IIDBT,0018.8,f,0005.7,M,,*7A
$IIVLW,0093.0,N,093.85,N*40
$IIVHW,,,271.,M,03.26,N,06.03,K*19
$IIMWV,323,R,08.0,N,A*19
$IIVWR,037.,L,08.0,N,04.1,M,014.8,K*63
$IIMTA,20.6,C*01
$IIMTW,18.5,C*1F
$IIVWT,057.,L,05.7,N,02.9,M,010.6,K*6D
$IIHDG,271.,,,,*7D
$IIHDM,271.,M*16
$IIGLL,4728.424,N,00247.261,W,125334,A,A*4F
$IIZDA,125334,07,07,2017,,*59
$IIVTG,273.,T,,M,03.7,N,06.9,K,A*27
$IIDPT,0005.6,,*71
$IIDBT,0018.5,f,0005.6,M,,*76
$IIVLW,0093.0,N,093.85,N*40
$IIVHW,,,271.,M,03.26,N,06.03,K*19
$IIMWV,324,R,08.0,N,A*1E
$IIVWR,036.,L,08.0,N,04.1,M,014.8,K*62
$IIMWD,,,215.,M,05.7,N,02.9,M*01
$IIMTA,20.6,C*01
$IIMTW,18.5,C*1F
$IIVWT,056.,L,05.7,N,02.9,M,010.6,K*6C
$IIHDG,271.,,,,*7D
$IIHDM,271.,M*16
$IIGLL,4728.424,N,00247.264,W,125334,A,A*4A
$IIZDA,125334,07,07,2017,,*59
$IIVTG,276.,T,,M,03.6,N,06.7,K,A*2D
$IIDPT,0005.6,,*71
$IIDBT,0018.5,f,0005.6,M,,*76
$IIVLW,0093.0,N,093.85,N*40
$IIVHW,,,271.,M,03.29,N,06.09,K*1C
$IIMWV,324,R,08.0,N,A*1E
$IIVWR,036.,L,08.0,N,04.1,M,014.8,K*62
$IIMWD,,,215.,M,05.7,N,02.9,M*01
$IIMTA,20.6,C*01
$IIMTW,18.6,C*1C
$IIVWT,056.,L,05.7,N,02.9,M,010.6,K*6C
$IIHDG,271.,,,,*7D
$IIHDM,271.,M*16
$IIGLL,4728.424,N,00247.264,W,125336,A,A*48
$IIZDA,125336,07,07,2017,,*5B
$IIVTG,276.,T,,M,03.6,N,06.7,K,A*2D
$IIDPT,0005.6,,*71
$IIDBT,0018.5,f,0005.6,M,,*76
$IIVLW,0093.0,N,093.85,N*40
$IIVHW,,,271.,M,03.29,N,06.09,K*1C
$IIMWV,325,R,08.0,N,A*1F
$IIVWR,035.,L,08.0,N,04.1,M,014.8,K*61
$IIMTA,20.6,C*01
$IIMTW,18.6,C*1C
$IIVWT,056.,L,05.6,N,02.9,M,010.4,K*6F
$IIHDG,270.,,,,*7C
$IIHDM,270.,M*17
$IIGLL,4728.425,N,00247.267,W,125336,A,A*4A
$IIZDA,125336,07,07,2017,,*5B
$IIVTG,273.,T,,M,03.7,N,06.9,K,A*27
$IIDPT,0005.6,,*71
$IIDBT,0018.5,f,0005.6,M,,*76
$IIVLW,0093.0,N,093.85,N*40
$IIVHW,,,270.,M,03.27,N,06.05,K*1F
$IIMWV,325,R,07.9,N,A*19
$IIVWR,035.,L,07.9,N,04.1,M,014.6,K*69
$IIMWD,,,217.,M,05.6,N,02.9,M*02
$IIMTA,20.6,C*01
$IIMTW,18.5,C*1F
$IIVWT,054.,L,05.6,N,02.9,M,010.4,K*6D
$IIHDG,270.,,,,*7C
$IIHDM,270.,M*17
$IIGLL,4728.425,N,00247.270,W,125338,A,A*42
$IIZDA,125338,07,07,2017,,*55
$IIVTG,273.,T,,M,03.7,N,06.9,K,A*27
$IIDPT,0005.6,,*71
$IIDBT,0018.5,f,0005.6,M,,*76
$IIVLW,0093.0,N,093.85,N*40
$IIVHW,,,270.,M,03.25,N,06.01,K*19
$IIMWV,325,R,07.9,N,A*19
$IIVWR,035.,L,07.9,N,04.1,M,014.6,K*69
$IIMWD,,,215.,M,05.5,N,02.8,M*02
$IIMTA,20.6,C*01
$IIMTW,18.5,C*1F
$IIVWT,054.,L,05.5,N,02.8,M,010.2,K*69
$IIHDG,270.,,,,*7C
$IIHDM,270.,M*17
$IIGLL,4728.425,N,00247.270,W,125338,A,A*42
$IIZDA,125338,07,07,2017,,*55
$IIVTG,276.,T,,M,03.5,N,06.5,K,A*2C
$IIDPT,0005.6,,*71
$IIDBT,0018.5,f,0005.6,M,,*76
$IIVLW,0093.0,N,093.85,N*40
$IIVHW,,,270.,M,03.19,N,05.91,K*1C
$IIMWV,326,R,07.9,N,A*1A
$IIVWR,034.,L,07.9,N,04.1,M,014.6,K*68
$IIMTA,20.6,C*01
$IIMTW,18.5,C*1F
$IIVWT,053.,L,05.5,N,02.8,M,010.2,K*6E
$IIHDG,270.,,,,*7C
$IIHDM,270.,M*17
$IIGLL,4728.425,N,00247.272,W,125340,A,A*4F
$IIZDA,125340,07,07,2017,,*5A
$IIVTG,276.,T,,M,03.5,N,06.5,K,A*2C
$IIDPT,0005.5,,*72
$IIDBT,0018.2,f,0005.5,M,,*72
$IIVLW,0093.0,N,093.85,N*40
$IIVHW,,,270.,M,03.16,N,05.85,K*16
$IIMWV,327,R,07.9,N,A*1B
$IIVWR,033.,L,07.9,N,04.1,M,014.6,K*6F
$IIMWD,,,219.,M,05.5,N,02.8,M*0E
$IIMTA,20.6,C*01
$IIMTW,18.5,C*1F
$IIVWT,051.,L,05.5,N,02.8,M,010.2,K*6C
$IIHDG,270.,,,,*7C
$IIHDM,270.,M*17
$IIGLL,4728.425,N,00247.272,W,125340,A,A*4F
$IIZDA,125340,07,07,2017,,*5A
$IIVTG,275.,T,,M,03.2,N,05.9,K,A*27
$IIDPT,0005.4,,*73
$IIDBT,0017.8,f,0005.4,M,,*76
$IIVLW,0093.0,N,093.86,N*43
$IIVHW,,,270.,M,03.15,N,05.83,K*13
$IIMWV,327,R,07.9,N,A*1B
$IIVWR,033.,L,07.9,N,04.1,M,014.6,K*6F
$IIMWD,,,219.,M,05.5,N,02.8,M*0E
$IIMTA,20.6,C*01
$IIMTW,18.5,C*1F
$IIVWT,051.,L,05.5,N,02.8,M,010.2,K*6C
$IIHDG,270.,,,,*7C
$IIHDM,270.,M*17
$IIGLL,4728.425,N,00247.275,W,125342,A,A*4A
$IIZDA,125342,07,07,2017,,*58
$IIVTG,273.,T,,M,03.3,N,06.1,K,A*2B
$IIDPT,0005.6,,*71
$IIDBT,0018.5,f,0005.6,M,,*76
$IIVLW,0093.0,N,093.86,N*43
$IIVHW,,,270.,M,03.14,N,05.81,K*10
$IIMWV,327,R,07.8,N,A*1A
$IIVWR,033.,L,07.8,N,04.0,M,014.4,K*6D
$IIMWD,,,219.,M,05.5,N,02.8,M*0E
$IIMTA,20.6,C*01
$IIMTW,18.6,C*1C
$IIVWT,051.,L,05.5,N,02.8,M,010.2,K*6C
$IIHDG,270.,,,,*7C
$IIHDM,270.,M*17
$IIGLL,4728.425,N,00247.275,W,125342,A,A*4A
$IIZDA,125342,07,07,2017,,*58
$IIVTG,273.,T,,M,03.3,N,06.1,K,A*2B
$IIDPT,0005.6,,*71
$IIDBT,0018.5,f,0005.6,M,,*76
$IIVLW,0093.0,N,093.86,N*43
$IIVHW,,,270.,M,03.11,N,05.75,K*1E
$IIMWV,328,R,07.8,N,A*15
$IIVWR,032.,L,07.8,N,04.0,M,014.4,K*6C
$IIMWD,,,220.,M,05.4,N,02.8,M*05
$IIMTA,20.5,C*02
$IIMTW,18.6,C*1C
$IIVWT,050.,L,05.4,N,02.8,M,010.0,K*6E
$IIHDG,270.,,,,*7C
$IIHDM,270.,M*17
$IIGLL,4728.425,N,00247.278,W,125344,A,A*41
$IIZDA,125344,07,07,2017,,*5E
$IIVTG,276.,T,,M,03.1,N,05.8,K,A*26
$IIDPT,0005.5,,*72
$IIDBT,0018.2,f,0005.5,M,,*72
$IIVLW,0093.0,N,093.86,N*43
$IIVHW,,,271.,M,03.06,N,05.66,K*1B
$IIMWV,328,R,07.8,N,A*15
$IIVWR,032.,L,07.8,N,04.0,M,014.4,K*6C
$IIMWD,,,221.,M,05.4,N,02.8,M*04
$IIMTA,20.5,C*02
$IIMTW,18.6,C*1C
$IIVWT,049.,L,05.4,N,02.8,M,010.0,K*66
$IIHDG,271.,,,,*7D
$IIHDM,271.,M*16
$IIGLL,4728.425,N,00247.278,W,125346,A,A*43
$IIZDA,125346,07,07,2017,,*5C
$IIVTG,276.,T,,M,03.1,N,05.8,K,A*26
$IIDPT,0005.4,,*73
$IIDBT,0017.8,f,0005.4,M,,*76
$IIVLW,0093.0,N,093.86,N*43
$IIVHW,,,271.,M,03.06,N,05.66,K*1B
$IIMWV,328,R,07.8,N,A*15
$IIVWR,032.,L,07.8,N,04.0,M,014.4,K*6C
$IIMWD,,,222.,M,05.4,N,02.8,M*07
$IIMTA,20.5,C*02
$IIMTW,18.5,C*1F
$IIVWT,049.,L,05.4,N,02.8,M,010.0,K*66
$IIHDG,271.,,,,*7D
$IIHDM,271.,M*16
$IIGLL,4728.425,N,00247.280,W,125346,A,A*44
$IIZDA,125346,07,07,2017,,*5C
$IIVTG,273.,T,,M,03.3,N,06.1,K,A*2B
$IIDPT,0005.4,,*73
$IIDBT,0017.8,f,0005.4,M,,*76
$IIVLW,0093.0,N,093.86,N*43
$IIVHW,,,271.,M,03.04,N,05.63,K*1C
$IIMWV,328,R,07.7,N,A*1A
$IIVWR,032.,L,07.7,N,04.0,M,014.3,K*64
$IIMWD,,,222.,M,05.4,N,02.8,M*07
$IIMTA,20.5,C*02
$IIMTW,18.6,C*1C
$IIVWT,049.,L,05.3,N,02.7,M,009.8,K*6E
$IIHDG,271.,,,,*7D
$IIHDM,271.,M*16
$IIGLL,4728.425,N,00247.280,W,125348,A,A*4A
$IIZDA,125348,07,07,2017,,*52
$IIVTG,273.,T,,M,03.3,N,06.1,K,A*2B
$IIDPT,0005.5,,*72
$IIDBT,0018.2,f,0005.5,M,,*72
$IIVLW,0093.0,N,093.86,N*43
$IIVHW,,,271.,M,02.99,N,05.54,K*1D
$IIMWV,328,R,07.7,N,A*1A
$IIVWR,032.,L,07.7,N,04.0,M,014.3,K*64
$IIMWD,,,222.,M,05.3,N,02.7,M*0F
$IIMTA,20.5,C*02
$IIMTW,18.5,C*1F
$IIVWT,049.,L,05.3,N,02.7,M,009.8,K*6E
$IIHDG,272.,,,,*7E
$IIHDM,272.,M*15
$IIGLL,4728.425,N,00247.283,W,125348,A,A*49
$IIZDA,125348,07,07,2017,,*52
$IIVTG,276.,T,,M,03.3,N,06.1,K,A*2E
$IIDPT,0005.6,,*71
$IIDBT,0018.5,f,0005.6,M,,*76
$IIVLW,0093.0,N,093.86,N*43
$IIVHW,,,272.,M,02.96,N,05.48,K*1C
$IIMWV,328,R,07.7,N,A*1A
$IIVWR,032.,L,07.7,N,04.0,M,014.3,K*64
$IIMWD,,,222.,M,05.4,N,02.8,M*07
$IIMTA,20.5,C*02
$IIMTW,18.6,C*1C
$IIVWT,049.,L,05.4,N,02.8,M,010.0,K*66
$IIHDG,272.,,,,*7E
$IIHDM,272.,M*15
$IIGLL,4728.426,N,00247.286,W,125350,A,A*46
$IIZDA,125350,07,07,2017,,*5B
$IIVTG,279.,T,,M,03.1,N,05.8,K,A*29
$IIDPT,0005.6,,*71
$IIDBT,0018.5,f,0005.6,M,,*76
$IIVLW,0093.0,N,093.86,N*43
$IIVHW,,,272.,M,02.94,N,05.45,K*13
$IIMWV,327,R,07.7,N,A*15
$IIVWR,033.,L,07.7,N,04.0,M,014.3,K*65
$IIMWD,,,223.,M,05.4,N,02.8,M*06
$IIMTA,20.5,C*02
$IIMTW,18.5,C*1F
$IIVWT,049.,L,05.4,N,02.8,M,010.0,K*66
$IIHDG,273.,,,,*7F
$IIHDM,273.,M*14
$IIGLL,4728.426,N,00247.286,W,125350,A,A*46
$IIZDA,125350,07,07,2017,,*5B
$IIVTG,279.,T,,M,03.1,N,05.8,K,A*29
$IIDPT,0005.5,,*72
$IIDBT,0018.2,f,0005.5,M,,*72
$IIVLW,0093.0,N,093.86,N*43
$IIVHW,,,273.,M,02.92,N,05.41,K*10
$IIMWV,327,R,07.6,N,A*14
$IIVWR,033.,L,07.6,N,03.9,M,014.1,K*68
$IIMWD,,,223.,M,05.3,N,02.7,M*0E
$IIMTA,20.5,C*02
$IIMTW,18.6,C*1C
$IIVWT,050.,L,05.3,N,02.7,M,009.8,K*66
$IIHDG,273.,,,,*7F
$IIHDM,273.,M*14
$IIGLL,4728.426,N,00247.288,W,125352,A,A*4A
$IIZDA,125352,07,07,2017,,*59
$IIVTG,279.,T,,M,03.1,N,05.8,K,A*29
$IIDPT,0005.4,,*73
$IIDBT,0017.8,f,0005.4,M,,*76
$IIVLW,0093.0,N,093.86,N*43
$IIVHW,,,273.,M,02.88,N,05.33,K*1E
$IIMWV,327,R,07.6,N,A*14
$IIVWR,033.,L,07.6,N,03.9,M,014.1,K*68
$IIMWD,,,223.,M,05.4,N,02.8,M*06
$IIMTA,20.5,C*02
$IIMTW,18.5,C*1F
$IIVWT,050.,L,05.4,N,02.8,M,010.0,K*6E
$IIHDG,273.,,,,*7F
$IIHDM,273.,M*14
$IIGLL,4728.426,N,00247.288,W,125352,A,A*4A
$IIZDA,125352,07,07,2017,,*59
$IIVTG,280.,T,,M,03.1,N,05.8,K,A*2F
$IIDPT,0005.4,,*73
$IIDBT,0017.8,f,0005.4,M,,*76
$IIVLW,0093.0,N,093.86,N*43
$IIVHW,,,273.,M,02.85,N,05.27,K*16
$IIMWV,326,R,07.5,N,A*16
$IIVWR,034.,L,07.5,N,03.9,M,013.9,K*63
$IIMWD,,,222.,M,05.3,N,02.7,M*0F
$IIMTA,20.5,C*02
$IIMTW,18.6,C*1C
$IIVWT,051.,L,05.3,N,02.7,M,009.8,K*67
$IIHDG,274.,,,,*78
$IIHDM,274.,M*13
$IIGLL,4728.426,N,00247.290,W,125354,A,A*45
$IIZDA,125354,07,07,2017,,*5F
$IIVTG,277.,T,,M,03.3,N,06.1,K,A*2F
$IIDPT,0005.5,,*72
$IIDBT,0018.5,f,0005.6,M,,*76
$IIVLW,0093.0,N,093.87,N*42
$IIVHW,,,274.,M,02.81,N,05.21,K*13
$IIMWV,325,R,07.5,N,A*15
$IIVWR,035.,L,07.5,N,03.9,M,013.9,K*62
$IIMWD,,,222.,M,05.4,N,02.8,M*07
$IIMTA,20.5,C*02
$IIMTW,18.6,C*1C
$IIVWT,052.,L,05.4,N,02.8,M,010.0,K*6C
$IIHDG,274.,,,,*78
$IIHDM,274.,M*13
$IIGLL,4728.426,N,00247.290,W,125356,A,A*47
$IIZDA,125356,07,07,2017,,*5D
$IIVTG,277.,T,,M,03.3,N,06.1,K,A*2F
$IIDPT,0005.6,,*71
$IIDBT,0018.5,f,0005.6,M,,*76
$IIVLW,0093.0,N,093.87,N*42
$IIVHW,,,275.,M,02.78,N,05.14,K*12
$IIMWV,324,R,07.4,N,A*15
$IIVWR,036.,L,07.4,N,03.8,M,013.7,K*6F
$IIMWD,,,222.,M,05.4,N,02.8,M*07
$IIMTA,20.5,C*02
$IIMTW,18.6,C*1C
$IIVWT,052.,L,05.4,N,02.8,M,010.0,K*6C
$IIHDG,275.,,,,*79
$IIHDM,275.,M*12
$IIGLL,4728.426,N,00247.293,W,125356,A,A*44
$IIZDA,125356,07,07,2017,,*5D
$IIVTG,282.,T,,M,03.1,N,05.8,K,A*2D
$IIDPT,0005.6,,*71
$IIDBT,0018.5,f,0005.6,M,,*76
$IIVLW,0093.0,N,093.87,N*42
$IIVHW,,,275.,M,02.75,N,05.10,K*1B
$IIMWV,323,R,07.4,N,A*12
$IIVWR,037.,L,07.4,N,03.8,M,013.7,K*6E
$IIMWD,,,221.,M,05.4,N,02.8,M*04
$IIMTA,20.5,C*02
$IIMTW,18.5,C*1F
$IIVWT,054.,L,05.4,N,02.8,M,010.0,K*6A
$IIHDG,275.,,,,*79
$IIHDM,275.,M*12
$IIGLL,4728.427,N,00247.295,W,125358,A,A*4D
$IIZDA,125358,07,07,2017,,*53
$IIVTG,282.,T,,M,03.1,N,05.8,K,A*2D
$IIDPT,0005.6,,*71
$IIDBT,0018.5,f,0005.6,M,,*76
$IIVLW,0093.0,N,093.87,N*42
$IIVHW,,,276.,M,02.74,N,05.08,K*10
$IIMWV,323,R,07.3,N,A*15
$IIVWR,037.,L,07.3,N,03.8,M,013.5,K*6B
$IIMWD,,,220.,M,05.3,N,02.7,M*0D
$IIMTA,20.5,C*02
$IIMTW,18.5,C*1F
$IIVWT,055.,L,05.3,N,02.7,M,009.8,K*63
$IIHDG,276.,,,,*7A
$IIHDM,276.,M*11
$IIGLL,4728.427,N,00247.295,W,125358,A,A*4D
$IIZDA,125358,07,07,2017,,*53
$IIVTG,283.,T,,M,03.3,N,06.1,K,A*24
$IIDPT,0005.6,,*71
$IIDBT,0018.5,f,0005.6,M,,*76
$IIVLW,0093.0,N,093.87,N*42
$IIVHW,,,276.,M,02.75,N,05.10,K*18
$IIMWV,323,R,07.3,N,A*15
$IIVWR,037.,L,07.3,N,03.8,M,013.5,K*6B
$IIMWD,,,221.,M,05.3,N,02.7,M*0C
$IIMTA,20.5,C*02
$IIMTW,18.6,C*1C
$IIVWT,055.,L,05.3,N,02.7,M,009.8,K*63
$IIHDG,276.,,,,*7A
$IIHDM,276.,M*11
$IIGLL,4728.427,N,00247.295,W,125400,A,A*47
$IIZDA,125400,07,07,2017,,*59
$IIVTG,283.,T,,M,03.3,N,06.1,K,A*24
$IIDPT,0005.6,,*71
$IIDBT,0018.5,f,0005.6,M,,*76
$IIVLW,0093.0,N,093.87,N*42
$IIVHW,,,276.,M,02.76,N,05.12,K*19
$IIMWV,322,R,07.3,N,A*14
$IIVWR,038.,L,07.3,N,03.8,M,013.5,K*64
$IIMWD,,,220.,M,05.3,N,02.7,M*0D
$IIMTA,20.5,C*02
$IIMTW,18.5,C*1F
$IIVWT,056.,L,05.3,N,02.7,M,009.8,K*60
$IIHDG,276.,,,,*7A
$IIHDM,276.,M*11
$IIGLL,4728.427,N,00247.298,W,125400,A,A*4A
$IIZDA,125400,07,07,2017,,*59
$IIVTG,283.,T,,M,03.2,N,05.9,K,A*2E
$IIDPT,0005.5,,*72
$IIDBT,0018.2,f,0005.5,M,,*72
$IIVLW,0093.0,N,093.87,N*42
$IIVHW,,,276.,M,02.77,N,05.13,K*19
$IIMWV,322,R,07.2,N,A*15
$IIVWR,038.,L,07.2,N,03.7,M,013.3,K*6C
$IIMWD,,,220.,M,05.3,N,02.7,M*0D
$IIMTA,20.5,C*02
$IIMTW,18.5,C*1F
$IIVWT,056.,L,05.3,N,02.7,M,009.8,K*60
$IIHDG,276.,,,,*7A
$IIHDM,276.,M*11
$IIGLL,4728.427,N,00247.300,W,125402,A,A*48
$IIZDA,125402,07,07,2017,,*5B
$IIVTG,281.,T,,M,03.1,N,05.8,K,A*2E
$IIDPT,0005.4,,*73
$IIDBT,0017.8,f,0005.4,M,,*76
$IIVLW,0093.0,N,093.87,N*42
$IIVHW,,,276.,M,02.77,N,05.13,K*19
$IIMWV,322,R,07.2,N,A*15
$IIVWR,038.,L,07.2,N,03.7,M,013.3,K*6C
$IIMWD,,,219.,M,05.2,N,02.7,M*06
$IIMTA,20.5,C*02
$IIMTW,18.6,C*1C
$IIVWT,057.,L,05.2,N,02.7,M,009.6,K*6E
$IIHDG,277.,,,,*7B
$IIHDM,277.,M*10
$IIGLL,4728.427,N,00247.300,W,125402,A,A*48
$IIZDA,125402,07,07,2017,,*5B
$IIVTG,281.,T,,M,03.1,N,05.8,K,A*2E
$IIDPT,0005.4,,*73
$IIDBT,0017.8,f,0005.4,M,,*76
$IIVLW,0093.0,N,093.87,N*42
$IIVHW,,,277.,M,02.76,N,05.11,K*1B
$IIMWV,321,R,07.1,N,A*15
$IIVWR,039.,L,07.1,N,03.7,M,013.1,K*6C
$IIMWD,,,220.,M,05.3,N,02.7,M*0D
$IIMTA,20.5,C*02
$IIMTW,18.6,C*1C
$IIVWT,057.,L,05.3,N,02.7,M,009.8,K*61
$IIHDG,276.,,,,*7A
$IIHDM,276.,M*11
$IIGLL,4728.428,N,00247.303,W,125404,A,A*42
$IIZDA,125404,07,07,2017,,*5D
$IIVTG,281.,T,,M,03.1,N,05.8,K,A*2E
$IIDPT,0005.5,,*72
$IIDBT,0018.2,f,0005.5,M,,*72
$IIVLW,0093.0,N,093.87,N*42
$IIVHW,,,276.,M,02.75,N,05.09,K*10
$IIMWV,321,R,07.1,N,A*15
$IIVWR,039.,L,07.1,N,03.7,M,013.1,K*6C
$IIMWD,,,218.,M,05.2,N,02.7,M*07
$IIMTA,20.5,C*02
$IIMTW,18.5,C*1F
$IIVWT,058.,L,05.2,N,02.7,M,009.6,K*61
$IIHDG,276.,,,,*7A
$IIHDM,276.,M*11
$IIGLL,4728.428,N,00247.303,W,125406,A,A*40
$IIZDA,125406,07,07,2017,,*5F
$IIVTG,282.,T,,M,03.2,N,05.9,K,A*2F
$IIDPT,0005.6,,*71
$IIDBT,0018.5,f,0005.6,M,,*76
$IIVLW,0093.0,N,093.87,N*42
$IIVHW,,,276.,M,02.74,N,05.07,K*1F
$IIMWV,320,R,07.1,N,A*14
$IIVWR,040.,L,07.1,N,03.7,M,013.1,K*62
$IIMWD,,,218.,M,05.2,N,02.7,M*07
$IIMTA,20.5,C*02
$IIMTW,18.5,C*1F
$IIVWT,058.,L,05.2,N,02.7,M,009.6,K*61
$IIHDG,276.,,,,*7A
$IIHDM,276.,M*11
$IIGLL,4728.428,N,00247.305,W,125406,A,A*46
$IIZDA,125406,07,07,2017,,*5F
$IIVTG,284.,T,,M,03.2,N,05.9,K,A*29
$IIDPT,0005.5,,*72
$IIDBT,0018.2,f,0005.5,M,,*72
$IIVLW,0093.0,N,093.88,N*4D
$IIVHW,,,276.,M,02.74,N,05.07,K*1F
$IIMWV,320,R,07.1,N,A*14
$IIVWR,040.,L,07.1,N,03.7,M,013.1,K*62
$IIMWD,,,217.,M,05.3,N,02.7,M*09
$IIMTA,20.5,C*02
$IIMTW,18.5,C*1F
$IIVWT,059.,L,05.3,N,02.7,M,009.8,K*6F
$IIHDG,276.,,,,*7A
$IIHDM,276.,M*11
$IIGLL,4728.428,N,00247.305,W,125408,A,A*48
$IIZDA,125408,07,07,2017,,*51
$IIVTG,284.,T,,M,03.2,N,05.9,K,A*29
$IIDPT,0005.4,,*73
$IIDBT,0017.8,f,0005.4,M,,*76
$IIVLW,0093.0,N,093.88,N*4D
$IIVHW,,,276.,M,02.76,N,05.11,K*1A
$IIMWV,320,R,07.1,N,A*14
$IIVWR,040.,L,07.1,N,03.7,M,013.1,K*62
$IIMWD,,,217.,M,05.2,N,02.7,M*08
$IIMTA,20.5,C*02
$IIMTW,18.5,C*1F
$IIVWT,059.,L,05.2,N,02.7,M,009.6,K*60
$IIHDG,276.,,,,*7A
$IIHDM,276.,M*11
$IIGLL,4728.428,N,00247.308,W,125408,A,A*45
$IIZDA,125408,07,07,2017,,*51
$IIVTG,280.,T,,M,03.2,N,05.9,K,A*2D
$IIDPT,0005.4,,*73
$IIDBT,0017.8,f,0005.4,M,,*76
$IIVLW,0093.0,N,093.88,N*4D
$IIVHW,,,275.,M,02.77,N,05.13,K*1A
$IIMWV,319,R,07.1,N,A*1E
$IIVWR,041.,L,07.1,N,03.7,M,013.1,K*63
$IIMWD,,,216.,M,05.2,N,02.7,M*09
$IIMTA,20.5,C*02
$IIMTW,18.5,C*1F
$IIVWT,060.,L,05.2,N,02.7,M,009.6,K*6A
$IIHDG,275.,,,,*79
$IIHDM,275.,M*12
$IIGLL,4728.429,N,00247.311,W,125410,A,A*45
$IIZDA,125410,07,07,2017,,*58
$IIVTG,280.,T,,M,03.2,N,05.9,K,A*2D
$IIDPT,0005.4,,*73
$IIDBT,0017.8,f,0005.4,M,,*76
$IIVLW,0093.0,N,093.88,N*4D
$IIVHW,,,275.,M,02.74,N,05.08,K*13
$IIMWV,319,R,07.1,N,A*1E
$IIVWR,041.,L,07.1,N,03.7,M,013.1,K*63
$IIMWD,,,214.,M,05.3,N,02.7,M*0A
$IIMTA,20.5,C*02
$IIMTW,18.5,C*1F
$IIVWT,061.,L,05.3,N,02.7,M,009.8,K*64
$IIHDG,275.,,,,*79
$IIHDM,275.,M*12
$IIGLL,4728.429,N,00247.311,W,125410,A,A*45
$IIZDA,125410,07,07,2017,,*58
$IIVTG,285.,T,,M,03.1,N,05.8,K,A*2A
$IIDPT,0005.4,,*73
$IIDBT,0017.8,f,0005.4,M,,*76
$IIVLW,0093.0,N,093.88,N*4D
$IIVHW,,,275.,M,02.76,N,05.11,K*19
$IIMWV,319,R,07.1,N,A*1E
$IIVWR,041.,L,07.1,N,03.7,M,013.1,K*63
$IIMWD,,,214.,M,05.3,N,02.7,M*0A
$IIMTA,20.5,C*02
$IIMTW,18.5,C*1F
$IIVWT,061.,L,05.3,N,02.7,M,009.8,K*64
$IIHDG,275.,,,,*79
$IIHDM,274.,M*13
$IIGLL,4728.429,N,00247.313,W,125412,A,A*45
$IIZDA,125412,07,07,2017,,*5A
$IIVTG,285.,T,,M,03.1,N,05.8,K,A*2A
$IIDPT,0005.4,,*73
$IIDBT,0017.8,f,0005.4,M,,*76
$IIVLW,0093.0,N,093.88,N*4D
$IIVHW,,,274.,M,02.75,N,05.09,K*12
$IIMWV,319,R,07.1,N,A*1E
$IIVWR,041.,L,07.1,N,03.7,M,013.1,K*63
$IIMWD,,,213.,M,05.3,N,02.7,M*0D
$IIMTA,20.5,C*02
$IIMTW,18.6,C*1C
$IIVWT,061.,L,05.3,N,02.7,M,009.8,K*64
$IIHDG,275.,,,,*79
$IIHDM,275.,M*12
$IIGLL,4728.429,N,00247.313,W,125412,A,A*45
$IIZDA,125412,07,07,2017,,*5A
$IIVTG,278.,T,,M,03.1,N,05.8,K,A*28
$IIDPT,0005.4,,*73
$IIDBT,0017.8,f,0005.4,M,,*76
$IIVLW,0093.0,N,093.88,N*4D
$IIVHW,,,274.,M,02.73,N,05.05,K*18
$IIMWV,319,R,07.1,N,A*1E
$IIVWR,041.,L,07.1,N,03.7,M,013.1,K*63
$IIMWD,,,214.,M,05.3,N,02.7,M*0A
$IIMTA,20.5,C*02
$IIMTW,18.6,C*1C
$IIVWT,060.,L,05.3,N,02.7,M,009.8,K*65
$IIHDG,274.,,,,*78
$IIHDM,274.,M*13
$IIGLL,4728.429,N,00247.316,W,125414,A,A*46
$IIZDA,125414,07,07,2017,,*5C
$IIVTG,278.,T,,M,03.1,N,05.8,K,A*28
$IIDPT,0005.4,,*73
$IIDBT,0017.8,f,0005.4,M,,*76
$IIVLW,0093.0,N,093.88,N*4D
$IIVHW,,,274.,M,02.75,N,05.10,K*1A
$IIMWV,318,R,07.1,N,A*1F
$IIVWR,042.,L,07.1,N,03.7,M,013.1,K*60
$IIMWD,,,214.,M,05.3,N,02.7,M*0A
$IIMTA,20.5,C*02
$IIMTW,18.6,C*1C
$IIVWT,062.,L,05.3,N,02.7,M,009.8,K*67
$IIHDG,274.,,,,*78
$IIHDM,274.,M*13
$IIGLL,4728.429,N,00247.316,W,125414,A,A*46
$IIZDA,125414,07,07,2017,,*5C
$IIVTG,277.,T,,M,03.1,N,05.8,K,A*27
$IIDPT,0005.4,,*73
$IIDBT,0017.8,f,0005.4,M,,*76
$IIVLW,0093.0,N,093.88,N*4D
$IIVHW,,,274.,M,02.75,N,05.10,K*1A
$IIMWV,319,R,07.0,N,A*1F
$IIVWR,041.,L,07.0,N,03.6,M,013.0,K*62
$IIMWD,,,212.,M,05.2,N,02.7,M*0D
$IIMTA,20.5,C*02
$IIMTW,18.5,C*1F
$IIVWT,062.,L,05.2,N,02.7,M,009.6,K*68
$IIHDG,274.,,,,*78
$IIHDM,274.,M*13
$IIGLL,4728.429,N,00247.318,W,125416,A,A*4A
$IIZDA,125416,07,07,2017,,*5E
$IIVTG,276.,T,,M,03.0,N,05.6,K,A*29
$IIDPT,0005.4,,*73
$IIDBT,0017.8,f,0005.4,M,,*76
$IIVLW,0093.0,N,093.88,N*4D
$IIVHW,,,274.,M,02.75,N,05.09,K*12
$IIMWV,319,R,07.0,N,A*1F
$IIVWR,041.,L,07.0,N,03.6,M,013.0,K*62
$IIMWD,,,213.,M,05.2,N,02.7,M*0C
$IIMTA,20.5,C*02
$IIMTW,18.6,C*1C
$IIVWT,061.,L,05.2,N,02.7,M,009.6,K*6B
$IIHDG,274.,,,,*78
$IIHDM,274.,M*13
$IIGLL,4728.429,N,00247.318,W,125418,A,A*44
$IIZDA,125418,07,07,2017,,*50
$IIVTG,276.,T,,M,03.0,N,05.6,K,A*29
$IIDPT,0005.5,,*72
$IIDBT,0018.2,f,0005.5,M,,*72
$IIVLW,0093.0,N,093.88,N*4D
$IIVHW,,,274.,M,02.74,N,05.08,K*12
$IIMWV,319,R,07.0,N,A*1F
$IIVWR,041.,L,07.0,N,03.6,M,013.0,K*62
$IIMWD,,,213.,M,05.2,N,02.7,M*0C
$IIMTA,20.5,C*02
$IIMTW,18.5,C*1F
$IIVWT,061.,L,05.2,N,02.7,M,009.6,K*6B
$IIHDG,274.,,,,*78
$IIHDM,274.,M*13
$IIGLL,4728.430,N,00247.320,W,125418,A,A*47
$IIZDA,125418,07,07,2017,,*50
$IIVTG,278.,T,,M,03.0,N,05.6,K,A*27
$IIDPT,0005.4,,*73
$IIDBT,0017.8,f,0005.4,M,,*76
$IIVLW,0093.0,N,093.88,N*4D
$IIVHW,,,274.,M,02.71,N,05.01,K*1E
$IIMWV,318,R,07.0,N,A*1E
$IIVWR,042.,L,07.0,N,03.6,M,013.0,K*61
$IIMWD,,,213.,M,05.2,N,02.7,M*0C
$IIMTA,20.5,C*02
$IIMTW,18.6,C*1C
$IIVWT,061.,L,05.2,N,02.7,M,009.6,K*6B
$IIHDG,274.,,,,*78
$IIHDM,274.,M*13
$IIGLL,4728.430,N,00247.320,W,125420,A,A*4C
$IIZDA,125420,07,07,2017,,*5B
$IIVTG,278.,T,,M,03.0,N,05.6,K,A*27
$IIDPT,0005.4,,*73
$IIDBT,0017.8,f,0005.4,M,,*76
$IIVLW,0093.0,N,093.89,N*4C
$IIVHW,,,274.,M,02.70,N,05.00,K*1E
$IIMWV,318,R,06.9,N,A*16
$IIVWR,042.,L,06.9,N,03.5,M,012.8,K*63
$IIMWD,,,212.,M,05.2,N,02.7,M*0D
$IIMTA,20.5,C*02
$IIMTW,18.5,C*1F
$IIVWT,062.,L,05.2,N,02.7,M,009.6,K*68
$IIHDG,273.,,,,*7F
$IIHDM,273.,M*14
$IIGLL,4728.430,N,00247.323,W,125420,A,A*4F
$IIZDA,125420,07,07,2017,,*5B
$IIVTG,274.,T,,M,03.3,N,06.1,K,A*2C
$IIDPT,0005.4,,*73
$IIDBT,0017.8,f,0005.4,M,,*76
$IIVLW,0093.0,N,093.89,N*4C
$IIVHW,,,274.,M,02.66,N,04.93,K*12
$IIMWV,318,R,06.9,N,A*16
$IIVWR,042.,L,06.9,N,03.5,M,012.8,K*63
$IIMWD,,,211.,M,05.2,N,02.7,M*0E
$IIMTA,20.5,C*02
$IIMTW,18.5,C*1F
$IIVWT,062.,L,05.2,N,02.7,M,009.6,K*68
$IIHDG,273.,,,,*7F
$IIHDM,273.,M*14
$IIGLL,4728.430,N,00247.323,W,125422,A,A*4D
$IIZDA,125422,07,07,2017,,*59
$IIVTG,274.,T,,M,03.3,N,06.1,K,A*2C
$IIDPT,0005.4,,*73
$IIDBT,0017.8,f,0005.4,M,,*76
$IIVLW,0093.0,N,093.89,N*4C
$IIVHW,,,274.,M,02.66,N,04.92,K*13
$IIMWV,317,R,06.8,N,A*18
$IIVWR,043.,L,06.8,N,03.5,M,012.6,K*6D
$IIMWD,,,212.,M,05.2,N,02.7,M*0D
$IIMTA,20.5,C*02
$IIMTW,18.5,C*1F
$IIVWT,062.,L,05.2,N,02.7,M,009.6,K*68
$IIHDG,274.,,,,*78
$IIHDM,274.,M*13
$IIGLL,4728.430,N,00247.325,W,125422,A,A*4B
$IIZDA,125422,07,07,2017,,*59
$IIVTG,276.,T,,M,03.0,N,05.6,K,A*29
$IIDPT,0005.4,,*73
$IIDBT,0017.8,f,0005.4,M,,*76
$IIVLW,0093.0,N,093.89,N*4C
$IIVHW,,,274.,M,02.65,N,04.91,K*13
$IIMWV,317,R,06.8,N,A*18
$IIVWR,043.,L,06.8,N,03.5,M,012.6,K*6D
$IIMWD,,,211.,M,05.1,N,02.6,M*0C
$IIMTA,20.5,C*02
$IIMTW,18.5,C*1F
$IIVWT,063.,L,05.1,N,02.6,M,009.4,K*69
$IIHDG,274.,,,,*78
$IIHDM,273.,M*14
$IIGLL,4728.430,N,00247.328,W,125424,A,A*40
$IIZDA,125424,07,07,2017,,*5F
$IIVTG,276.,T,,M,03.0,N,05.6,K,A*29
$IIDPT,0005.4,,*73
$IIDBT,0017.8,f,0005.4,M,,*76
$IIVLW,0093.0,N,093.89,N*4C
$IIVHW,,,273.,M,02.67,N,04.94,K*13
$IIMWV,317,R,06.8,N,A*18
$IIVWR,043.,L,06.8,N,03.5,M,012.6,K*6D
$IIMWD,,,211.,M,05.1,N,02.6,M*0C
$IIMTA,20.5,C*02
$IIMTW,18.4,C*1E
$IIVWT,063.,L,05.1,N,02.6,M,009.4,K*69
$IIHDG,273.,,,,*7F
$IIHDM,273.,M*14
$IIGLL,4728.430,N,00247.328,W,125424,A,A*40
$IIZDA,125424,07,07,2017,,*5F
$IIVTG,278.,T,,M,03.1,N,05.8,K,A*28
$IIDPT,0005.4,,*73
$IIDBT,0017.8,f,0005.4,M,,*76
$IIVLW,0093.0,N,093.89,N*4C
$IIVHW,,,273.,M,02.67,N,04.94,K*13
$IIMWV,317,R,06.7,N,A*17
$IIVWR,043.,L,06.7,N,03.4,M,012.4,K*61
$IIMWD,,,209.,M,05.0,N,02.6,M*04
$IIMTA,20.5,C*02
$IIMTW,18.4,C*1E
$IIVWT,064.,L,05.0,N,02.6,M,009.3,K*68
$IIHDG,273.,,,,*7F
$IIHDM,273.,M*14
$IIGLL,4728.430,N,00247.330,W,125426,A,A*4B
$IIZDA,125426,07,07,2017,,*5D
$IIVTG,275.,T,,M,03.0,N,05.6,K,A*2A
$IIDPT,0005.4,,*73
$IIDBT,0017.8,f,0005.4,M,,*76
$IIVLW,0093.0,N,093.89,N*4C
$IIVHW,,,274.,M,02.69,N,04.98,K*16
$IIMWV,317,R,06.7,N,A*17
$IIVWR,043.,L,06.7,N,03.4,M,012.4,K*61
$IIMWD,,,210.,M,05.0,N,02.6,M*0C
$IIMTA,20.5,C*02
$IIMTW,18.4,C*1E
$IIVWT,064.,L,05.0,N,02.6,M,009.3,K*68
$IIHDG,273.,,,,*7F
$IIHDM,273.,M*14
$IIGLL,4728.430,N,00247.330,W,125428,A,A*45
$IIZDA,125428,07,07,2017,,*53
$IIVTG,275.,T,,M,03.0,N,05.6,K,A*2A
$IIDPT,0005.4,,*73
$IIDBT,0017.8,f,0005.4,M,,*76
$IIVLW,0093.0,N,093.89,N*4C
$IIVHW,,,273.,M,02.70,N,05.00,K*19
$IIMWV,317,R,06.7,N,A*17
$IIVWR,043.,L,06.7,N,03.4,M,012.4,K*61
$IIMWD,,,209.,M,05.0,N,02.6,M*04
$IIMTA,20.5,C*02
$IIMTW,18.5,C*1F
$IIVWT,064.,L,05.0,N,02.6,M,009.3,K*68
$IIHDG,273.,,,,*7F
$IIHDM,273.,M*14
$IIGLL,4728.431,N,00247.333,W,125428,A,A*47
$IIZDA,125428,07,07,2017,,*53
$IIVTG,279.,T,,M,03.2,N,05.9,K,A*2B
$IIDPT,0005.4,,*73
$IIDBT,0017.8,f,0005.4,M,,*76
$IIVLW,0093.0,N,093.89,N*4C
$IIVHW,,,273.,M,02.70,N,05.00,K*19
$IIMWV,317,R,06.7,N,A*17
$IIVWR,043.,L,06.7,N,03.4,M,012.4,K*61
$IIMWD,,,209.,M,05.0,N,02.6,M*04
$IIMTA,20.5,C*02
$IIMTW,18.5,C*1F
$IIVWT,064.,L,05.0,N,02.6,M,009.3,K*68
$IIHDG,273.,,,,*7F
$IIHDM,273.,M*14
$IIGLL,4728.431,N,00247.333,W,125430,A,A*4E
$IIZDA,125430,07,07,2017,,*5A
$IIVTG,279.,T,,M,03.2,N,05.9,K,A*2B
$IIDPT,0005.4,,*73
$IIDBT,0017.8,f,0005.4,M,,*76
$IIVLW,0093.0,N,093.89,N*4C
$IIVHW,,,273.,M,02.71,N,05.02,K*1A
$IIMWV,317,R,06.7,N,A*17
$IIVWR,043.,L,06.7,N,03.4,M,012.4,K*61
$IIMWD,,,209.,M,05.0,N,02.6,M*04
$IIMTA,20.5,C*02
$IIMTW,18.5,C*1F
$IIVWT,064.,L,05.0,N,02.6,M,009.3,K*68
$IIHDG,273.,,,,*7F
$IIHDM,273.,M*14
$IIGLL,4728.431,N,00247.333,W,125430,A,A*4E
$IIZDA,125430,07,07,2017,,*5A
$IIVTG,277.,T,,M,03.2,N,05.9,K,A*25
$IIDPT,0005.4,,*73
$IIDBT,0017.8,f,0005.4,M,,*76
$IIVLW,0093.0,N,093.89,N*4C
$IIVHW,,,273.,M,02.74,N,05.08,K*15
$IIMWV,317,R,06.7,N,A*17
$IIVWR,043.,L,06.7,N,03.4,M,012.4,K*61
$IIMWD,,,208.,M,05.0,N,02.6,M*05
$IIMTA,20.5,C*02
$IIMTW,18.5,C*1F
$IIVWT,065.,L,05.0,N,02.6,M,009.3,K*69
$IIHDG,273.,,,,*7F
$IIHDM,273.,M*14
$IIGLL,4728.431,N,00247.338,W,125432,A,A*47
$IIZDA,125432,07,07,2017,,*58
$IIVTG,277.,T,,M,03.2,N,05.9,K,A*25
$IIDPT,0005.4,,*73
$IIDBT,0017.8,f,0005.4,M,,*76
$IIVLW,0093.0,N,093.89,N*4C
$IIVHW,,,273.,M,02.75,N,05.10,K*1D
$IIMWV,317,R,06.7,N,A*17
$IIVWR,043.,L,06.7,N,03.4,M,012.4,K*61
$IIMWD,,,208.,M,05.0,N,02.6,M*05
$IIMTA,20.5,C*02
$IIMTW,18.5,C*1F
$IIVWT,064.,L,04.9,N,02.5,M,009.1,K*61
$IIHDG,273.,,,,*7F
$IIHDM,273.,M*14
$IIGLL,4728.431,N,00247.338,W,125432,A,A*47
$IIZDA,125432,07,07,2017,,*58
$IIVTG,279.,T,,M,03.4,N,06.3,K,A*24
$IIDPT,0005.4,,*73
$IIDBT,0017.8,f,0005.4,M,,*76
$IIVLW,0093.0,N,093.90,N*44
$IIVHW,,,273.,M,02.78,N,05.14,K*14
$IIMWV,318,R,06.6,N,A*19
$IIVWR,042.,L,06.6,N,03.4,M,012.2,K*67
$IIMWD,,,209.,M,04.9,N,02.5,M*0F
$IIMTA,20.5,C*02
$IIMTW,18.5,C*1F
$IIVWT,064.,L,04.9,N,02.5,M,009.1,K*61
$IIHDG,273.,,,,*7F
$IIHDM,273.,M*14
$IIGLL,4728.431,N,00247.338,W,125434,A,A*41
$IIZDA,125434,07,07,2017,,*5E
$IIVTG,279.,T,,M,03.4,N,06.3,K,A*24
$IIDPT,0005.4,,*73
$IIDBT,0017.8,f,0005.4,M,,*76
$IIVLW,0093.0,N,093.90,N*44
$IIVHW,,,273.,M,02.79,N,05.16,K*17
$IIMWV,318,R,06.6,N,A*19
$IIVWR,042.,L,06.6,N,03.4,M,012.2,K*67
$IIMWD,,,209.,M,04.9,N,02.5,M*0F
$IIMTA,20.5,C*02
$IIMTW,18.5,C*1F
$IIVWT,064.,L,04.9,N,02.5,M,009.1,K*61
$IIHDG,273.,,,,*7F
$IIHDM,273.,M*14
$IIGLL,4728.431,N,00247.341,W,125434,A,A*4F
$IIZDA,125434,07,07,2017,,*5E
$IIVTG,279.,T,,M,03.1,N,05.8,K,A*29
$IIDPT,0005.4,,*73
$IIDBT,0017.8,f,0005.4,M,,*76
$IIVLW,0093.0,N,093.90,N*44
$IIVHW,,,273.,M,02.79,N,05.17,K*16
$IIMWV,319,R,06.6,N,A*18
$IIVWR,041.,L,06.6,N,03.4,M,012.2,K*64
$IIMWD,,,209.,M,04.9,N,02.5,M*0F
$IIMTA,20.5,C*02
$IIMTW,18.5,C*1F
$IIVWT,063.,L,04.8,N,02.5,M,008.9,K*6E
$IIHDG,273.,,,,*7F
$IIHDM,272.,M*15
$IIGLL,4728.432,N,00247.343,W,125436,A,A*4C
$IIZDA,125436,07,07,2017,,*5C
$IIVTG,275.,T,,M,03.1,N,05.8,K,A*25
$IIDPT,0005.4,,*73
$IIDBT,0017.8,f,0005.4,M,,*76
$IIVLW,0093.0,N,093.90,N*44
$IIVHW,,,272.,M,02.81,N,05.20,K*14
$IIMWV,319,R,06.5,N,A*1B
$IIVWR,041.,L,06.5,N,03.3,M,012.0,K*62
$IIMWD,,,208.,M,04.7,N,02.4,M*01
$IIMTA,20.5,C*02
$IIMTW,18.5,C*1F
$IIVWT,064.,L,04.7,N,02.4,M,008.7,K*69
$IIHDG,272.,,,,*7E
$IIHDM,272.,M*15
$IIGLL,4728.432,N,00247.343,W,125436,A,A*4C
$IIZDA,125436,07,07,2017,,*5C
$IIVTG,275.,T,,M,03.1,N,05.8,K,A*25
$IIDPT,0005.4,,*73
$IIDBT,0017.8,f,0005.4,M,,*76
$IIVLW,0093.0,N,093.90,N*44
$IIVHW,,,272.,M,02.80,N,05.19,K*1F
$IIMWV,320,R,06.5,N,A*11
$IIVWR,040.,L,06.5,N,03.3,M,012.0,K*63
$IIMWD,,,210.,M,04.7,N,02.4,M*08
$IIMTA,20.5,C*02
$IIMTW,18.5,C*1F
$IIVWT,062.,L,04.7,N,02.4,M,008.7,K*6F
$IIHDG,272.,,,,*7E
$IIHDM,272.,M*15
$IIGLL,4728.432,N,00247.346,W,125438,A,A*47
$IIZDA,125438,07,07,2017,,*52
$IIVTG,275.,T,,M,03.2,N,05.9,K,A*27
$IIDPT,0005.4,,*73
$IIDBT,0017.8,f,0005.4,M,,*76
$IIVLW,0093.0,N,093.90,N*44
$IIVHW,,,271.,M,02.81,N,05.20,K*17
$IIMWV,319,R,06.5,N,A*1B
$IIVWR,041.,L,06.5,N,03.3,M,012.0,K*62
$IIMWD,,,207.,M,04.7,N,02.4,M*0E
$IIMTA,20.5,C*02
$IIMTW,18.5,C*1F
$IIVWT,064.,L,04.7,N,02.4,M,008.7,K*69
$IIHDG,271.,,,,*7D
$IIHDM,271.,M*16
$IIGLL,4728.432,N,00247.346,W,125440,A,A*48
$IIZDA,125440,07,07,2017,,*5D
$IIVTG,275.,T,,M,03.2,N,05.9,K,A*27
$IIDPT,0005.4,,*73
$IIDBT,0017.8,f,0005.4,M,,*76
$IIVLW,0093.0,N,093.90,N*44
$IIVHW,,,271.,M,02.80,N,05.18,K*1D
$IIMWV,319,R,06.4,N,A*1A
$IIVWR,041.,L,06.4,N,03.3,M,011.9,K*69
$IIMWD,,,207.,M,04.7,N,02.4,M*0E
$IIMTA,20.4,C*03
$IIMTW,18.5,C*1F
$IIVWT,064.,L,04.7,N,02.4,M,008.7,K*69
$IIHDG,271.,,,,*7D
$IIHDM,271.,M*16
$IIGLL,4728.432,N,00247.348,W,125440,A,A*46
$IIZDA,125440,07,07,2017,,*5D
$IIVTG,275.,T,,M,03.1,N,05.8,K,A*25
$IIDPT,0005.3,,*74
$IIDBT,0017.5,f,0005.3,M,,*7C
$IIVLW,0093.0,N,093.90,N*44
$IIVHW,,,271.,M,02.78,N,05.15,K*17
$IIMWV,319,R,06.4,N,A*1A
$IIVWR,041.,L,06.4,N,03.3,M,011.9,K*69
$IIMWD,,,207.,M,04.6,N,02.4,M*0F
$IIMTA,20.4,C*03
$IIMTW,18.5,C*1F
$IIVWT,064.,L,04.6,N,02.4,M,008.5,K*6A
$IIHDG,271.,,,,*7D
$IIHDM,271.,M*16
$IIGLL,4728.432,N,00247.348,W,125442,A,A*44
$IIZDA,125442,07,07,2017,,*5F
$IIVTG,275.,T,,M,03.1,N,05.8,K,A*25
$IIDPT,0005.2,,*75
$IIDBT,0017.2,f,0005.2,M,,*7A
$IIVLW,0093.0,N,093.90,N*44
$IIVHW,,,271.,M,02.77,N,05.13,K*1E
$IIMWV,319,R,06.4,N,A*1A
$IIVWR,041.,L,06.4,N,03.3,M,011.9,K*69
$IIMWD,,,207.,M,04.6,N,02.4,M*0F
$IIMTA,20.4,C*03
$IIMTW,18.6,C*1C
$IIVWT,064.,L,04.6,N,02.4,M,008.5,K*6A
$IIHDG,271.,,,,*7D
$IIHDM,271.,M*16
$IIGLL,4728.432,N,00247.348,W,125442,A,A*44
$IIZDA,125442,07,07,2017,,*5F
$IIVTG,273.,T,,M,03.2,N,05.9,K,A*21
$IIDPT,0005.3,,*74
$IIDBT,0017.5,f,0005.3,M,,*7C
$IIVLW,0093.0,N,093.90,N*44
$IIVHW,,,271.,M,02.77,N,05.13,K*1E
$IIMWV,319,R,06.3,N,A*1D
$IIVWR,041.,L,06.3,N,03.2,M,011.7,K*61
$IIMWD,,,207.,M,04.5,N,02.3,M*0B
$IIMTA,20.4,C*03
$IIMTW,18.5,C*1F
$IIVWT,064.,L,04.5,N,02.3,M,008.3,K*68
$IIHDG,271.,,,,*7D
$IIHDM,271.,M*16
$IIGLL,4728.432,N,00247.353,W,125444,A,A*48
$IIZDA,125444,07,07,2017,,*59
$IIVTG,273.,T,,M,03.2,N,05.9,K,A*21
$IIDPT,0005.2,,*75
$IIDBT,0017.2,f,0005.2,M,,*7A
$IIVLW,0093.0,N,093.90,N*44
$IIVHW,,,271.,M,02.75,N,05.09,K*17
$IIMWV,319,R,06.3,N,A*1D
$IIVWR,041.,L,06.3,N,03.2,M,011.7,K*61
$IIMWD,,,207.,M,04.5,N,02.3,M*0B
$IIMTA,20.4,C*03
$IIMTW,18.6,C*1C
$IIVWT,064.,L,04.5,N,02.3,M,008.3,K*68
$IIHDG,271.,,,,*7D
$IIHDM,271.,M*16
$IIGLL,4728.432,N,00247.353,W,125444,A,A*48
$IIZDA,125444,07,07,2017,,*59
$IIVTG,276.,T,,M,03.2,N,05.9,K,A*24
$IIDPT,0005.2,,*75
$IIDBT,0017.2,f,0005.2,M,,*7A
$IIVLW,0093.0,N,093.90,N*44
$IIVHW,,,271.,M,02.77,N,05.13,K*1E
$IIMWV,318,R,06.2,N,A*1D
$IIVWR,042.,L,06.2,N,03.2,M,011.5,K*61
$IIMWD,,,205.,M,04.5,N,02.3,M*09
$IIMTA,20.4,C*03
$IIMTW,18.5,C*1F
$IIVWT,066.,L,04.5,N,02.3,M,008.3,K*6A
$IIHDG,271.,,,,*7D
$IIHDM,271.,M*16
$IIGLL,4728.432,N,00247.356,W,125446,A,A*4F
$IIZDA,125446,07,07,2017,,*5B
$IIVTG,276.,T,,M,03.2,N,05.9,K,A*24
$IIDPT,0005.4,,*73
$IIDBT,0017.8,f,0005.4,M,,*76
$IIVLW,0093.0,N,093.91,N*45
$IIVHW,,,271.,M,02.76,N,05.12,K*1E
$IIMWV,318,R,06.2,N,A*1D
$IIVWR,042.,L,06.2,N,03.2,M,011.5,K*61
$IIMWD,,,205.,M,04.5,N,02.3,M*09
$IIMTA,20.4,C*03
$IIMTW,18.5,C*1F
$IIVWT,066.,L,04.5,N,02.3,M,008.3,K*6A
$IIHDG,271.,,,,*7D
$IIHDM,271.,M*16
$IIGLL,4728.432,N,00247.356,W,125446,A,A*4F
$IIZDA,125446,07,07,2017,,*5B
$IIVTG,275.,T,,M,03.2,N,05.9,K,A*27
$IIDPT,0005.4,,*73
$IIDBT,0017.8,f,0005.4,M,,*76
$IIVLW,0093.0,N,093.91,N*45
$IIVHW,,,271.,M,02.78,N,05.14,K*16
$IIMWV,318,R,06.3,N,A*1C
$IIVWR,042.,L,06.3,N,03.2,M,011.7,K*62
$IIMWD,,,205.,M,04.5,N,02.3,M*09
$IIMTA,20.4,C*03
$IIMTW,18.6,C*1C
$IIVWT,066.,L,04.5,N,02.3,M,008.3,K*6A
$IIHDG,271.,,,,*7D
$IIHDM,271.,M*16
$IIGLL,4728.433,N,00247.359,W,125448,A,A*4F
$IIZDA,125448,07,07,2017,,*55
$IIVTG,274.,T,,M,03.2,N,05.9,K,A*26
$IIDPT,0005.3,,*74
$IIDBT,0017.5,f,0005.3,M,,*7C
$IIVLW,0093.0,N,093.91,N*45
$IIVHW,,,271.,M,02.76,N,05.11,K*1D
$IIMWV,317,R,06.2,N,A*12
$IIVWR,043.,L,06.2,N,03.2,M,011.5,K*60
$IIMWD,,,204.,M,04.5,N,02.3,M*08
$IIMTA,20.4,C*03
$IIMTW,18.6,C*1C
$IIVWT,067.,L,04.5,N,02.3,M,008.3,K*6B
$IIHDG,271.,,,,*7D
$IIHDM,271.,M*16
$IIGLL,4728.433,N,00247.359,W,125448,A,A*4F
$IIZDA,125448,07,07,2017,,*55
$IIVTG,274.,T,,M,03.2,N,05.9,K,A*26
$IIDPT,0005.3,,*74
$IIDBT,0017.5,f,0005.3,M,,*7C
$IIVLW,0093.0,N,093.91,N*45
$IIVHW,,,271.,M,02.74,N,05.07,K*18
$IIMWV,317,R,06.2,N,A*12
$IIVWR,043.,L,06.2,N,03.2,M,011.5,K*60
$IIMWD,,,204.,M,04.5,N,02.3,M*08
$IIMTA,20.4,C*03
$IIMTW,18.5,C*1F
$IIVWT,067.,L,04.5,N,02.3,M,008.3,K*6B
$IIHDG,271.,,,,*7D
$IIHDM,271.,M*16
$IIGLL,4728.433,N,00247.361,W,125450,A,A*4D
$IIZDA,125450,07,07,2017,,*5C
$IIVTG,277.,T,,M,03.1,N,05.8,K,A*27
$IIDPT,0005.4,,*73
$IIDBT,0017.8,f,0005.4,M,,*76
$IIVLW,0093.0,N,093.91,N*45
$IIVHW,,,271.,M,02.73,N,05.05,K*1D
$IIMWV,317,R,06.2,N,A*12
$IIVWR,043.,L,06.2,N,03.2,M,011.5,K*60
$IIMWD,,,204.,M,04.6,N,02.4,M*0C
$IIMTA,20.4,C*03
$IIMTW,18.5,C*1F
$IIVWT,067.,L,04.6,N,02.4,M,008.5,K*69
$IIHDG,271.,,,,*7D
$IIHDM,271.,M*16
$IIGLL,4728.433,N,00247.361,W,125452,A,A*4F
$IIZDA,125452,07,07,2017,,*5E
$IIVTG,277.,T,,M,03.1,N,05.8,K,A*27
$IIDPT,0005.3,,*74
$IIDBT,0017.5,f,0005.3,M,,*7C
$IIVLW,0093.0,N,093.91,N*45
$IIVHW,,,271.,M,02.70,N,05.00,K*1B
$IIMWV,318,R,06.2,N,A*1D
$IIVWR,042.,L,06.2,N,03.2,M,011.5,K*61
$IIMWD,,,204.,M,04.6,N,02.4,M*0C
$IIMTA,20.4,C*03
$IIMTW,18.5,C*1F
$IIVWT,067.,L,04.6,N,02.4,M,008.5,K*69
$IIHDG,271.,,,,*7D
$IIHDM,271.,M*16
$IIGLL,4728.433,N,00247.364,W,125452,A,A*4A
$IIZDA,125452,07,07,2017,,*5E
$IIVTG,276.,T,,M,03.0,N,05.6,K,A*29
$IIDPT,0005.2,,*75
$IIDBT,0017.2,f,0005.2,M,,*7A
$IIVLW,0093.0,N,093.91,N*45
$IIVHW,,,271.,M,02.70,N,05.00,K*1B
$IIMWV,317,R,06.2,N,A*12
$IIVWR,043.,L,06.2,N,03.2,M,011.5,K*60
$IIMWD,,,206.,M,04.5,N,02.3,M*0A
$IIMTA,20.4,C*03
$IIMTW,18.6,C*1C
$IIVWT,065.,L,04.5,N,02.3,M,008.3,K*69
$IIHDG,271.,,,,*7D
$IIHDM,271.,M*16
$IIGLL,4728.433,N,00247.364,W,125454,A,A*4C
$IIZDA,125454,07,07,2017,,*58
$IIVTG,276.,T,,M,03.0,N,05.6,K,A*29
$IIDPT,0005.2,,*75
$IIDBT,0017.2,f,0005.2,M,,*7A
$IIVLW,0093.0,N,093.91,N*45
$IIVHW,,,271.,M,02.68,N,04.97,K*1D
$IIMWV,318,R,06.2,N,A*1D
$IIVWR,042.,L,06.2,N,03.2,M,011.5,K*61
$IIMWD,,,204.,M,04.6,N,02.4,M*0C
$IIMTA,20.4,C*03
$IIMTW,18.5,C*1F
$IIVWT,067.,L,04.6,N,02.4,M,008.5,K*69
$IIHDG,272.,,,,*7E
$IIHDM,272.,M*15
$IIGLL,4728.433,N,00247.364,W,125454,A,A*4C
$IIZDA,125454,07,07,2017,,*58
$IIVTG,277.,T,,M,03.0,N,05.6,K,A*28
$IIDPT,0005.2,,*75
$IIDBT,0017.2,f,0005.2,M,,*7A
$IIVLW,0093.0,N,093.91,N*45
$IIVHW,,,272.,M,02.68,N,04.97,K*1E
$IIMWV,317,R,06.2,N,A*12
$IIVWR,043.,L,06.2,N,03.2,M,011.5,K*60
$IIMWD,,,206.,M,04.5,N,02.3,M*0A
$IIMTA,20.4,C*03
$IIMTW,18.6,C*1C
$IIVWT,065.,L,04.5,N,02.3,M,008.3,K*69
$IIHDG,272.,,,,*7E
$IIHDM,272.,M*15
$IIGLL,4728.433,N,00247.369,W,125456,A,A*43
$IIZDA,125456,07,07,2017,,*5A
$IIVTG,277.,T,,M,03.0,N,05.6,K,A*28
$IIDPT,0005.2,,*75
$IIDBT,0016.9,f,0005.2,M,,*70
$IIVLW,0093.0,N,093.91,N*45
$IIVHW,,,272.,M,02.68,N,04.97,K*1E
$IIMWV,318,R,06.2,N,A*1D
$IIVWR,042.,L,06.2,N,03.2,M,011.5,K*61
$IIMWD,,,206.,M,04.6,N,02.4,M*0E
$IIMTA,20.4,C*03
$IIMTW,18.6,C*1C
$IIVWT,065.,L,04.5,N,02.3,M,008.3,K*69
$IIHDG,272.,,,,*7E
$IIHDM,272.,M*15
$IIGLL,4728.433,N,00247.369,W,125456,A,A*43
$IIZDA,125456,07,07,2017,,*5A
$IIVTG,275.,T,,M,03.0,N,05.6,K,A*2A
$IIDPT,0005.0,,*77
$IIDBT,0016.5,f,0005.0,M,,*7E
$IIVLW,0093.0,N,093.91,N*45
$IIVHW,,,272.,M,02.71,N,05.01,K*18
$IIMWV,318,R,06.2,N,A*1D
$IIVWR,042.,L,06.2,N,03.2,M,011.5,K*61
$IIMWD,,,207.,M,04.5,N,02.3,M*0B
$IIMTA,20.4,C*03
$IIMTW,18.6,C*1C
$IIVWT,065.,L,04.5,N,02.3,M,008.3,K*69
$IIHDG,272.,,,,*7E
$IIHDM,272.,M*15
$IIGLL,4728.433,N,00247.371,W,125458,A,A*44
$IIZDA,125458,07,07,2017,,*54
$IIVTG,275.,T,,M,03.0,N,05.6,K,A*2A
$IIDPT,0005.0,,*77
$IIDBT,0016.5,f,0005.0,M,,*7E
$IIVLW,0093.0,N,093.91,N*45
$IIVHW,,,272.,M,02.72,N,05.04,K*1E
$IIMWV,317,R,06.2,N,A*12
$IIVWR,043.,L,06.2,N,03.2,M,011.5,K*60
$IIMWD,,,205.,M,04.6,N,02.4,M*0D
$IIMTA,20.4,C*03
$IIMTW,18.6,C*1C
$IIVWT,067.,L,04.6,N,02.4,M,008.5,K*69
$IIHDG,273.,,,,*7F
$IIHDM,273.,M*14
$IIGLL,4728.433,N,00247.371,W,125458,A,A*44
$IIZDA,125458,07,07,2017,,*54
$IIVTG,276.,T,,M,03.2,N,05.9,K,A*24
$IIDPT,0005.0,,*77
$IIDBT,0016.5,f,0005.0,M,,*7E
$IIVLW,0093.0,N,093.92,N*46
$IIVHW,,,273.,M,02.72,N,05.03,K*18
$IIMWV,317,R,06.2,N,A*12
$IIVWR,043.,L,06.2,N,03.2,M,011.5,K*60
$IIMWD,,,206.,M,04.6,N,02.4,M*0E
$IIMTA,20.4,C*03
$IIMTW,18.5,C*1F
$IIVWT,067.,L,04.6,N,02.4,M,008.5,K*69
$IIHDG,273.,,,,*7F
$IIHDM,273.,M*14
$IIGLL,4728.434,N,00247.374,W,125500,A,A*4A
$IIZDA,125500,07,07,2017,,*58
$IIVTG,276.,T,,M,03.1,N,05.8,K,A*26
$IIDPT,0005.0,,*77
$IIDBT,0016.5,f,0005.0,M,,*7E
$IIVLW,0093.0,N,093.92,N*46
$IIVHW,,,273.,M,02.72,N,05.03,K*18
$IIMWV,317,R,06.2,N,A*12
$IIVWR,043.,L,06.2,N,03.2,M,011.5,K*60
$IIMWD,,,206.,M,04.6,N,02.4,M*0E
$IIMTA,20.4,C*03
$IIMTW,18.5,C*1F
$IIVWT,067.,L,04.6,N,02.4,M,008.5,K*69
$IIHDG,273.,,,,*7F
$IIHDM,273.,M*14
$IIGLL,4728.434,N,00247.374,W,125502,A,A*48
$IIZDA,125502,07,07,2017,,*5A
$IIVTG,276.,T,,M,03.1,N,05.8,K,A*26
$IIDPT,0005.0,,*77
$IIDBT,0016.5,f,0005.0,M,,*7E
$IIVLW,0093.0,N,093.92,N*46
$IIVHW,,,273.,M,02.75,N,05.09,K*15
$IIMWV,316,R,06.2,N,A*13
$IIVWR,044.,L,06.2,N,03.2,M,011.5,K*67
$IIMWD,,,205.,M,04.6,N,02.4,M*0D
$IIMTA,20.4,C*03
$IIMTW,18.5,C*1F
$IIVWT,068.,L,04.6,N,02.4,M,008.5,K*66
$IIHDG,273.,,,,*7F
$IIHDM,273.,M*14
$IIGLL,4728.434,N,00247.376,W,125502,A,A*4A
$IIZDA,125502,07,07,2017,,*5A
$IIVTG,276.,T,,M,03.3,N,06.1,K,A*2E
$IIDPT,0005.2,,*75
$IIDBT,0016.9,f,0005.2,M,,*70
$IIVLW,0093.0,N,093.92,N*46
$IIVHW,,,273.,M,02.73,N,05.06,K*1C
$IIMWV,317,R,06.2,N,A*12
$IIVWR,043.,L,06.2,N,03.2,M,011.5,K*60
$IIMWD,,,206.,M,04.5,N,02.3,M*0A
$IIMTA,20.4,C*03
$IIMTW,18.5,C*1F
$IIVWT,067.,L,04.5,N,02.3,M,008.3,K*6B
$IIHDG,273.,,,,*7F
$IIHDM,273.,M*14
$IIGLL,4728.434,N,00247.376,W,125504,A,A*4C
$IIZDA,125504,07,07,2017,,*5C
$IIVTG,276.,T,,M,03.3,N,06.1,K,A*2E
$IIDPT,0005.2,,*75
$IIDBT,0017.2,f,0005.2,M,,*7A
$IIVLW,0093.0,N,093.92,N*46
$IIVHW,,,273.,M,02.74,N,05.08,K*15
$IIMWV,317,R,06.2,N,A*12
$IIVWR,043.,L,06.2,N,03.2,M,011.5,K*60
$IIMWD,,,206.,M,04.5,N,02.3,M*0A
$IIMTA,20.4,C*03
$IIMTW,18.5,C*1F
$IIVWT,067.,L,04.5,N,02.3,M,008.3,K*6B
$IIHDG,273.,,,,*7F
$IIHDM,273.,M*14
$IIGLL,4728.434,N,00247.378,W,125504,A,A*42
$IIZDA,125504,07,07,2017,,*5C
$IIVTG,278.,T,,M,03.2,N,05.9,K,A*2A
$IIDPT,0005.2,,*75
$IIDBT,0017.2,f,0005.2,M,,*7A
$IIVLW,0093.0,N,093.92,N*46
$IIVHW,,,273.,M,02.72,N,05.03,K*18
$IIMWV,317,R,06.2,N,A*12
$IIVWR,043.,L,06.2,N,03.2,M,011.5,K*60
$IIMWD,,,206.,M,04.5,N,02.3,M*0A
$IIMTA,20.4,C*03
$IIMTW,18.5,C*1F
$IIVWT,067.,L,04.6,N,02.4,M,008.5,K*69
$IIHDG,273.,,,,*7F
$IIHDM,273.,M*14
$IIGLL,4728.434,N,00247.378,W,125506,A,A*40
$IIZDA,125506,07,07,2017,,*5E
$IIVTG,278.,T,,M,03.2,N,05.9,K,A*2A
$IIDPT,0005.2,,*75
$IIDBT,0017.2,f,0005.2,M,,*7A
$IIVLW,0093.0,N,093.92,N*46
$IIVHW,,,273.,M,02.72,N,05.03,K*18
$IIMWV,317,R,06.2,N,A*12
$IIVWR,043.,L,06.2,N,03.2,M,011.5,K*60
$IIMWD,,,206.,M,04.6,N,02.4,M*0E
$IIMTA,20.4,C*03
$IIMTW,18.5,C*1F
$IIVWT,067.,L,04.6,N,02.4,M,008.5,K*69
$IIHDG,273.,,,,*7F
$IIHDM,273.,M*14
$IIGLL,4728.434,N,00247.378,W,125506,A,A*40
$IIZDA,125506,07,07,2017,,*5E
$IIVTG,280.,T,,M,03.0,N,05.6,K,A*20
$IIDPT,0005.2,,*75
$IIDBT,0017.2,f,0005.2,M,,*7A
$IIVLW,0093.0,N,093.92,N*46
$IIVHW,,,273.,M,02.72,N,05.03,K*18
$IIMWV,318,R,06.2,N,A*1D
$IIVWR,042.,L,06.2,N,03.2,M,011.5,K*61
$IIMWD,,,206.,M,04.6,N,02.4,M*0E
$IIMTA,20.4,C*03
$IIMTW,18.4,C*1E
$IIVWT,067.,L,04.6,N,02.4,M,008.5,K*69
$IIHDG,273.,,,,*7F
$IIHDM,273.,M*14
$IIGLL,4728.434,N,00247.383,W,125508,A,A*4A
$IIZDA,125508,07,07,2017,,*50
$IIVTG,280.,T,,M,03.2,N,05.9,K,A*2D
$IIDPT,0005.0,,*77
$IIDBT,0016.5,f,0005.0,M,,*7E
$IIVLW,0093.0,N,093.92,N*46
$IIVHW,,,273.,M,02.73,N,05.06,K*1C
$IIMWV,317,R,06.2,N,A*12
$IIVWR,043.,L,06.2,N,03.2,M,011.5,K*60
$IIMWD,,,208.,M,04.5,N,02.3,M*04
$IIMTA,20.4,C*03
$IIMTW,18.5,C*1F
$IIVWT,067.,L,04.5,N,02.3,M,008.3,K*6B
$IIHDG,273.,,,,*7F
$IIHDM,273.,M*14
$IIGLL,4728.434,N,00247.383,W,125508,A,A*4A
$IIZDA,125508,07,07,2017,,*50
$IIVTG,280.,T,,M,03.2,N,05.9,K,A*2D
$IIDPT,0005.0,,*77
$IIDBT,0016.5,f,0005.0,M,,*7E
$IIVLW,0093.0,N,093.92,N*46
$IIVHW,,,273.,M,02.73,N,05.05,K*1F
$IIMWV,318,R,06.2,N,A*1D
$IIVWR,042.,L,06.2,N,03.2,M,011.5,K*61
$IIMWD,,,207.,M,04.5,N,02.3,M*0B
$IIMTA,20.4,C*03
$IIMTW,18.5,C*1F
$IIVWT,066.,L,04.5,N,02.3,M,008.3,K*6A
$IIHDG,273.,,,,*7F
$IIHDM,273.,M*14
$IIGLL,4728.435,N,00247.386,W,125510,A,A*47
$IIZDA,125510,07,07,2017,,*59
$IIVTG,280.,T,,M,03.2,N,05.9,K,A*2D
$IIDPT,0004.9,,*7F
$IIDBT,0016.2,f,0004.9,M,,*71
$IIVLW,0093.0,N,093.92,N*46
$IIVHW,,,273.,M,02.73,N,05.05,K*1F
$IIMWV,318,R,06.2,N,A*1D
$IIVWR,042.,L,06.2,N,03.2,M,011.5,K*61
$IIMWD,,,207.,M,04.5,N,02.3,M*0B
$IIMTA,20.4,C*03
$IIMTW,18.5,C*1F
$IIVWT,066.,L,04.5,N,02.3,M,008.3,K*6A
$IIHDG,273.,,,,*7F
$IIHDM,273.,M*14
$IIGLL,4728.435,N,00247.386,W,125510,A,A*47
$IIZDA,125510,07,07,2017,,*59
$IIVTG,275.,T,,M,03.2,N,05.9,K,A*27
$IIDPT,0004.9,,*7F
$IIDBT,0016.2,f,0004.9,M,,*71
$IIVLW,0093.0,N,093.92,N*46
$IIVHW,,,273.,M,02.71,N,05.02,K*1A
$IIMWV,318,R,06.3,N,A*1C
$IIVWR,042.,L,06.3,N,03.2,M,011.7,K*62
$IIMTA,20.4,C*03
$IIMTW,18.5,C*1F
$IIVWT,065.,L,04.6,N,02.4,M,008.5,K*6B
$IIHDG,273.,,,,*7F
$IIHDM,273.,M*14
$IIGLL,4728.435,N,00247.388,W,125512,A,A*4B
$IIZDA,125512,07,07,2017,,*5B
$IIVTG,277.,T,,M,03.2,N,05.9,K,A*25
$IIDPT,0004.8,,*7E
$IIDBT,0015.9,f,0004.8,M,,*78
$IIVLW,0093.0,N,093.93,N*47
$IIVHW,,,273.,M,02.74,N,05.08,K*15
$IIMWV,318,R,06.4,N,A*1B
$IIVWR,042.,L,06.4,N,03.3,M,011.9,K*6A
$IIMTA,20.4,C*03
$IIMTW,18.5,C*1F
$IIVWT,065.,L,04.6,N,02.4,M,008.5,K*6B
$IIHDG,273.,,,,*7F
$IIHDM,273.,M*14
$IIGLL,4728.435,N,00247.388,W,125514,A,A*4D
$IIZDA,125514,07,07,2017,,*5D
$IIVTG,277.,T,,M,03.2,N,05.9,K,A*25
$IIDPT,0004.8,,*7E
$IIDBT,0015.9,f,0004.8,M,,*78
$IIVLW,0093.0,N,093.93,N*47
$IIVHW,,,272.,M,02.76,N,05.11,K*1E
$IIMWV,318,R,06.4,N,A*1B
$IIVWR,042.,L,06.4,N,03.3,M,011.9,K*6A
$IIMWD,,,208.,M,04.7,N,02.4,M*01
$IIMTA,20.4,C*03
$IIMTW,18.5,C*1F
$IIVWT,065.,L,04.7,N,02.4,M,008.7,K*68
$IIHDG,272.,,,,*7E
$IIHDM,272.,M*15
$IIGLL,4728.435,N,00247.391,W,125514,A,A*45
$IIZDA,125514,07,07,2017,,*5D
$IIVTG,279.,T,,M,03.6,N,06.7,K,A*22
$IIDPT,0004.6,,*70
$IIDBT,0015.2,f,0004.6,M,,*7D
$IIVLW,0093.0,N,093.93,N*47
$IIVHW,,,272.,M,02.78,N,05.15,K*14
$IIMWV,319,R,06.5,N,A*1B
$IIVWR,041.,L,06.5,N,03.3,M,012.0,K*62
$IIMWD,,,208.,M,04.8,N,02.5,M*0F
$IIMTA,20.4,C*03
$IIMTW,18.5,C*1F
$IIVWT,064.,L,04.8,N,02.5,M,008.9,K*69
$IIHDG,272.,,,,*7E
$IIHDM,272.,M*15
$IIGLL,4728.435,N,00247.391,W,125516,A,A*47
$IIZDA,125516,07,07,2017,,*5F
$IIVTG,279.,T,,M,03.6,N,06.7,K,A*22
$IIDPT,0004.6,,*70
$IIDBT,0015.2,f,0004.6,M,,*7D
$IIVLW,0093.0,N,093.93,N*47
$IIVHW,,,271.,M,02.81,N,05.21,K*16
$IIMWV,319,R,06.5,N,A*1B
$IIVWR,041.,L,06.5,N,03.3,M,012.0,K*62
$IIMWD,,,208.,M,04.7,N,02.4,M*01
$IIMTA,20.4,C*03
$IIMTW,18.5,C*1F
$IIVWT,064.,L,04.7,N,02.4,M,008.7,K*69
$IIHDG,271.,,,,*7D
$IIHDM,271.,M*16
$IIGLL,4728.435,N,00247.394,W,125516,A,A*42
$IIZDA,125516,07,07,2017,,*5F
$IIVTG,276.,T,,M,03.4,N,06.3,K,A*2B
$IIDPT,0004.7,,*71
$IIDBT,0015.5,f,0004.7,M,,*7B
$IIVLW,0093.0,N,093.93,N*47
$IIVHW,,,271.,M,02.84,N,05.25,K*17
$IIMWV,319,R,06.5,N,A*1B
$IIVWR,041.,L,06.5,N,03.3,M,012.0,K*62
$IIMWD,,,207.,M,04.7,N,02.4,M*0E
$IIMTA,20.4,C*03
$IIMTW,18.5,C*1F
$IIVWT,064.,L,04.8,N,02.5,M,008.9,K*69
$IIHDG,271.,,,,*7D
$IIHDM,271.,M*16
$IIGLL,4728.435,N,00247.394,W,125518,A,A*4C
$IIZDA,125518,07,07,2017,,*51
$IIVTG,276.,T,,M,03.4,N,06.3,K,A*2B
$IIDPT,0004.6,,*70
$IIDBT,0015.2,f,0004.6,M,,*7D
$IIVLW,0093.0,N,093.93,N*47
$IIVHW,,,272.,M,02.88,N,05.34,K*18
$IIMWV,319,R,06.6,N,A*18
$IIVWR,041.,L,06.6,N,03.4,M,012.2,K*64
$IIMWD,,,208.,M,04.8,N,02.5,M*0F
$IIMTA,20.4,C*03
$IIMTW,18.5,C*1F
$IIVWT,064.,L,04.8,N,02.5,M,008.9,K*69
$IIHDG,271.,,,,*7D
$IIHDM,271.,M*16
$IIGLL,4728.436,N,00247.397,W,125518,A,A*4C
$IIZDA,125518,07,07,2017,,*51
$IIVTG,274.,T,,M,03.1,N,05.8,K,A*24
$IIDPT,0004.5,,*73
$IIDBT,0014.9,f,0004.5,M,,*74
$IIVLW,0093.0,N,093.93,N*47
$IIVHW,,,271.,M,02.89,N,05.36,K*18
$IIMWV,320,R,06.6,N,A*12
$IIVWR,040.,L,06.6,N,03.4,M,012.2,K*65
$IIMWD,,,208.,M,04.8,N,02.5,M*0F
$IIMTA,20.4,C*03
$IIMTW,18.5,C*1F
$IIVWT,064.,L,04.8,N,02.5,M,008.9,K*69
$IIHDG,271.,,,,*7D
$IIHDM,271.,M*16
$IIGLL,4728.436,N,00247.399,W,125520,A,A*49
$IIZDA,125520,07,07,2017,,*5A
$IIVTG,274.,T,,M,03.4,N,06.3,K,A*29
$IIDPT,0004.5,,*73
$IIDBT,0014.6,f,0004.5,M,,*7B
$IIVLW,0093.0,N,093.93,N*47
$IIVHW,,,271.,M,02.89,N,05.36,K*18
$IIMWV,320,R,06.6,N,A*12
$IIVWR,040.,L,06.6,N,03.4,M,012.2,K*65
$IIMWD,,,208.,M,04.7,N,02.4,M*01
$IIMTA,20.4,C*03
$IIMTW,18.6,C*1C
$IIVWT,063.,L,04.7,N,02.4,M,008.7,K*6E
$IIHDG,270.,,,,*7C
$IIHDM,270.,M*17
$IIGLL,4728.436,N,00247.399,W,125520,A,A*49
$IIZDA,125520,07,07,2017,,*5A
$IIVTG,274.,T,,M,03.4,N,06.3,K,A*29
$IIDPT,0004.5,,*73
$IIDBT,0014.6,f,0004.5,M,,*7B
$IIVLW,0093.0,N,093.93,N*47
$IIVHW,,,270.,M,02.89,N,05.36,K*19
$IIMWV,322,R,06.6,N,A*10
$IIVWR,038.,L,06.6,N,03.4,M,012.2,K*6A
$IIMWD,,,207.,M,04.7,N,02.4,M*0E
$IIMTA,20.4,C*03
$IIMTW,18.6,C*1C
$IIVWT,063.,L,04.7,N,02.4,M,008.7,K*6E
$IIHDG,270.,,,,*7C
$IIHDM,270.,M*17
$IIGLL,4728.436,N,00247.402,W,125522,A,A*4E
$IIZDA,125522,07,07,2017,,*58
$IIVTG,274.,T,,M,03.4,N,06.3,K,A*29
$IIDPT,0004.5,,*73
$IIDBT,0014.6,f,0004.5,M,,*7B
$IIVLW,0093.0,N,093.93,N*47
$IIVHW,,,270.,M,02.90,N,05.37,K*10
$IIMWV,322,R,06.6,N,A*10
$IIVWR,038.,L,06.6,N,03.4,M,012.2,K*6A
$IIMWD,,,210.,M,04.6,N,02.4,M*09
$IIMTA,20.4,C*03
$IIMTW,18.5,C*1F
$IIVWT,060.,L,04.6,N,02.4,M,008.5,K*6E
$IIHDG,269.,,,,*74
$IIHDM,269.,M*1F
$IIGLL,4728.436,N,00247.402,W,125524,A,A*48
$IIZDA,125524,07,07,2017,,*5E
$IIVTG,273.,T,,M,03.2,N,05.9,K,A*21
$IIDPT,0004.5,,*73
$IIDBT,0014.6,f,0004.5,M,,*7B
$IIVLW,0093.0,N,093.93,N*47
$IIVHW,,,269.,M,02.91,N,05.39,K*17
$IIMWV,323,R,06.6,N,A*11
$IIVWR,037.,L,06.6,N,03.4,M,012.2,K*65
$IIMWD,,,210.,M,04.6,N,02.4,M*09
$IIMTA,20.4,C*03
$IIMTW,18.5,C*1F
$IIVWT,059.,L,04.6,N,02.4,M,008.5,K*64
$IIHDG,269.,,,,*74
$IIHDM,269.,M*1F
$IIGLL,4728.436,N,00247.405,W,125524,A,A*4F
$IIZDA,125524,07,07,2017,,*5E
$IIVTG,270.,T,,M,03.0,N,05.6,K,A*2F
$IIDPT,0004.5,,*73
$IIDBT,0014.6,f,0004.5,M,,*7B
$IIVLW,0093.0,N,093.93,N*47
$IIVHW,,,269.,M,02.90,N,05.37,K*18
$IIMWV,323,R,06.6,N,A*11
$IIVWR,037.,L,06.6,N,03.4,M,012.2,K*65
$IIMWD,,,210.,M,04.6,N,02.4,M*09
$IIMTA,20.4,C*03
$IIMTW,18.6,C*1C
$IIVWT,059.,L,04.6,N,02.4,M,008.5,K*64
$IIHDG,269.,,,,*74
$IIHDM,269.,M*1F
$IIGLL,4728.436,N,00247.405,W,125526,A,A*4D
$IIZDA,125526,07,07,2017,,*5C
$IIVTG,270.,T,,M,03.0,N,05.6,K,A*2F
$IIDPT,0004.2,,*74
$IIDBT,0013.9,f,0004.2,M,,*74
$IIVLW,0093.0,N,093.94,N*40
$IIVHW,,,269.,M,02.88,N,05.34,K*12
$IIMWV,323,R,06.5,N,A*12
$IIVWR,037.,L,06.5,N,03.3,M,012.0,K*63
$IIMWD,,,210.,M,04.6,N,02.4,M*09
$IIMTA,20.4,C*03
$IIMTW,18.5,C*1F
$IIVWT,059.,L,04.6,N,02.4,M,008.5,K*64
$IIHDG,268.,,,,*75
$IIHDM,268.,M*1E
$IIGLL,4728.436,N,00247.407,W,125526,A,A*4F
$IIZDA,125526,07,07,2017,,*5C
$IIVTG,269.,T,,M,02.9,N,05.4,K,A*2D
$IIDPT,0004.1,,*77
$IIDBT,0013.3,f,0004.1,M,,*7D
$IIVLW,0093.0,N,093.94,N*40
$IIVHW,,,268.,M,02.86,N,05.30,K*19
$IIMWV,325,R,06.5,N,A*14
$IIVWR,035.,L,06.5,N,03.3,M,012.0,K*61
$IIMWD,,,209.,M,04.5,N,02.3,M*05
$IIMTA,20.4,C*03
$IIMTW,18.5,C*1F
$IIVWT,059.,L,04.5,N,02.3,M,008.3,K*66
$IIHDG,268.,,,,*75
$IIHDM,268.,M*1E
