20151215 (depuis le 20151125)
Echantillon NMEA d'une VHF Standard Horizon 870

$GPGGA,062638.000,4714,3352,N,131,5547,W,1,,,-4,0,M,,,,*10
$GPRMC,062638.000,A,4714,3352,N,131,5547,W,0,0,107,0,251115,,,N*7E
$GPGGA,062738.000,4714,3254,N,131,5495,W,1,,,-8,0,M,,,,*14
$GPRMC,062738.000,A,4714,3254,N,131,5495,W,0,0,56,0,251115,,,N*43
$GPGGA,062838.000,4714,2958,N,131,5653,W,1,,,-13,0,M,,,,*2F
$GPRMC,062838.000,A,4714,2958,N,131,5653,W,0,0,205,0,251115,,,N*76
$GPGGA,062938.000,4714,4426,N,131,8065,W,1,,,0,0,M,,,,*3D
$GPRMC,062938.000,A,4714,4426,N,131,8065,W,0,0,316,0,251115,,,N*78
$GPGGA,063038.000,4714,5671,N,131,6711,W,1,,,12,0,M,,,,*0D
$GPRMC,063038.000,A,4714,5671,N,131,6711,W,19,4,36,0,251115,,,N*76
$GPGGA,063138.000,4714,8667,N,131,3295,W,1,,,19,0,M,,,,*01
$GPRMC,063138.000,A,4714,8667,N,131,3295,W,17,5,38,0,251115,,,N*70
$GPGGA,063238.000,4715,0102,N,131,1591,W,1,,,20,0,M,,,,*04
$GPRMC,063238.000,A,4715,0102,N,131,1591,W,1,9,45,0,251115,,,N*4E
$GPGGA,063338.000,4715,1686,N,130,9526,W,1,,,27,0,M,,,,*0D
$GPRMC,063338.000,A,4715,1686,N,130,9526,W,0,0,51,0,251115,,,N*4D
$GPGGA,063438.000,4715,3480,N,130,5860,W,1,,,33,0,M,,,,*0A
$GPRMC,063438.000,A,4715,3480,N,130,5860,W,17,5,61,0,251115,,,N*7F
$GPGGA,055427.000,4714,3377,N,131,5168,W,1,,,46,0,M,,,,*0D
$GPRMC,055427.000,A,4714,3377,N,131,5168,W,0,0,0,0,261115,,,N*7D
$GPGGA,055527.000,4714,3144,N,131,5358,W,1,,,62,0,M,,,,*09
$GPRMC,055527.000,A,4714,3144,N,131,5358,W,5,8,211,0,261115,,,N*70
$GPGGA,055627.000,4714,4549,N,131,8056,W,1,,,34,0,M,,,,*07
$GPRMC,055627.000,A,4714,4549,N,131,8056,W,9,7,7,0,261115,,,N*7B
$GPGGA,055727.000,4714,7225,N,131,7029,W,1,,,23,0,M,,,,*09
$GPRMC,055727.000,A,4714,7225,N,131,7029,W,23,3,359,0,261115,,,N*47
$GPGGA,055827.000,4715,0596,N,131,7996,W,1,,,14,0,M,,,,*06
$GPRMC,055827.000,A,4715,0596,N,131,7996,W,23,3,356,0,261115,,,N*43
$GPGGA,055927.000,4715,3027,N,131,7799,W,1,,,23,0,M,,,,*0E
$GPRMC,055927.000,A,4715,3027,N,131,7799,W,13,6,5,0,261115,,,N*4C
$GPGGA,060027.000,4715,4093,N,132,4979,W,1,,,12,0,M,,,,*0B
$GPRMC,060027.000,A,4715,4093,N,132,4979,W,35,0,280,0,261115,,,N*46
$GPGGA,060127.000,4715,5943,N,133,4050,W,1,,,9,0,M,,,,*36
$GPRMC,060127.000,A,4715,5943,N,133,4050,W,36,9,344,0,261115,,,N*42
$GPGGA,060227.000,4716,0358,N,133,6467,W,1,,,-7,0,M,,,,*12
$GPRMC,060227.000,A,4716,0358,N,133,6467,W,25,3,335,0,261115,,,N*4B
$GPGGA,060327.000,4716,0637,N,133,9461,W,1,,,13,0,M,,,,*0E
$GPRMC,060327.000,A,4716,0637,N,133,9461,W,27,2,261,0,261115,,,N*4C
$GPGGA,060427.000,4716,0244,N,134,9247,W,1,,,49,0,M,,,,*03
$GPRMC,060427.000,A,4716,0244,N,134,9247,W,40,8,252,0,261115,,,N*45
$GPGGA,060527.000,4715,8477,N,136,1085,W,1,,,31,0,M,,,,*06
$GPRMC,060527.000,A,4715,8477,N,136,1085,W,46,7,264,0,261115,,,N*43
$GPGGA,060627.000,4715,5979,N,137,1816,W,1,,,60,0,M,,,,*0C
$GPRMC,060627.000,A,4715,5979,N,137,1816,W,50,5,249,0,261115,,,N*47
$GPGGA,060727.000,4715,3901,N,138,5065,W,1,,,72,0,M,,,,*00
$GPRMC,060727.000,A,4715,3901,N,138,5065,W,56,4,258,0,261115,,,N*4F
$GPGGA,060827.000,4715,2132,N,139,8914,W,1,,,42,0,M,,,,*06
$GPRMC,060827.000,A,4715,2132,N,139,8914,W,56,4,273,0,261115,,,N*43
$GPGGA,060927.000,4715,3906,N,141,2543,W,1,,,53,0,M,,,,*02
$GPRMC,060927.000,A,4715,3906,N,141,2543,W,58,3,290,0,261115,,,N*43
$GPGGA,061027.000,4715,9033,N,142,4570,W,1,,,62,0,M,,,,*08
$GPRMC,061027.000,A,4715,9033,N,142,4570,W,60,3,312,0,261115,,,N*4B
$GPGGA,061127.000,4716,6588,N,143,3818,W,1,,,78,0,M,,,,*0E
$GPRMC,061127.000,A,4716,6588,N,143,3818,W,58,3,318,0,261115,,,N*47
$GPGGA,061227.000,4717,3695,N,144,3215,W,1,,,84,0,M,,,,*05
$GPRMC,061227.000,A,4717,3695,N,144,3215,W,54,4,315,0,261115,,,N*49
$GPGGA,061327.000,4718,0056,N,145,2123,W,1,,,82,0,M,,,,*01
$GPRMC,061327.000,A,4718,0056,N,145,2123,W,44,7,316,0,261115,,,N*4A
$GPGGA,061427.000,4718,6224,N,145,9400,W,1,,,89,0,M,,,,*03
$GPRMC,061427.000,A,4718,6224,N,145,9400,W,50,5,323,0,261115,,,N*42
$GPGGA,061527.000,4719,4075,N,146,6404,W,1,,,78,0,M,,,,*01
$GPRMC,061527.000,A,4719,4075,N,146,6404,W,60,3,328,0,261115,,,N*40
$GPGGA,061627.000,4720,0527,N,147,6191,W,1,,,83,0,M,,,,*02
$GPRMC,061627.000,A,4720,0527,N,147,6191,W,56,4,297,0,261115,,,N*40
$GPGGA,061727.000,4720,3418,N,148,9580,W,1,,,86,0,M,,,,*0C
$GPRMC,061727.000,A,4720,3418,N,148,9580,W,56,4,284,0,261115,,,N*49
$GPGGA,061827.000,4720,5452,N,150,2880,W,1,,,83,0,M,,,,*01
$GPRMC,061827.000,A,4720,5452,N,150,2880,W,54,4,282,0,261115,,,N*45
$GPGGA,061927.000,4720,7354,N,151,6306,W,1,,,83,0,M,,,,*03
$GPRMC,061927.000,A,4720,7354,N,151,6306,W,56,4,291,0,261115,,,N*47
$GPGGA,062027.000,4721,0861,N,152,7800,W,1,,,84,0,M,,,,*0A
$GPRMC,062027.000,A,4721,0861,N,152,7800,W,52,5,293,0,261115,,,N*4E
$GPGGA,062127.000,4721,6551,N,153,9566,W,1,,,76,0,M,,,,*0C
$GPRMC,062127.000,A,4721,6551,N,153,9566,W,58,3,314,0,261115,,,N*47
$GPGGA,062227.000,4722,2030,N,155,0941,W,1,,,80,0,M,,,,*05
$GPRMC,062227.000,A,4722,2030,N,155,0941,W,56,4,286,0,261115,,,N*44
$GPGGA,062327.000,4722,5557,N,156,3829,W,1,,,74,0,M,,,,*03
$GPRMC,062327.000,A,4722,5557,N,156,3829,W,54,4,284,0,261115,,,N*49
$GPGGA,062427.000,4722,8057,N,157,6998,W,1,,,66,0,M,,,,*00
$GPRMC,062427.000,A,4722,8057,N,157,6998,W,56,4,303,0,261115,,,N*45
$GPGGA,062527.000,4723,2401,N,158,9081,W,1,,,70,0,M,,,,*0B
$GPRMC,062527.000,A,4723,2401,N,158,9081,W,54,4,302,0,261115,,,N*4A
$GPGGA,062627.000,4723,7693,N,200,1012,W,1,,,64,0,M,,,,*0D
$GPRMC,062627.000,A,4723,7693,N,200,1012,W,60,3,314,0,261115,,,N*4E
$GPGGA,062727.000,4724,5587,N,201,0063,W,1,,,53,0,M,,,,*0D
$GPRMC,062727.000,A,4724,5587,N,201,0063,W,58,3,315,0,261115,,,N*40
$GPGGA,062827.000,4725,0537,N,202,2296,W,1,,,43,0,M,,,,*05
$GPRMC,062827.000,A,4725,0537,N,202,2296,W,52,5,285,0,261115,,,N*4D
$GPGGA,062927.000,4725,4792,N,203,4289,W,1,,,38,0,M,,,,*08
$GPRMC,062927.000,A,4725,4792,N,203,4289,W,58,3,322,0,261115,,,N*4C
$GPGGA,063027.000,4726,2192,N,204,3722,W,1,,,9,0,M,,,,*35
$GPRMC,063027.000,A,4726,2192,N,204,3722,W,58,3,312,0,261115,,,N*40
$GPGGA,063127.000,4726,8214,N,205,4787,W,1,,,21,0,M,,,,*00
$GPRMC,063127.000,A,4726,8214,N,205,4787,W,58,3,287,0,261115,,,N*42
$GPGGA,063227.000,4726,8280,N,206,8793,W,1,,,18,0,M,,,,*0E
$GPRMC,063227.000,A,4726,8280,N,206,8793,W,56,4,260,0,261115,,,N*46
$GPGGA,063327.000,4727,1977,N,208,1148,W,1,,,21,0,M,,,,*09
$GPRMC,063327.000,A,4727,1977,N,208,1148,W,56,4,307,0,261115,,,N*4B
$GPGGA,063427.000,4727,8344,N,209,1781,W,1,,,24,0,M,,,,*0A
$GPRMC,063427.000,A,4727,8344,N,209,1781,W,56,4,315,0,261115,,,N*4E
$GPGGA,063527.000,4728,3425,N,210,4074,W,1,,,21,0,M,,,,*0A
$GPRMC,063527.000,A,4728,3425,N,210,4074,W,62,2,298,0,261115,,,N*4E
$GPGGA,063627.000,4728,9507,N,211,5580,W,1,,,25,0,M,,,,*08
$GPRMC,063627.000,A,4728,9507,N,211,5580,W,56,4,294,0,261115,,,N*45
$GPGGA,063727.000,4729,1752,N,212,9965,W,1,,,17,0,M,,,,*0B
$GPRMC,063727.000,A,4729,1752,N,212,9965,W,58,3,271,0,261115,,,N*45
$GPGGA,063827.000,4729,5423,N,214,3728,W,1,,,40,0,M,,,,*0C
$GPRMC,063827.000,A,4729,5423,N,214,3728,W,60,3,297,0,261115,,,N*43
$GPGGA,063927.000,4730,0200,N,215,7271,W,1,,,35,0,M,,,,*09
$GPRMC,063927.000,A,4730,0200,N,215,7271,W,60,3,305,0,261115,,,N*4E
$GPGGA,064027.000,4730,8250,N,216,5864,W,1,,,23,0,M,,,,*02
$GPRMC,064027.000,A,4730,8250,N,216,5864,W,62,2,333,0,261115,,,N*44
$GPGGA,064127.000,4731,7721,N,217,2050,W,1,,,9,0,M,,,,*3F
$GPRMC,064127.000,A,4731,7721,N,217,2050,W,64,1,316,0,261115,,,N*43
$GPGGA,064227.000,4731,7984,N,218,5650,W,1,,,40,0,M,,,,*0E
$GPRMC,064227.000,A,4731,7984,N,218,5650,W,58,3,244,0,261115,,,N*44
$GPGGA,064327.000,4731,9625,N,219,8860,W,1,,,54,0,M,,,,*01
$GPRMC,064327.000,A,4731,9625,N,219,8860,W,56,4,310,0,261115,,,N*47
$GPGGA,064427.000,4732,2642,N,221,2445,W,1,,,49,0,M,,,,*09
$GPRMC,064427.000,A,4732,2642,N,221,2445,W,60,3,279,0,261115,,,N*4F
$GPGGA,064527.000,4732,2914,N,222,7137,W,1,,,45,0,M,,,,*0E
$GPRMC,064527.000,A,4732,2914,N,222,7137,W,56,4,264,0,261115,,,N*4A
$GPGGA,064627.000,4732,2873,N,223,7778,W,1,,,55,0,M,,,,*00
$GPRMC,064627.000,A,4732,2873,N,223,7778,W,25,3,303,0,261115,,,N*46
$GPGGA,064727.000,4732,2093,N,223,8045,W,1,,,62,0,M,,,,*05
$GPRMC,064727.000,A,4732,2093,N,223,8045,W,21,4,159,0,261115,,,N*49
$GPGGA,064827.000,4731,8943,N,223,4622,W,1,,,55,0,M,,,,*08
$GPRMC,064827.000,A,4731,8943,N,223,4622,W,44,7,127,0,261115,,,N*49
$GPGGA,064927.000,4731,3542,N,222,5872,W,1,,,46,0,M,,,,*06
$GPRMC,064927.000,A,4731,3542,N,222,5872,W,48,6,140,0,261115,,,N*49
$GPGGA,065027.000,4730,8101,N,222,3633,W,1,,,39,0,M,,,,*02
$GPRMC,065027.000,A,4730,8101,N,222,3633,W,40,8,216,0,261115,,,N*43
$GPGGA,065127.000,4730,1754,N,222,7134,W,1,,,12,0,M,,,,*01
$GPRMC,065127.000,A,4730,1754,N,222,7134,W,35,0,200,0,261115,,,N*44
$GPGGA,065227.000,4730,0173,N,222,6352,W,1,,,1,0,M,,,,*31
$GPRMC,065227.000,A,4730,0173,N,222,6352,W,1,9,252,0,261115,,,N*7F
$GPGGA,065327.000,4730,0145,N,222,6391,W,1,,,1,0,M,,,,*3A
$GPRMC,065327.000,A,4730,0145,N,222,6391,W,0,0,247,0,261115,,,N*78
$GPGGA,063256.000,4714,3359,N,131,5376,W,1,,,24,0,M,,,,*0D
$GPRMC,063256.000,A,4714,3359,N,131,5376,W,0,0,0,0,141215,,,N*7B
$GPGGA,063359.000,4714,3272,N,131,5311,W,1,,,40,0,M,,,,*08
$GPRMC,063359.000,A,4714,3272,N,131,5311,W,0,0,45,0,141215,,,N*4D
$GPGGA,063459.000,4714,3114,N,131,5355,W,1,,,35,0,M,,,,*0E
$GPRMC,063459.000,A,4714,3114,N,131,5355,W,5,8,201,0,141215,,,N*76
$GPGGA,063559.000,4714,4320,N,131,7900,W,1,,,12,0,M,,,,*00
$GPRMC,063559.000,A,4714,4320,N,131,7900,W,19,4,301,0,141215,,,N*4D
$GPGGA,063659.000,4714,6742,N,131,5499,W,1,,,11,0,M,,,,*0D
$GPRMC,063659.000,A,4714,6742,N,131,5499,W,25,3,35,0,141215,,,N*7F
$GPGGA,063759.000,4714,9475,N,131,2394,W,1,,,-12,0,M,,,,*27
$GPRMC,063759.000,A,4714,9475,N,131,2394,W,17,5,20,0,141215,,,N*78
$GPGGA,063859.000,4715,1228,N,131,0260,W,1,,,20,0,M,,,,*0B
$GPRMC,063859.000,A,4715,1228,N,131,0260,W,5,8,39,0,141215,,,N*4E
$GPGGA,063959.000,4715,2333,N,130,8386,W,1,,,21,0,M,,,,*03
$GPRMC,063959.000,A,4715,2333,N,130,8386,W,15,6,47,0,141215,,,N*71
$GPGGA,064059.000,4715,3167,N,130,5731,W,1,,,30,0,M,,,,*0A
$GPRMC,064059.000,A,4715,3167,N,130,5731,W,7,8,46,0,141215,,,N*44
$GPGGA,123701.000,4714,3233,N,131,5460,W,1,,,6,0,M,,,,*32
$GPRMC,123701.000,A,4714,3233,N,131,5460,W,0,0,0,0,151215,,,N*75
$GPGGA,123801.000,4714,2981,N,131,5710,W,1,,,16,0,M,,,,*0B
$GPRMC,123801.000,A,4714,2981,N,131,5710,W,3,9,213,0,151215,,,N*77
$GPGGA,123901.000,4714,4373,N,131,8035,W,1,,,34,0,M,,,,*06
$GPRMC,123901.000,A,4714,4373,N,131,8035,W,3,9,310,0,151215,,,N*78
$GPGGA,124001.000,4714,5874,N,131,6411,W,1,,,33,0,M,,,,*0E
$GPRMC,124001.000,A,4714,5874,N,131,6411,W,9,7,57,0,151215,,,N*43
$GPGGA,124101.000,4714,7902,N,131,4148,W,1,,,38,0,M,,,,*0D
$GPRMC,124101.000,A,4714,7902,N,131,4148,W,21,4,33,0,151215,,,N*70
$GPGGA,124201.000,4714,9168,N,131,2616,W,1,,,22,0,M,,,,*05
$GPRMC,124201.000,A,4714,9168,N,131,2616,W,0,0,37,0,151215,,,N*40
$GPGGA,124301.000,4715,0168,N,131,1490,W,1,,,27,0,M,,,,*06
$GPRMC,124301.000,A,4715,0168,N,131,1490,W,1,9,53,0,151215,,,N*4C
$GPGGA,124401.000,4715,1010,N,131,0560,W,1,,,25,0,M,,,,*03
$GPRMC,124401.000,A,4715,1010,N,131,0560,W,5,8,38,0,151215,,,N*43
$GPGGA,124501.000,4715,1754,N,130,9409,W,1,,,30,0,M,,,,*07
$GPRMC,124501.000,A,4715,1754,N,130,9409,W,1,9,48,0,151215,,,N*41
$GPGGA,124601.000,4715,1983,N,130,8856,W,1,,,40,0,M,,,,*00
$GPRMC,124601.000,A,4715,1983,N,130,8856,W,19,4,60,0,151215,,,N*7F
$GPGGA,124701.000,4715,3361,N,130,5389,W,1,,,34,0,M,,,,*02
$GPRMC,124701.000,A,4715,3361,N,130,5389,W,11,7,143,0,151215,,,N*45
