bla bla bla


\c:1588515988607*64\$IIDBT,0019.2,f,0005.9,M,,*7F
\c:1588515988608*6B\$IIVLW,0093.0,N,093.82,N*47
\c:1588515988608*6B\$IIVHW,,,266.,M,03.29,N,06.09,K*1A
\c:1588515988608*6B\$IIMWV,326,R,07.9,N,A*1A
\c:1588515988608*6B\$IIVWR,034.,L,07.9,N,04.1,M,014.6,K*68
\c:1588515988608*6B\$IIMWD,,,213.,M,05.4,N,02.8,M*05
\c:1588515988608*6B\$IIMTA,20.6,C*01
\c:1588515988608*6B\$IIMTW,18.6,C*1C
\c:1588515988608*6B\$IIVWT,053.,L,05.4,N,02.8,M,010.0,K*6D
\c:1588515988608*6B\$IIHDG,266.,,,,*7B
\c:1588515988608*6B\$IIHDM,266.,M*10
\c:1588515988608*6B\$IIGLL,4728.422,N,00247.213,W,125300,A,A*4B
\c:1588515988608*6B\$IIZDA,125300,07,07,2017,,*5E
\c:1588515988608*6B\$IIVTG,269.,T,,M,03.6,N,06.7,K,A*23
\c:1588515988608*6B\$IIDPT,0005.9,,*7E
\c:1588515988608*6B\$IIDBT,0019.2,f,0005.9,M,,*7F
\c:1588515989558*6C\$IIVWR,033.,L,07.9,N,04.1,M,014.6,K*6F
\c:1588515989558*6C\$IIMTA,20.6,C*01
\c:1588515989558*6C\$IIMTW,18.6,C*1C
\c:1588515989558*6C\$IIVWT,052.,L,05.4,N,02.8,M,010.0,K*6C
\c:1588515989558*6C\$IIHDG,266.,,,,*7B
\c:1588515989558*6C\$IIHDM,266.,M*10
\c:1588515989559*6D\$IIGLL,4728.422,N,00247.216,W,125300,A,A*4E
\c:1588515989559*6D\$IIZDA,125300,07,07,2017,,*5E
\c:1588515989559*6D\$IIVTG,267.,T,,M,03.4,N,06.3,K,A*2B
\c:1588515989559*6D\$IIDPT,0005.9,,*7E
\c:1588515989559*6D\$IIDBT,0019.2,f,0005.9,M,,*7F
\c:1588515989559*6D\$IIVLW,0093.0,N,093.82,N*47
\c:1588515989559*6D\$IIVHW,,,266.,M,03.22,N,05.96,K*14
\c:1588515989559*6D\$IIMWV,327,R,07.9,N,A*1B
\c:1588515989559*6D\$IIVWR,033.,L,07.9,N,04.1,M,014.6,K*6F
\c:1588515989559*6D\$IIMWD,,,214.,M,05.4,N,02.8,M*02
\c:1588515990509*60\$IIVWT,052.,L,05.4,N,02.8,M,010.0,K*6C
\c:1588515990509*60\$IIGLL,4728.422,N,00247.216,W,125302,A,A*4C
\c:1588515990509*60\$IIZDA,125302,07,07,2017,,*5C
\c:1588515990509*60\$IIVTG,267.,T,,M,03.4,N,06.3,K,A*2B
\c:1588515990509*60\$IIDPT,0005.9,,*7E
\c:1588515990509*60\$IIDBT,0019.2,f,0005.9,M,,*7F
\c:1588515990509*60\$IIVLW,0093.0,N,093.82,N*47
\c:1588515990509*60\$IIVHW,,,267.,M,03.20,N,05.93,K*12
\c:1588515990509*60\$IIMWV,327,R,07.9,N,A*1B
\c:1588515990509*60\$IIVWR,033.,L,07.9,N,04.1,M,014.6,K*6F
\c:1588515990509*60\$IIMWD,,,214.,M,05.4,N,02.8,M*02
\c:1588515990509*60\$IIMTA,20.6,C*01
\c:1588515990509*60\$IIMTW,18.6,C*1C
\c:1588515990509*60\$IIVWT,051.,L,05.4,N,02.8,M,010.0,K*6F
\c:1588515990509*60\$IIHDG,267.,,,,*7A
\c:1588515990509*60\$IIHDM,267.,M*11
\c:1588515990529*62\$PNKEP,01,4.2,N,7.7,K*6E
\c:1588515990529*62\$PNKEP,02,161.0*6A
\c:1588515990529*62\$PNKEP,03,314.0,84.2,77.1*64
\c:1588515990529*62\$PNKEP,04,260.3,85.0,260.3,85.0*68
\c:1588515990529*62\$PNKEP,05,267.0,0.2,N,0.4,K*6B
\c:1588515990530*6A\$GPWPL,4727.480,N,00251.511,W,POI_GO*51
\c:1588515990530*6A\$GPBWC,142630.00,4727.480,N,00251.511,W,252.0,T,,M,3.1,N,POI_GO*1C
\c:1588515990530*6A\$GPRMB,A,0,L,POI_GO,LauBen,4727.480,N,00251.511,W,3.1,252.0,3.4,V,%14*1F
\c:1588515991457*6B\$IIDBT,0019.2,f,0005.9,M,,*7F
\c:1588515991457*6B\$IIVLW,0093.0,N,093.82,N*47
\c:1588515991457*6B\$IIVHW,,,267.,M,03.19,N,05.91,K*1A
\c:1588515991457*6B\$IIMWV,327,R,07.9,N,A*1B
\c:1588515991457*6B\$IIVWR,033.,L,07.9,N,04.1,M,014.6,K*6F
\c:1588515991457*6B\$IIMTA,20.6,C*01
\c:1588515991457*6B\$IIMTW,18.6,C*1C
\c:1588515991457*6B\$IIVWT,051.,L,05.4,N,02.8,M,010.0,K*6F
\c:1588515991457*6B\$IIHDG,267.,,,,*7A
\c:1588515991457*6B\$IIHDM,267.,M*11
\c:1588515991457*6B\$IIGLL,4728.422,N,00247.222,W,125304,A,A*4D
\c:1588515991457*6B\$IIZDA,125304,07,07,2017,,*5A
\c:1588515991457*6B\$IIVTG,270.,T,,M,03.5,N,06.5,K,A*2A
\c:1588515991457*6B\$IIDPT,0005.9,,*7E
\c:1588515991457*6B\$IIDBT,0019.2,f,0005.9,M,,*7F
\c:1588515991457*6B\$IIVLW,0093.0,N,093.82,N*47
\c:1588515992424*6C\$IIMTA,20.6,C*01
\c:1588515992424*6C\$IIMTW,18.6,C*1C
\c:1588515992424*6C\$IIVWT,051.,L,05.5,N,02.8,M,010.2,K*6C
\c:1588515992424*6C\$IIHDG,268.,,,,*75
\c:1588515992424*6C\$IIHDM,268.,M*1E
\c:1588515992424*6C\$IIGLL,4728.422,N,00247.222,W,125304,A,A*4D
\c:1588515992424*6C\$IIZDA,125304,07,07,2017,,*5A
\c:1588515992424*6C\$IIVTG,271.,T,,M,03.5,N,06.5,K,A*2B
\c:1588515992424*6C\$IIDPT,0005.9,,*7E
\c:1588515992424*6C\$IIDBT,0019.2,f,0005.9,M,,*7F
\c:1588515992424*6C\$IIVLW,0093.0,N,093.82,N*47
\c:1588515992424*6C\$IIVHW,,,268.,M,03.13,N,05.80,K*1F
\c:1588515992424*6C\$IIMWV,326,R,07.9,N,A*1A
\c:1588515992424*6C\$IIVWR,034.,L,07.9,N,04.1,M,014.6,K*68
\c:1588515992424*6C\$IIMWD,,,215.,M,05.5,N,02.8,M*02
\c:1588515992424*6C\$IIMTA,20.6,C*01
\c:1588515993426*6F\$IIGLL,4728.422,N,00247.224,W,125306,A,A*49
\c:1588515993426*6F\$IIZDA,125306,07,07,2017,,*58
\c:1588515993426*6F\$IIVTG,271.,T,,M,03.5,N,06.5,K,A*2B
\c:1588515993426*6F\$IIDPT,0005.7,,*70
\c:1588515993426*6F\$IIDBT,0018.8,f,0005.7,M,,*7A
\c:1588515993426*6F\$IIVLW,0093.0,N,093.82,N*47
\c:1588515993426*6F\$IIVHW,,,268.,M,03.12,N,05.78,K*19
\c:1588515993426*6F\$IIMWV,326,R,07.9,N,A*1A
\c:1588515993426*6F\$IIVWR,034.,L,07.9,N,04.1,M,014.6,K*68
\c:1588515993426*6F\$IIMWD,,,216.,M,05.5,N,02.8,M*01
\c:1588515993426*6F\$IIMTA,20.6,C*01
\c:1588515993426*6F\$IIMTW,18.6,C*1C
\c:1588515993426*6F\$IIVWT,052.,L,05.5,N,02.8,M,010.2,K*6F
\c:1588515993426*6F\$IIHDG,268.,,,,*75
\c:1588515993426*6F\$IIHDM,268.,M*1E
\c:1588515993426*6F\$IIGLL,4728.422,N,00247.224,W,125306,A,A*49
\c:1588515993443*6C\$PNKEP,01,4.2,N,7.7,K*6E
\c:1588515993443*6C\$PNKEP,02,162.0*69
\c:1588515993444*6B\$PNKEP,03,314.0,82.4,75.4*63
\c:1588515993444*6B\$PNKEP,04,264.1,84.4,264.1,84.4*68
\c:1588515993444*6B\$PNKEP,05,294.6,0.4,N,0.8,K*6B
\c:1588515993444*6B\$GPWPL,4727.480,N,00251.511,W,POI_GO*51
\c:1588515993444*6B\$GPBWC,142633.00,4727.480,N,00251.511,W,252.0,T,,M,3.1,N,POI_GO*1F
\c:1588515993444*6B\$GPRMB,A,0,L,POI_GO,LauBen,4727.480,N,00251.511,W,3.1,252.0,3.5,V,%14*1E
\c:1588515994425*6B\$IIDBT,0019.2,f,0005.9,M,,*7F
\c:1588515994425*6B\$IIVHW,,,268.,M,03.12,N,05.77,K*16
\c:1588515994425*6B\$IIMWV,326,R,07.9,N,A*1A
\c:1588515994425*6B\$IIVWR,034.,L,07.9,N,04.1,M,014.6,K*68
\c:1588515994425*6B\$IIMWD,,,216.,M,05.5,N,02.8,M*01
\c:1588515994425*6B\$IIMTA,20.6,C*01
\c:1588515994425*6B\$IIMTW,18.6,C*1C
\c:1588515994425*6B\$IIVWT,052.,L,05.5,N,02.8,M,010.2,K*6F
\c:1588515994425*6B\$IIHDG,268.,,,,*75
\c:1588515994425*6B\$IIHDM,268.,M*1E
\c:1588515994425*6B\$IIGLL,4728.422,N,00247.227,W,125308,A,A*44
\c:1588515994425*6B\$IIZDA,125308,07,07,2017,,*56
\c:1588515994425*6B\$IIVTG,271.,T,,M,03.4,N,06.3,K,A*2C
\c:1588515994425*6B\$IIDPT,0005.9,,*7E
\c:1588515994425*6B\$IIDBT,0019.2,f,0005.9,M,,*7F
\c:1588515994425*6B\$IIVLW,0093.0,N,093.83,N*46
\c:1588515995422*6D\$IIVHW,,,268.,M,03.12,N,05.77,K*16
\c:1588515995422*6D\$IIMWV,325,R,07.9,N,A*19
\c:1588515995422*6D\$IIVWR,035.,L,07.9,N,04.1,M,014.6,K*69
\c:1588515995422*6D\$IIMTA,20.6,C*01
\c:1588515995422*6D\$IIMTW,18.6,C*1C
\c:1588515995422*6D\$IIVWT,053.,L,05.6,N,02.9,M,010.4,K*6A
\c:1588515995422*6D\$IIHDG,269.,,,,*74
\c:1588515995422*6D\$IIHDM,269.,M*1F
\c:1588515995422*6D\$IIGLL,4728.422,N,00247.227,W,125310,A,A*4D
\c:1588515995422*6D\$IIZDA,125310,07,07,2017,,*5F
\c:1588515995422*6D\$IIVTG,271.,T,,M,03.4,N,06.3,K,A*2C
\c:1588515995422*6D\$IIDPT,0005.7,,*70
\c:1588515995422*6D\$IIDBT,0018.8,f,0005.7,M,,*7A
\c:1588515995422*6D\$IIVLW,0093.0,N,093.83,N*46
\c:1588515995422*6D\$IIVHW,,,269.,M,03.12,N,05.77,K*17
\c:1588515995422*6D\$IIMWV,325,R,07.9,N,A*19
\c:1588515995423*6C\$IIVWR,035.,L,07.9,N,04.1,M,014.6,K*69
\c:1588515995423*6C\$IIMWD,,,216.,M,05.6,N,02.9,M*03
\c:1588515995423*6C\$IIMTA,20.6,C*01
\c:1588515995423*6C\$IIMTW,18.6,C*1C
\c:1588515996423*6F\$IIVWT,053.,L,05.6,N,02.9,M,010.4,K*6A
\c:1588515996423*6F\$IIHDG,269.,,,,*74
\c:1588515996423*6F\$IIHDM,269.,M*1F
\c:1588515996423*6F\$IIGLL,4728.422,N,00247.230,W,125310,A,A*4B
\c:1588515996423*6F\$IIZDA,125310,07,07,2017,,*5F
\c:1588515996423*6F\$IIVTG,273.,T,,M,03.3,N,06.1,K,A*2B
\c:1588515996423*6F\$IIDPT,0005.7,,*70
\c:1588515996423*6F\$IIDBT,0018.8,f,0005.7,M,,*7A
\c:1588515996423*6F\$IIVLW,0093.0,N,093.83,N*46
\c:1588515996423*6F\$IIVHW,,,269.,M,03.11,N,05.76,K*15
\c:1588515996423*6F\$IIMWV,325,R,07.9,N,A*19
\c:1588515996423*6F\$IIVWR,035.,L,07.9,N,04.1,M,014.6,K*69
\c:1588515996423*6F\$IIMWD,,,216.,M,05.6,N,02.9,M*03
\c:1588515996423*6F\$IIMTA,20.6,C*01
\c:1588515996423*6F\$IIMTW,18.6,C*1C
\c:1588515996423*6F\$IIVWT,053.,L,05.6,N,02.9,M,010.4,K*6A
\c:1588515996423*6F\$IIHDG,269.,,,,*74
\c:1588515996423*6F\$IIHDM,269.,M*1F
\c:1588515996423*6F\$IIGLL,4728.422,N,00247.230,W,125312,A,A*49
\c:1588515996423*6F\$IIZDA,125312,07,07,2017,,*5D
\c:1588515996430*6D\$PNKEP,01,4.2,N,7.7,K*6E
\c:1588515996430*6D\$PNKEP,02,163.0*68
\c:1588515996430*6D\$PNKEP,03,314.0,82.1,75.2*60
\c:1588515996430*6D\$PNKEP,04,264.1,83.7,264.1,83.7*68
\c:1588515996430*6D\$PNKEP,05,292.1,0.3,N,0.6,K*63
\c:1588515996430*6D\$GPWPL,4727.480,N,00251.511,W,POI_GO*51
\c:1588515996430*6D\$GPBWC,142636.00,4727.480,N,00251.511,W,252.0,T,,M,3.0,N,POI_GO*1B
\c:1588515996431*6C\$GPRMB,A,0,L,POI_GO,LauBen,4727.480,N,00251.511,W,3.0,252.0,3.4,V,%14*1E
\c:1588515997424*69\$IIVTG,273.,T,,M,03.3,N,06.1,K,A*2B
\c:1588515997424*69\$IIDPT,0005.6,,*71
\c:1588515997424*69\$IIDBT,0018.5,f,0005.6,M,,*76
\c:1588515997424*69\$IIVLW,0093.0,N,093.83,N*46
\c:1588515997425*68\$IIVHW,,,270.,M,03.09,N,05.73,K*11
\c:1588515997425*68\$IIMWV,325,R,07.9,N,A*19
\c:1588515997425*68\$IIVWR,035.,L,07.9,N,04.1,M,014.6,K*69
\c:1588515997425*68\$IIMWD,,,216.,M,05.6,N,02.9,M*03
\c:1588515997425*68\$IIMTA,20.6,C*01
\c:1588515997425*68\$IIMTW,18.6,C*1C
\c:1588515997425*68\$IIVWT,053.,L,05.6,N,02.9,M,010.4,K*6A
\c:1588515997425*68\$IIHDG,270.,,,,*7C
\c:1588515997425*68\$IIHDM,270.,M*17
\c:1588515997425*68\$IIGLL,4728.422,N,00247.233,W,125312,A,A*4A
\c:1588515997425*68\$IIZDA,125312,07,07,2017,,*5D
\c:1588515997425*68\$IIVTG,273.,T,,M,03.5,N,06.5,K,A*29
\c:1588515997425*68\$IIDPT,0005.6,,*71
\c:1588515997425*68\$IIDBT,0018.5,f,0005.6,M,,*76
\c:1588515997425*68\$IIVLW,0093.0,N,093.83,N*46
\c:1588515997426*6B\$IIVHW,,,270.,M,03.07,N,05.68,K*15
\c:1588515998424*66\$IIMWV,325,R,07.9,N,A*19
\c:1588515998424*66\$IIVWR,035.,L,07.9,N,04.1,M,014.6,K*69
\c:1588515998424*66\$IIMWD,,,217.,M,05.6,N,02.9,M*02
\c:1588515998424*66\$IIMTA,20.6,C*01
\c:1588515998425*67\$IIMTW,18.5,C*1F
\c:1588515998426*64\$IIVWT,053.,L,05.6,N,02.9,M,010.4,K*6A
\c:1588515998426*64\$IIHDG,270.,,,,*7C
\c:1588515998426*64\$IIHDM,270.,M*17
\c:1588515998426*64\$IIGLL,4728.422,N,00247.235,W,125314,A,A*4A
\c:1588515998426*64\$IIZDA,125314,07,07,2017,,*5B
\c:1588515998426*64\$IIVTG,273.,T,,M,03.5,N,06.5,K,A*29
\c:1588515998426*64\$IIDPT,0005.7,,*70
\c:1588515998426*64\$IIDBT,0018.8,f,0005.7,M,,*7A
\c:1588515998426*64\$IIVLW,0093.0,N,093.83,N*46
\c:1588515998426*64\$IIVHW,,,270.,M,03.09,N,05.72,K*10
\c:1588515998426*64\$IIMWV,325,R,07.8,N,A*18
\c:1588515998426*64\$IIVWR,035.,L,07.8,N,04.0,M,014.4,K*6B
\c:1588515998426*64\$IIMWD,,,217.,M,05.6,N,02.9,M*02
\c:1588515998426*64\$IIMTA,20.6,C*01
\c:1588515998426*64\$IIMTW,18.6,C*1C
\c:1588515999425*66\$IIHDM,270.,M*17
\c:1588515999425*66\$IIVTG,277.,T,,M,03.5,N,06.5,K,A*2D
\c:1588515999425*66\$IIDPT,0005.9,,*7E
\c:1588515999425*66\$IIDBT,0019.2,f,0005.9,M,,*7F
\c:1588515999425*66\$IIVLW,0093.0,N,093.83,N*46
\c:1588515999425*66\$IIVHW,,,270.,M,03.05,N,05.65,K*1A
\c:1588515999425*66\$IIMWV,325,R,07.8,N,A*18
\c:1588515999425*66\$IIVWR,035.,L,07.8,N,04.0,M,014.4,K*6B
\c:1588515999425*66\$IIMTA,20.6,C*01
\c:1588515999425*66\$IIMTW,18.6,C*1C
\c:1588515999425*66\$IIVWT,053.,L,05.5,N,02.8,M,010.2,K*6E
\c:1588515999426*65\$IIHDG,271.,,,,*7D
\c:1588515999426*65\$IIHDM,271.,M*16
\c:1588515999426*65\$IIGLL,4728.422,N,00247.238,W,125316,A,A*45
\c:1588515999426*65\$IIZDA,125316,07,07,2017,,*59
\c:1588515999426*65\$IIVTG,277.,T,,M,03.5,N,06.5,K,A*2D
\c:1588515999441*64\$PNKEP,01,4.2,N,7.7,K*6E
\c:1588515999441*64\$PNKEP,02,164.0*6F
\c:1588515999442*67\$PNKEP,03,314.0,81.3,74.5*67
\c:1588515999442*67\$PNKEP,04,266.2,83.6,266.2,83.6*68
\c:1588515999442*67\$PNKEP,05,294.3,0.4,N,0.8,K*6E
\c:1588515999442*67\$GPWPL,4727.480,N,00251.511,W,POI_GO*51
\c:1588515999442*67\$GPBWC,142639.00,4727.480,N,00251.511,W,252.0,T,,M,3.0,N,POI_GO*14
\c:1588515999442*67\$GPRMB,A,0,L,POI_GO,LauBen,4727.480,N,00251.511,W,3.0,252.0,3.5,V,%14*1F
\c:1588516000424*6D\$IIDBT,0018.8,f,0005.7,M,,*7A
\c:1588516000424*6D\$IIVWR,035.,L,07.8,N,04.0,M,014.4,K*6B
\c:1588516000424*6D\$IIMTA,20.6,C*01
\c:1588516000424*6D\$IIMTW,18.6,C*1C
\c:1588516000424*6D\$IIVWT,053.,L,05.5,N,02.8,M,010.2,K*6E
\c:1588516000424*6D\$IIHDG,271.,,,,*7D
\c:1588516000424*6D\$IIHDM,271.,M*16
\c:1588516000424*6D\$IIGLL,4728.422,N,00247.238,W,125316,A,A*45
\c:1588516000424*6D\$IIZDA,125316,07,07,2017,,*59
\c:1588516000424*6D\$IIVTG,277.,T,,M,03.3,N,06.1,K,A*2F
\c:1588516000424*6D\$IIDPT,0005.6,,*71
\c:1588516000424*6D\$IIDBT,0018.5,f,0005.6,M,,*76
\c:1588516000424*6D\$IIVLW,0093.0,N,093.83,N*46
\c:1588516000425*6C\$IIVHW,,,271.,M,03.07,N,05.68,K*14
\c:1588516000425*6C\$IIMWV,325,R,07.8,N,A*18
\c:1588516000425*6C\$IIVWR,035.,L,07.8,N,04.0,M,014.4,K*6B
\c:1588516001424*6C\$IIMWD,,,218.,M,05.5,N,02.8,M*0F
\c:1588516001424*6C\$IIHDM,272.,M*15
\c:1588516001424*6C\$IIGLL,4728.423,N,00247.241,W,125318,A,A*44
\c:1588516001424*6C\$IIZDA,125318,07,07,2017,,*57
\c:1588516001424*6C\$IIVTG,277.,T,,M,03.4,N,06.3,K,A*2A
\c:1588516001424*6C\$IIDPT,0005.6,,*71
\c:1588516001424*6C\$IIDBT,0018.5,f,0005.6,M,,*76
\c:1588516001424*6C\$IIVLW,0093.0,N,093.83,N*46
\c:1588516001424*6C\$IIVHW,,,272.,M,03.08,N,05.70,K*11
\c:1588516001424*6C\$IIMWV,325,R,07.8,N,A*18
\c:1588516001424*6C\$IIVWR,035.,L,07.8,N,04.0,M,014.4,K*6B
\c:1588516001424*6C\$IIMWD,,,219.,M,05.5,N,02.8,M*0E
\c:1588516001424*6C\$IIMTA,20.6,C*01
\c:1588516001424*6C\$IIMTW,18.6,C*1C
\c:1588516001424*6C\$IIVWT,053.,L,05.5,N,02.8,M,010.2,K*6E
\c:1588516001424*6C\$IIHDG,272.,,,,*7E
\c:1588516002426*6D\$IIVTG,277.,T,,M,03.4,N,06.3,K,A*2A
\c:1588516002426*6D\$IIDBT,0018.5,f,0005.6,M,,*76
\c:1588516002426*6D\$IIVLW,0093.0,N,093.84,N*41
\c:1588516002426*6D\$IIVHW,,,272.,M,03.09,N,05.72,K*12
\c:1588516002426*6D\$IIMWV,325,R,07.9,N,A*19
\c:1588516002426*6D\$IIVWR,035.,L,07.9,N,04.1,M,014.6,K*69
\c:1588516002426*6D\$IIMWD,,,219.,M,05.6,N,02.9,M*0C
\c:1588516002426*6D\$IIMTA,20.6,C*01
\c:1588516002426*6D\$IIMTW,18.6,C*1C
\c:1588516002426*6D\$IIVWT,053.,L,05.6,N,02.9,M,010.4,K*6A
\c:1588516002426*6D\$IIHDG,272.,,,,*7E
\c:1588516002426*6D\$IIHDM,272.,M*15
\c:1588516002426*6D\$IIGLL,4728.423,N,00247.244,W,125320,A,A*4A
\c:1588516002426*6D\$IIZDA,125320,07,07,2017,,*5C
\c:1588516002426*6D\$IIVTG,276.,T,,M,03.5,N,06.5,K,A*2C
\c:1588516002426*6D\$IIDPT,0005.6,,*71
\c:1588516002441*6C\$PNKEP,01,4.2,N,7.7,K*6E
\c:1588516002441*6C\$PNKEP,02,166.0*6D
\c:1588516002442*6F\$PNKEP,03,314.0,81.1,74.2*62
\c:1588516002442*6F\$PNKEP,04,269.7,83.3,269.7,83.3*68
\c:1588516002442*6F\$PNKEP,05,316.0,0.4,N,0.8,K*66
\c:1588516002442*6F\$GPWPL,4727.480,N,00251.511,W,POI_GO*51
\c:1588516002442*6F\$GPBWC,142642.00,4727.480,N,00251.511,W,251.9,T,,M,3.0,N,POI_GO*12
\c:1588516002443*6E\$GPRMB,A,0,L,POI_GO,LauBen,4727.480,N,00251.511,W,3.0,251.9,3.4,V,%14*14
\c:1588516003424*6E\$IIDBT,0018.5,f,0005.6,M,,*76
\c:1588516003424*6E\$IIVLW,0093.0,N,093.84,N*41
\c:1588516003426*6C\$IIMWD,,,219.,M,05.6,N,02.9,M*0C
\c:1588516003426*6C\$IIMTA,20.6,C*01
\c:1588516003426*6C\$IIMTW,18.6,C*1C
\c:1588516003426*6C\$IIVWT,053.,L,05.6,N,02.9,M,010.4,K*6A
\c:1588516003426*6C\$IIHDG,273.,,,,*7F
\c:1588516003426*6C\$IIHDM,273.,M*14
\c:1588516003426*6C\$IIGLL,4728.423,N,00247.244,W,125322,A,A*48
\c:1588516003426*6C\$IIZDA,125322,07,07,2017,,*5E
\c:1588516003426*6C\$IIVTG,276.,T,,M,03.5,N,06.5,K,A*2C
\c:1588516003426*6C\$IIDPT,0005.9,,*7E
\c:1588516003426*6C\$IIDBT,0019.2,f,0005.9,M,,*7F
\c:1588516003426*6C\$IIVLW,0093.0,N,093.84,N*41
\c:1588516003426*6C\$IIVHW,,,273.,M,03.12,N,05.77,K*1C
\c:1588516003426*6C\$IIMWV,324,R,07.9,N,A*18
\c:1588516003426*6C\$IIVWR,036.,L,07.9,N,04.1,M,014.6,K*6A
\c:1588516004424*69\$IIMTW,18.6,C*1C
\c:1588516004424*69\$IIHDM,273.,M*14
\c:1588516004424*69\$IIGLL,4728.423,N,00247.247,W,125322,A,A*4B
\c:1588516004424*69\$IIZDA,125322,07,07,2017,,*5E
\c:1588516004424*69\$IIVTG,281.,T,,M,03.5,N,06.5,K,A*24
\c:1588516004424*69\$IIDPT,0005.9,,*7E
\c:1588516004424*69\$IIDBT,0019.2,f,0005.9,M,,*7F
\c:1588516004424*69\$IIVLW,0093.0,N,093.84,N*41
\c:1588516004424*69\$IIVHW,,,273.,M,03.11,N,05.76,K*1E
\c:1588516004424*69\$IIMWV,324,R,08.0,N,A*1E
\c:1588516004425*68\$IIVWR,036.,L,08.0,N,04.1,M,014.8,K*62
\c:1588516004425*68\$IIMWD,,,218.,M,05.6,N,02.9,M*0D
\c:1588516004425*68\$IIMTA,20.6,C*01
\c:1588516004425*68\$IIMTW,18.6,C*1C
\c:1588516004425*68\$IIVWT,055.,L,05.6,N,02.9,M,010.4,K*6C
\c:1588516004425*68\$IIHDG,273.,,,,*7F
\c:1588516005443*69\$IIDPT,0005.9,,*7E
\c:1588516005443*69\$IIDBT,0019.2,f,0005.9,M,,*7F
\c:1588516005443*69\$IIVLW,0093.0,N,093.84,N*41
\c:1588516005443*69\$IIVHW,,,272.,M,03.16,N,05.86,K*17
\c:1588516005443*69\$IIMWV,324,R,08.0,N,A*1E
\c:1588516005443*69\$IIVWR,036.,L,08.0,N,04.1,M,014.8,K*62
\c:1588516005443*69\$IIMWD,,,218.,M,05.7,N,02.9,M*0C
\c:1588516005443*69\$IIMTA,20.6,C*01
\c:1588516005443*69\$IIMTW,18.6,C*1C
\c:1588516005443*69\$IIVWT,055.,L,05.7,N,02.9,M,010.6,K*6F
\c:1588516005443*69\$IIHDG,273.,,,,*7F
\c:1588516005443*69\$IIHDM,273.,M*14
\c:1588516005443*69\$IIGLL,4728.424,N,00247.249,W,125324,A,A*44
\c:1588516005443*69\$IIZDA,125324,07,07,2017,,*58
\c:1588516005443*69\$IIVTG,280.,T,,M,03.7,N,06.9,K,A*2B
\c:1588516005443*69\$IIDPT,0005.6,,*71
\c:1588516005444*6E\$PNKEP,01,4.3,N,7.9,K*61
\c:1588516005445*6F\$PNKEP,02,163.0*68
\c:1588516005445*6F\$PNKEP,03,314.0,81.8,73.2*6C
\c:1588516005445*6F\$PNKEP,04,271.5,85.1,271.5,85.1*68
\c:1588516005445*6F\$PNKEP,05,326.8,0.6,N,1.1,K*67
\c:1588516005446*6C\$GPWPL,4727.480,N,00251.511,W,POI_GO*51
\c:1588516005446*6C\$GPBWC,142645.00,4727.480,N,00251.511,W,251.9,T,,M,3.0,N,POI_GO*15
\c:1588516005446*6C\$GPRMB,A,0,L,POI_GO,LauBen,4727.480,N,00251.511,W,3.0,251.9,3.5,V,%14*15
\c:1588516006424*6B\$IIDBT,0018.5,f,0005.6,M,,*76
\c:1588516006424*6B\$IIVLW,0093.0,N,093.84,N*41
\c:1588516006424*6B\$IIVHW,,,273.,M,03.15,N,05.84,K*17
\c:1588516006424*6B\$IIMWV,323,R,08.0,N,A*19
\c:1588516006424*6B\$IIVWR,037.,L,08.0,N,04.1,M,014.8,K*63
\c:1588516006424*6B\$IIMWD,,,217.,M,05.7,N,02.9,M*03
\c:1588516006424*6B\$IIMTA,20.6,C*01
\c:1588516006424*6B\$IIMTW,18.5,C*1F
\c:1588516006424*6B\$IIVWT,055.,L,05.7,N,02.9,M,010.6,K*6F
\c:1588516006424*6B\$IIHDG,273.,,,,*7F
\c:1588516006424*6B\$IIHDM,273.,M*14
\c:1588516006424*6B\$IIGLL,4728.424,N,00247.252,W,125326,A,A*4C
\c:1588516006424*6B\$IIZDA,125326,07,07,2017,,*5A
\c:1588516006424*6B\$IIVTG,280.,T,,M,03.7,N,06.9,K,A*2B
\c:1588516006424*6B\$IIDPT,0005.6,,*71
\c:1588516006424*6B\$IIDBT,0018.5,f,0005.6,M,,*76
\c:1588516006424*6B\$IIVLW,0093.0,N,093.84,N*41
\c:1588516006425*6A\$IIVHW,,,273.,M,03.15,N,05.84,K*17
\c:1588516006425*6A\$IIMWV,323,R,08.0,N,A*19
\c:1588516006425*6A\$IIVWR,037.,L,08.0,N,04.1,M,014.8,K*63
\c:1588516007424*6A\$IIMWD,,,217.,M,05.8,N,03.0,M*04
\c:1588516007424*6A\$IIMTA,20.6,C*01
\c:1588516007424*6A\$IIMTW,18.6,C*1C
\c:1588516007424*6A\$IIVWT,056.,L,05.8,N,03.0,M,010.7,K*6A
\c:1588516007425*6B\$IIHDG,273.,,,,*7F
\c:1588516007425*6B\$IIHDM,273.,M*14
\c:1588516007425*6B\$IIGLL,4728.424,N,00247.252,W,125326,A,A*4C
\c:1588516007425*6B\$IIZDA,125326,07,07,2017,,*5A
\c:1588516007425*6B\$IIVTG,276.,T,,M,03.5,N,06.5,K,A*2C
\c:1588516007425*6B\$IIDPT,0005.6,,*71
\c:1588516007425*6B\$IIDBT,0018.5,f,0005.6,M,,*76
\c:1588516007425*6B\$IIVLW,0093.0,N,093.84,N*41
\c:1588516007425*6B\$IIVHW,,,272.,M,03.15,N,05.84,K*16
\c:1588516007425*6B\$IIMWV,323,R,08.0,N,A*19
\c:1588516007425*6B\$IIVWR,037.,L,08.0,N,04.1,M,014.8,K*63
\c:1588516007425*6B\$IIMWD,,,216.,M,05.8,N,03.0,M*05
\c:1588516007425*6B\$IIMTA,20.6,C*01
\c:1588516007425*6B\$IIMTW,18.6,C*1C
\c:1588516007425*6B\$IIVWT,056.,L,05.8,N,03.0,M,010.7,K*6A
\c:1588516007425*6B\$IIHDG,272.,,,,*7E
\c:1588516008425*64\$IIHDM,272.,M*15
\c:1588516008425*64\$IIGLL,4728.424,N,00247.255,W,125328,A,A*45
\c:1588516008425*64\$IIZDA,125328,07,07,2017,,*54
\c:1588516008425*64\$IIVTG,276.,T,,M,03.5,N,06.5,K,A*2C
\c:1588516008425*64\$IIDPT,0005.6,,*71
\c:1588516008425*64\$IIDBT,0018.5,f,0005.6,M,,*76
\c:1588516008425*64\$IIVLW,0093.0,N,093.84,N*41
\c:1588516008426*67\$IIVHW,,,272.,M,03.18,N,05.88,K*17
\c:1588516008426*67\$IIMWV,323,R,08.0,N,A*19
\c:1588516008426*67\$IIVWR,037.,L,08.0,N,04.1,M,014.8,K*63
\c:1588516008426*67\$IIMWD,,,216.,M,05.7,N,02.9,M*02
\c:1588516008426*67\$IIMTA,20.6,C*01
\c:1588516008426*67\$IIMTW,18.6,C*1C
\c:1588516008426*67\$IIVWT,056.,L,05.7,N,02.9,M,010.6,K*6C
\c:1588516008426*67\$IIHDG,272.,,,,*7E
\c:1588516008426*67\$IIHDM,272.,M*15
\c:1588516008426*67\$IIGLL,4728.424,N,00247.255,W,125328,A,A*45
\c:1588516008426*67\$IIZDA,125328,07,07,2017,,*54
\c:1588516008426*67\$IIVTG,274.,T,,M,03.6,N,06.7,K,A*2F
\c:1588516008426*67\$IIDPT,0005.7,,*70
\c:1588516008442*65\$PNKEP,01,4.3,N,7.9,K*61
\c:1588516008443*64\$PNKEP,02,160.0*6B
\c:1588516008443*64\$PNKEP,03,314.0,82.9,74.1*6A
\c:1588516008444*63\$PNKEP,04,266.2,85.3,266.2,85.3*68
\c:1588516008445*62\$PNKEP,05,307.6,0.4,N,0.8,K*60
\c:1588516008445*62\$GPWPL,4727.480,N,00251.511,W,POI_GO*51
\c:1588516008446*61\$GPBWC,142648.00,4727.480,N,00251.511,W,251.9,T,,M,3.0,N,POI_GO*18
\c:1588516008446*61\$GPRMB,A,0,L,POI_GO,LauBen,4727.480,N,00251.511,W,3.0,251.9,3.5,V,%14*15
\c:1588516009424*64\$IIDBT,0018.8,f,0005.7,M,,*7A
\c:1588516009424*64\$IIVLW,0093.0,N,093.84,N*41
\c:1588516009424*64\$IIVHW,,,272.,M,03.18,N,05.89,K*16
\c:1588516009424*64\$IIMWV,323,R,08.0,N,A*19
\c:1588516009424*64\$IIVWR,037.,L,08.0,N,04.1,M,014.8,K*63
\c:1588516009424*64\$IIMWD,,,216.,M,05.7,N,02.9,M*02
\c:1588516009424*64\$IIMTA,20.6,C*01
\c:1588516009424*64\$IIMTW,18.6,C*1C
\c:1588516009424*64\$IIVWT,056.,L,05.7,N,02.9,M,010.6,K*6C
\c:1588516009424*64\$IIHDG,272.,,,,*7E
\c:1588516009424*64\$IIHDM,272.,M*15
\c:1588516009425*65\$IIGLL,4728.424,N,00247.258,W,125330,A,A*41
\c:1588516009425*65\$IIZDA,125330,07,07,2017,,*5D
\c:1588516009425*65\$IIVTG,277.,T,,M,03.7,N,06.9,K,A*23
\c:1588516009425*65\$IIDPT,0005.6,,*71
\c:1588516009425*65\$IIDBT,0018.5,f,0005.6,M,,*76
\c:1588516009425*65\$IIVLW,0093.0,N,093.84,N*41
\c:1588516009425*65\$IIVHW,,,272.,M,03.21,N,05.94,K*10
\c:1588516009425*65\$IIMWV,323,R,08.0,N,A*19
\c:1588516009425*65\$IIVWR,037.,L,08.0,N,04.1,M,014.8,K*63
\c:1588516010424*6C\$IIMWD,,,216.,M,05.7,N,02.9,M*02
\c:1588516010424*6C\$IIMTA,20.6,C*01
\c:1588516010424*6C\$IIMTW,18.6,C*1C
\c:1588516010424*6C\$IIVWT,056.,L,05.7,N,02.9,M,010.6,K*6C
\c:1588516010424*6C\$IIHDG,272.,,,,*7E
\c:1588516010424*6C\$IIHDM,272.,M*15
\c:1588516010424*6C\$IIGLL,4728.424,N,00247.258,W,125330,A,A*41
\c:1588516010424*6C\$IIZDA,125330,07,07,2017,,*5D
\c:1588516010424*6C\$IIVTG,277.,T,,M,03.7,N,06.9,K,A*23
\c:1588516010424*6C\$IIDPT,0005.6,,*71
\c:1588516010424*6C\$IIDBT,0018.5,f,0005.6,M,,*76
\c:1588516010424*6C\$IIVLW,0093.0,N,093.85,N*40
\c:1588516010424*6C\$IIVHW,,,271.,M,03.25,N,06.01,K*18
\c:1588516010424*6C\$IIMWV,323,R,08.0,N,A*19
\c:1588516010424*6C\$IIVWR,037.,L,08.0,N,04.1,M,014.8,K*63
\c:1588516010424*6C\$IIMTA,20.6,C*01
\c:1588516010424*6C\$IIMTW,18.6,C*1C
\c:1588516010424*6C\$IIVWT,057.,L,05.7,N,02.9,M,010.6,K*6D
\c:1588516010424*6C\$IIHDG,271.,,,,*7D
\c:1588516010424*6C\$IIHDM,271.,M*16
\c:1588516011443*6C\$IIGLL,4728.424,N,00247.261,W,125332,A,A*49
\c:1588516011443*6C\$IIZDA,125332,07,07,2017,,*5F
\c:1588516011443*6C\$IIVTG,273.,T,,M,03.7,N,06.9,K,A*27
\c:1588516011443*6C\$IIDPT,0005.7,,*70
\c:1588516011443*6C\$IIDBT,0018.8,f,0005.7,M,,*7A
\c:1588516011443*6C\$IIVLW,0093.0,N,093.85,N*40
\c:1588516011443*6C\$IIVHW,,,271.,M,03.26,N,06.03,K*19
\c:1588516011443*6C\$IIMWV,323,R,08.0,N,A*19
\c:1588516011443*6C\$IIVWR,037.,L,08.0,N,04.1,M,014.8,K*63
\c:1588516011443*6C\$IIMTA,20.6,C*01
\c:1588516011443*6C\$IIMTW,18.5,C*1F
\c:1588516011443*6C\$IIVWT,057.,L,05.7,N,02.9,M,010.6,K*6D
\c:1588516011443*6C\$IIHDG,271.,,,,*7D
\c:1588516011443*6C\$IIHDM,271.,M*16
\c:1588516011443*6C\$IIGLL,4728.424,N,00247.261,W,125334,A,A*4F
\c:1588516011444*6B\$IIZDA,125334,07,07,2017,,*59
\c:1588516011444*6B\$IIVTG,273.,T,,M,03.7,N,06.9,K,A*27
\c:1588516011444*6B\$IIDPT,0005.6,,*71
\c:1588516011444*6B\$IIDBT,0018.5,f,0005.6,M,,*76
\c:1588516011444*6B\$IIVLW,0093.0,N,093.85,N*40
\c:1588516011446*69\$PNKEP,01,4.3,N,7.9,K*61
\c:1588516011446*69\$PNKEP,02,161.0*6A
\c:1588516011447*68\$PNKEP,03,314.0,85.5,76.5*67
\c:1588516011447*68\$PNKEP,04,268.2,88.3,268.2,88.3*68
\c:1588516011448*67\$PNKEP,05,313.0,0.6,N,1.1,K*69
\c:1588516011448*67\$GPWPL,4727.480,N,00251.511,W,POI_GO*51
\c:1588516011449*66\$GPBWC,142651.00,4727.480,N,00251.511,W,251.8,T,,M,3.0,N,POI_GO*11
\c:1588516011450*6E\$GPRMB,A,0,L,POI_GO,LauBen,4727.480,N,00251.511,W,3.0,251.8,3.7,V,%14*16
\c:1588516012425*6F\$IIVHW,,,271.,M,03.26,N,06.03,K*19
\c:1588516012425*6F\$IIMWV,324,R,08.0,N,A*1E
\c:1588516012425*6F\$IIVWR,036.,L,08.0,N,04.1,M,014.8,K*62
\c:1588516012425*6F\$IIMWD,,,215.,M,05.7,N,02.9,M*01
\c:1588516012425*6F\$IIMTA,20.6,C*01
\c:1588516012425*6F\$IIMTW,18.5,C*1F
\c:1588516012425*6F\$IIVWT,056.,L,05.7,N,02.9,M,010.6,K*6C
\c:1588516012425*6F\$IIHDG,271.,,,,*7D
\c:1588516012425*6F\$IIHDM,271.,M*16
\c:1588516012425*6F\$IIGLL,4728.424,N,00247.264,W,125334,A,A*4A
\c:1588516012425*6F\$IIZDA,125334,07,07,2017,,*59
\c:1588516012425*6F\$IIVTG,276.,T,,M,03.6,N,06.7,K,A*2D
\c:1588516012425*6F\$IIDPT,0005.6,,*71
\c:1588516012425*6F\$IIDBT,0018.5,f,0005.6,M,,*76
\c:1588516012425*6F\$IIVLW,0093.0,N,093.85,N*40
\c:1588516012425*6F\$IIVHW,,,271.,M,03.29,N,06.09,K*1C
\c:1588516012425*6F\$IIMWV,324,R,08.0,N,A*1E
\c:1588516012425*6F\$IIVWR,036.,L,08.0,N,04.1,M,014.8,K*62
\c:1588516012425*6F\$IIMWD,,,215.,M,05.7,N,02.9,M*01
\c:1588516012425*6F\$IIMTA,20.6,C*01
\c:1588516013424*6F\$IIMTW,18.6,C*1C
\c:1588516013425*6E\$IIVWT,056.,L,05.7,N,02.9,M,010.6,K*6C
\c:1588516013425*6E\$IIHDG,271.,,,,*7D
\c:1588516013425*6E\$IIHDM,271.,M*16
\c:1588516013425*6E\$IIGLL,4728.424,N,00247.264,W,125336,A,A*48
\c:1588516013425*6E\$IIZDA,125336,07,07,2017,,*5B
\c:1588516013425*6E\$IIVTG,276.,T,,M,03.6,N,06.7,K,A*2D
\c:1588516013425*6E\$IIDPT,0005.6,,*71
\c:1588516013425*6E\$IIDBT,0018.5,f,0005.6,M,,*76
\c:1588516013425*6E\$IIVLW,0093.0,N,093.85,N*40
\c:1588516013425*6E\$IIVHW,,,271.,M,03.29,N,06.09,K*1C
\c:1588516013425*6E\$IIMWV,325,R,08.0,N,A*1F
\c:1588516013425*6E\$IIVWR,035.,L,08.0,N,04.1,M,014.8,K*61
\c:1588516013425*6E\$IIMTA,20.6,C*01
\c:1588516013425*6E\$IIMTW,18.6,C*1C
\c:1588516013425*6E\$IIVWT,056.,L,05.6,N,02.9,M,010.4,K*6F
\c:1588516013425*6E\$IIHDG,270.,,,,*7C
\c:1588516013425*6E\$IIHDM,270.,M*17
\c:1588516013425*6E\$IIGLL,4728.425,N,00247.267,W,125336,A,A*4A
\c:1588516013425*6E\$IIZDA,125336,07,07,2017,,*5B
\c:1588516014426*6A\$IIVHW,,,270.,M,03.27,N,06.05,K*1F
\c:1588516014426*6A\$IIMWV,325,R,07.9,N,A*19
\c:1588516014426*6A\$IIVWR,035.,L,07.9,N,04.1,M,014.6,K*69
\c:1588516014426*6A\$IIMWD,,,217.,M,05.6,N,02.9,M*02
\c:1588516014426*6A\$IIMTA,20.6,C*01
\c:1588516014426*6A\$IIMTW,18.5,C*1F
\c:1588516014426*6A\$IIVWT,054.,L,05.6,N,02.9,M,010.4,K*6D
\c:1588516014426*6A\$IIHDG,270.,,,,*7C
\c:1588516014426*6A\$IIHDM,270.,M*17
\c:1588516014426*6A\$IIGLL,4728.425,N,00247.270,W,125338,A,A*42
\c:1588516014426*6A\$IIZDA,125338,07,07,2017,,*55
\c:1588516014426*6A\$IIVTG,273.,T,,M,03.7,N,06.9,K,A*27
\c:1588516014426*6A\$IIDPT,0005.6,,*71
\c:1588516014426*6A\$IIDBT,0018.5,f,0005.6,M,,*76
\c:1588516014426*6A\$IIVLW,0093.0,N,093.85,N*40
\c:1588516014426*6A\$IIVHW,,,270.,M,03.25,N,06.01,K*19
\c:1588516014443*69\$PNKEP,01,4.3,N,7.9,K*61
\c:1588516014443*69\$PNKEP,02,159.0*61
\c:1588516014443*69\$PNKEP,03,314.0,86.6,77.4*67
\c:1588516014444*6E\$PNKEP,04,266.1,88.8,266.1,88.8*68
\c:1588516014444*6E\$PNKEP,05,317.6,0.4,N,0.8,K*61
\c:1588516014444*6E\$GPWPL,4727.480,N,00251.511,W,POI_GO*51
\c:1588516014444*6E\$GPBWC,142654.00,4727.480,N,00251.511,W,251.8,T,,M,3.0,N,POI_GO*14
\c:1588516014444*6E\$GPRMB,A,0,L,POI_GO,LauBen,4727.480,N,00251.511,W,3.0,251.8,3.6,V,%14*17
\c:1588516015424*69\$IIMWV,325,R,07.9,N,A*19
\c:1588516015424*69\$IIVWR,035.,L,07.9,N,04.1,M,014.6,K*69
\c:1588516015424*69\$IIMWD,,,215.,M,05.5,N,02.8,M*02
\c:1588516015424*69\$IIMTA,20.6,C*01
\c:1588516015424*69\$IIMTW,18.5,C*1F
\c:1588516015424*69\$IIVWT,054.,L,05.5,N,02.8,M,010.2,K*69
\c:1588516015425*68\$IIHDG,270.,,,,*7C
\c:1588516015425*68\$IIHDM,270.,M*17
\c:1588516015425*68\$IIGLL,4728.425,N,00247.270,W,125338,A,A*42
\c:1588516015425*68\$IIZDA,125338,07,07,2017,,*55
\c:1588516015425*68\$IIVTG,276.,T,,M,03.5,N,06.5,K,A*2C
\c:1588516015425*68\$IIDPT,0005.6,,*71
\c:1588516015425*68\$IIDBT,0018.5,f,0005.6,M,,*76
\c:1588516015425*68\$IIVLW,0093.0,N,093.85,N*40
\c:1588516015425*68\$IIVHW,,,270.,M,03.19,N,05.91,K*1C
\c:1588516015425*68\$IIMWV,326,R,07.9,N,A*1A
\c:1588516015426*6B\$IIVWR,034.,L,07.9,N,04.1,M,014.6,K*68
\c:1588516015426*6B\$IIMTA,20.6,C*01
\c:1588516015426*6B\$IIMTW,18.5,C*1F
\c:1588516015426*6B\$IIVWT,053.,L,05.5,N,02.8,M,010.2,K*6E
\c:1588516016425*6B\$IIHDG,270.,,,,*7C
\c:1588516016425*6B\$IIHDM,270.,M*17
\c:1588516016425*6B\$IIGLL,4728.425,N,00247.272,W,125340,A,A*4F
\c:1588516016425*6B\$IIZDA,125340,07,07,2017,,*5A
\c:1588516016425*6B\$IIVTG,276.,T,,M,03.5,N,06.5,K,A*2C
\c:1588516016425*6B\$IIDPT,0005.5,,*72
\c:1588516016426*68\$IIDBT,0018.2,f,0005.5,M,,*72
\c:1588516016426*68\$IIVLW,0093.0,N,093.85,N*40
\c:1588516016426*68\$IIVHW,,,270.,M,03.16,N,05.85,K*16
\c:1588516016426*68\$IIMWV,327,R,07.9,N,A*1B
\c:1588516016426*68\$IIVWR,033.,L,07.9,N,04.1,M,014.6,K*6F
\c:1588516016426*68\$IIMWD,,,219.,M,05.5,N,02.8,M*0E
\c:1588516016426*68\$IIMTA,20.6,C*01
\c:1588516016426*68\$IIMTW,18.5,C*1F
\c:1588516016426*68\$IIVWT,051.,L,05.5,N,02.8,M,010.2,K*6C
\c:1588516016426*68\$IIHDG,270.,,,,*7C
\c:1588516016426*68\$IIHDM,270.,M*17
\c:1588516016426*68\$IIGLL,4728.425,N,00247.272,W,125340,A,A*4F
\c:1588516016426*68\$IIZDA,125340,07,07,2017,,*5A
\c:1588516016426*68\$IIVTG,275.,T,,M,03.2,N,05.9,K,A*27
\c:1588516017443*6A\$IIDPT,0005.4,,*73
\c:1588516017443*6A\$IIDBT,0017.8,f,0005.4,M,,*76
\c:1588516017443*6A\$IIVLW,0093.0,N,093.86,N*43
\c:1588516017444*6D\$IIVHW,,,270.,M,03.15,N,05.83,K*13
\c:1588516017444*6D\$IIMWV,327,R,07.9,N,A*1B
\c:1588516017444*6D\$IIVWR,033.,L,07.9,N,04.1,M,014.6,K*6F
\c:1588516017444*6D\$IIMWD,,,219.,M,05.5,N,02.8,M*0E
\c:1588516017445*6C\$IIMTA,20.6,C*01
\c:1588516017445*6C\$IIMTW,18.5,C*1F
\c:1588516017445*6C\$IIVWT,051.,L,05.5,N,02.8,M,010.2,K*6C
\c:1588516017445*6C\$IIHDG,270.,,,,*7C
\c:1588516017445*6C\$IIHDM,270.,M*17
\c:1588516017445*6C\$IIGLL,4728.425,N,00247.275,W,125342,A,A*4A
\c:1588516017445*6C\$IIZDA,125342,07,07,2017,,*58
\c:1588516017445*6C\$IIVTG,273.,T,,M,03.3,N,06.1,K,A*2B
\c:1588516017445*6C\$IIDPT,0005.6,,*71
\c:1588516017445*6C\$IIDBT,0018.5,f,0005.6,M,,*76
\c:1588516017445*6C\$IIVLW,0093.0,N,093.86,N*43
\c:1588516017445*6C\$IIVHW,,,270.,M,03.14,N,05.81,K*10
\c:1588516017445*6C\$IIMWV,327,R,07.8,N,A*1A
\c:1588516017447*6E\$PNKEP,01,4.0,N,7.5,K*6E
\c:1588516017448*61\$PNKEP,02,168.0*63
\c:1588516017449*60\$PNKEP,03,314.0,83.2,78.0*6D
\c:1588516017449*60\$PNKEP,04,269.2,83.9,269.2,83.9*68
\c:1588516017450*68\$PNKEP,05,354.3,0.3,N,0.5,K*69
\c:1588516017450*68\$GPWPL,4727.480,N,00251.511,W,POI_GO*51
\c:1588516017451*69\$GPBWC,142657.00,4727.480,N,00251.511,W,251.8,T,,M,3.0,N,POI_GO*17
\c:1588516017452*6A\$GPRMB,A,0,L,POI_GO,LauBen,4727.480,N,00251.511,W,3.0,251.8,3.2,V,%14*13
\c:1588516018424*64\$IIVWR,033.,L,07.8,N,04.0,M,014.4,K*6D
\c:1588516018424*64\$IIMWD,,,219.,M,05.5,N,02.8,M*0E
\c:1588516018424*64\$IIMTA,20.6,C*01
\c:1588516018424*64\$IIMTW,18.6,C*1C
\c:1588516018425*65\$IIVWT,051.,L,05.5,N,02.8,M,010.2,K*6C
\c:1588516018425*65\$IIHDG,270.,,,,*7C
\c:1588516018425*65\$IIHDM,270.,M*17
\c:1588516018425*65\$IIGLL,4728.425,N,00247.275,W,125342,A,A*4A
\c:1588516018425*65\$IIZDA,125342,07,07,2017,,*58
\c:1588516018425*65\$IIVTG,273.,T,,M,03.3,N,06.1,K,A*2B
\c:1588516018425*65\$IIDPT,0005.6,,*71
\c:1588516018426*66\$IIDBT,0018.5,f,0005.6,M,,*76
\c:1588516018426*66\$IIVLW,0093.0,N,093.86,N*43
\c:1588516018426*66\$IIVHW,,,270.,M,03.11,N,05.75,K*1E
\c:1588516018426*66\$IIMWV,328,R,07.8,N,A*15
\c:1588516018426*66\$IIVWR,032.,L,07.8,N,04.0,M,014.4,K*6C
\c:1588516018426*66\$IIMWD,,,220.,M,05.4,N,02.8,M*05
\c:1588516018426*66\$IIMTA,20.5,C*02
\c:1588516018426*66\$IIMTW,18.6,C*1C
\c:1588516018426*66\$IIVWT,050.,L,05.4,N,02.8,M,010.0,K*6E
\c:1588516019424*65\$IIHDG,270.,,,,*7C
\c:1588516019424*65\$IIHDM,270.,M*17
\c:1588516019424*65\$IIGLL,4728.425,N,00247.278,W,125344,A,A*41
\c:1588516019424*65\$IIZDA,125344,07,07,2017,,*5E
\c:1588516019424*65\$IIVTG,276.,T,,M,03.1,N,05.8,K,A*26
\c:1588516019425*64\$IIDPT,0005.5,,*72
\c:1588516019425*64\$IIDBT,0018.2,f,0005.5,M,,*72
\c:1588516019425*64\$IIVLW,0093.0,N,093.86,N*43
\c:1588516019425*64\$IIVHW,,,271.,M,03.06,N,05.66,K*1B
\c:1588516019425*64\$IIMWV,328,R,07.8,N,A*15
\c:1588516019425*64\$IIVWR,032.,L,07.8,N,04.0,M,014.4,K*6C
\c:1588516019425*64\$IIMWD,,,221.,M,05.4,N,02.8,M*04
\c:1588516019425*64\$IIMTA,20.5,C*02
\c:1588516019426*67\$IIMTW,18.6,C*1C
\c:1588516019426*67\$IIVWT,049.,L,05.4,N,02.8,M,010.0,K*66
\c:1588516019426*67\$IIHDG,271.,,,,*7D
\c:1588516019426*67\$IIHDM,271.,M*16
\c:1588516019426*67\$IIGLL,4728.425,N,00247.278,W,125346,A,A*43
\c:1588516019426*67\$IIZDA,125346,07,07,2017,,*5C
\c:1588516019426*67\$IIVTG,276.,T,,M,03.1,N,05.8,K,A*26
\c:1588516020425*6E\$IIDPT,0005.4,,*73
\c:1588516020425*6E\$IIDBT,0017.8,f,0005.4,M,,*76
\c:1588516020425*6E\$IIVLW,0093.0,N,093.86,N*43
\c:1588516020425*6E\$IIVHW,,,271.,M,03.06,N,05.66,K*1B
\c:1588516020426*6D\$IIMWV,328,R,07.8,N,A*15
\c:1588516020426*6D\$IIVWR,032.,L,07.8,N,04.0,M,014.4,K*6C
\c:1588516020426*6D\$IIMWD,,,222.,M,05.4,N,02.8,M*07
\c:1588516020426*6D\$IIMTA,20.5,C*02
\c:1588516020426*6D\$IIMTW,18.5,C*1F
\c:1588516020426*6D\$IIVWT,049.,L,05.4,N,02.8,M,010.0,K*66
\c:1588516020426*6D\$IIHDG,271.,,,,*7D
\c:1588516020427*6C\$IIHDM,271.,M*16
\c:1588516020427*6C\$IIGLL,4728.425,N,00247.280,W,125346,A,A*44
\c:1588516020427*6C\$IIZDA,125346,07,07,2017,,*5C
\c:1588516020427*6C\$IIVTG,273.,T,,M,03.3,N,06.1,K,A*2B
\c:1588516020427*6C\$IIDPT,0005.4,,*73
\c:1588516020427*6C\$IIDBT,0017.8,f,0005.4,M,,*76
\c:1588516020427*6C\$IIVLW,0093.0,N,093.86,N*43
\c:1588516020427*6C\$IIVHW,,,271.,M,03.04,N,05.63,K*1C
\c:1588516020427*6C\$IIMWV,328,R,07.7,N,A*1A
\c:1588516020447*6A\$PNKEP,01,4.0,N,7.4,K*6F
\c:1588516020447*6A\$PNKEP,02,171.0*6B
\c:1588516020448*65\$PNKEP,03,314.0,80.5,76.5*62
\c:1588516020449*64\$PNKEP,04,271.1,81.2,271.1,81.2*68
\c:1588516020449*64\$PNKEP,05,355.0,0.3,N,0.5,K*6B
\c:1588516020450*6C\$GPWPL,4727.480,N,00251.511,W,POI_GO*51
\c:1588516020451*6D\$GPBWC,142700.00,4727.480,N,00251.511,W,251.7,T,,M,3.0,N,POI_GO*1B
\c:1588516020451*6D\$GPRMB,A,0,L,POI_GO,LauBen,4727.480,N,00251.511,W,3.0,251.7,3.1,V,%14*1F
\c:1588516021424*6E\$IIVWR,032.,L,07.7,N,04.0,M,014.3,K*64
\c:1588516021425*6F\$IIMWD,,,222.,M,05.4,N,02.8,M*07
\c:1588516021425*6F\$IIMTA,20.5,C*02
\c:1588516021425*6F\$IIMTW,18.6,C*1C
\c:1588516021425*6F\$IIVWT,049.,L,05.3,N,02.7,M,009.8,K*6E
\c:1588516021425*6F\$IIHDG,271.,,,,*7D
\c:1588516021425*6F\$IIHDM,271.,M*16
\c:1588516021425*6F\$IIGLL,4728.425,N,00247.280,W,125348,A,A*4A
\c:1588516021425*6F\$IIZDA,125348,07,07,2017,,*52
\c:1588516021425*6F\$IIVTG,273.,T,,M,03.3,N,06.1,K,A*2B
\c:1588516021426*6C\$IIDPT,0005.5,,*72
\c:1588516021426*6C\$IIDBT,0018.2,f,0005.5,M,,*72
\c:1588516021426*6C\$IIVLW,0093.0,N,093.86,N*43
\c:1588516021426*6C\$IIVHW,,,271.,M,02.99,N,05.54,K*1D
\c:1588516021426*6C\$IIMWV,328,R,07.7,N,A*1A
\c:1588516021426*6C\$IIVWR,032.,L,07.7,N,04.0,M,014.3,K*64
\c:1588516021426*6C\$IIMWD,,,222.,M,05.3,N,02.7,M*0F
\c:1588516021426*6C\$IIMTA,20.5,C*02
\c:1588516021426*6C\$IIMTW,18.5,C*1F
\c:1588516021426*6C\$IIVWT,049.,L,05.3,N,02.7,M,009.8,K*6E
\c:1588516022425*6C\$IIVTG,276.,T,,M,03.3,N,06.1,K,A*2E
\c:1588516022425*6C\$IIDPT,0005.6,,*71
\c:1588516022425*6C\$IIDBT,0018.5,f,0005.6,M,,*76
\c:1588516022425*6C\$IIVLW,0093.0,N,093.86,N*43
\c:1588516022425*6C\$IIVHW,,,272.,M,02.96,N,05.48,K*1C
\c:1588516022425*6C\$IIMWV,328,R,07.7,N,A*1A
\c:1588516022425*6C\$IIVWR,032.,L,07.7,N,04.0,M,014.3,K*64
\c:1588516022425*6C\$IIMWD,,,222.,M,05.4,N,02.8,M*07
\c:1588516022425*6C\$IIMTA,20.5,C*02
\c:1588516022425*6C\$IIMTW,18.6,C*1C
\c:1588516022425*6C\$IIVWT,049.,L,05.4,N,02.8,M,010.0,K*66
\c:1588516022425*6C\$IIHDG,272.,,,,*7E
\c:1588516022425*6C\$IIHDM,272.,M*15
\c:1588516022425*6C\$IIGLL,4728.426,N,00247.286,W,125350,A,A*46
\c:1588516022425*6C\$IIZDA,125350,07,07,2017,,*5B
\c:1588516022425*6C\$IIVTG,279.,T,,M,03.1,N,05.8,K,A*29
\c:1588516023425*6D\$IIMWV,327,R,07.7,N,A*15
\c:1588516023426*6E\$IIVWR,033.,L,07.7,N,04.0,M,014.3,K*65
\c:1588516023426*6E\$IIMWD,,,223.,M,05.4,N,02.8,M*06
\c:1588516023426*6E\$IIMTA,20.5,C*02
\c:1588516023426*6E\$IIMTW,18.5,C*1F
\c:1588516023426*6E\$IIVWT,049.,L,05.4,N,02.8,M,010.0,K*66
\c:1588516023426*6E\$IIHDG,273.,,,,*7F
\c:1588516023426*6E\$IIHDM,273.,M*14
\c:1588516023426*6E\$IIGLL,4728.426,N,00247.286,W,125350,A,A*46
\c:1588516023426*6E\$IIZDA,125350,07,07,2017,,*5B
\c:1588516023426*6E\$IIVTG,279.,T,,M,03.1,N,05.8,K,A*29
\c:1588516023426*6E\$IIDPT,0005.5,,*72
\c:1588516023426*6E\$IIDBT,0018.2,f,0005.5,M,,*72
\c:1588516023426*6E\$IIVLW,0093.0,N,093.86,N*43
\c:1588516023426*6E\$IIVHW,,,273.,M,02.92,N,05.41,K*10
\c:1588516023426*6E\$IIMWV,327,R,07.6,N,A*14
\c:1588516023445*6B\$PNKEP,01,4.0,N,7.4,K*6F
\c:1588516023446*68\$PNKEP,02,172.0*68
\c:1588516023446*68\$PNKEP,03,314.0,77.9,74.0*61
\c:1588516023447*69\$PNKEP,04,273.7,79.3,273.7,79.3*68
\c:1588516023447*69\$PNKEP,05,344.8,0.4,N,0.7,K*66
\c:1588516023448*66\$GPWPL,4727.480,N,00251.511,W,POI_GO*51
\c:1588516023449*67\$GPBWC,142703.00,4727.480,N,00251.511,W,251.7,T,,M,3.0,N,POI_GO*18
\c:1588516023450*6F\$GPRMB,A,0,L,POI_GO,LauBen,4727.480,N,00251.511,W,3.0,251.7,3.1,V,%14*1F
\c:1588516024426*69\$IIVWT,050.,L,05.3,N,02.7,M,009.8,K*66
\c:1588516024426*69\$IIHDG,273.,,,,*7F
\c:1588516024426*69\$IIHDM,273.,M*14
\c:1588516024426*69\$IIGLL,4728.426,N,00247.288,W,125352,A,A*4A
\c:1588516024426*69\$IIZDA,125352,07,07,2017,,*59
\c:1588516024426*69\$IIVTG,279.,T,,M,03.1,N,05.8,K,A*29
\c:1588516024426*69\$IIDPT,0005.4,,*73
\c:1588516024426*69\$IIDBT,0017.8,f,0005.4,M,,*76
\c:1588516024426*69\$IIVLW,0093.0,N,093.86,N*43
\c:1588516024426*69\$IIVHW,,,273.,M,02.88,N,05.33,K*1E
\c:1588516024426*69\$IIMWV,327,R,07.6,N,A*14
\c:1588516024426*69\$IIVWR,033.,L,07.6,N,03.9,M,014.1,K*68
\c:1588516024426*69\$IIMWD,,,223.,M,05.4,N,02.8,M*06
\c:1588516024426*69\$IIMTA,20.5,C*02
\c:1588516024426*69\$IIMTW,18.5,C*1F
\c:1588516024426*69\$IIVWT,050.,L,05.4,N,02.8,M,010.0,K*6E
\c:1588516025425*6B\$IIVTG,280.,T,,M,03.1,N,05.8,K,A*2F
\c:1588516025425*6B\$IIDPT,0005.4,,*73
\c:1588516025425*6B\$IIDBT,0017.8,f,0005.4,M,,*76
\c:1588516025425*6B\$IIVLW,0093.0,N,093.86,N*43
\c:1588516025425*6B\$IIVHW,,,273.,M,02.85,N,05.27,K*16
\c:1588516025425*6B\$IIMWV,326,R,07.5,N,A*16
\c:1588516025425*6B\$IIVWR,034.,L,07.5,N,03.9,M,013.9,K*63
\c:1588516025425*6B\$IIMWD,,,222.,M,05.3,N,02.7,M*0F
\c:1588516025425*6B\$IIMTA,20.5,C*02
\c:1588516025425*6B\$IIMTW,18.6,C*1C
\c:1588516025425*6B\$IIVWT,051.,L,05.3,N,02.7,M,009.8,K*67
\c:1588516025425*6B\$IIHDG,274.,,,,*78
\c:1588516025425*6B\$IIHDM,274.,M*13
\c:1588516025425*6B\$IIGLL,4728.426,N,00247.290,W,125354,A,A*45
\c:1588516025425*6B\$IIZDA,125354,07,07,2017,,*5F
\c:1588516025425*6B\$IIVTG,277.,T,,M,03.3,N,06.1,K,A*2F
\c:1588516026426*6B\$IIMWV,325,R,07.5,N,A*15
\c:1588516026426*6B\$IIVWR,035.,L,07.5,N,03.9,M,013.9,K*62
\c:1588516026426*6B\$IIMWD,,,222.,M,05.4,N,02.8,M*07
\c:1588516026426*6B\$IIMTA,20.5,C*02
\c:1588516026426*6B\$IIMTW,18.6,C*1C
\c:1588516026426*6B\$IIVWT,052.,L,05.4,N,02.8,M,010.0,K*6C
\c:1588516026426*6B\$IIHDG,274.,,,,*78
\c:1588516026426*6B\$IIHDM,274.,M*13
\c:1588516026426*6B\$IIGLL,4728.426,N,00247.290,W,125356,A,A*47
\c:1588516026426*6B\$IIZDA,125356,07,07,2017,,*5D
\c:1588516026426*6B\$IIVTG,277.,T,,M,03.3,N,06.1,K,A*2F
\c:1588516026426*6B\$IIDPT,0005.6,,*71
\c:1588516026426*6B\$IIDBT,0018.5,f,0005.6,M,,*76
\c:1588516026426*6B\$IIVLW,0093.0,N,093.87,N*42
\c:1588516026426*6B\$IIVHW,,,275.,M,02.78,N,05.14,K*12
\c:1588516026426*6B\$IIMWV,324,R,07.4,N,A*15
\c:1588516026446*6D\$PNKEP,01,4.0,N,7.5,K*6E
\c:1588516026447*6C\$PNKEP,02,171.0*6B
\c:1588516026447*6C\$PNKEP,03,314.0,75.0,70.4*6A
\c:1588516026448*63\$PNKEP,04,271.6,78.0,271.6,78.0*68
\c:1588516026449*62\$PNKEP,05,300.5,0.5,N,0.9,K*64
\c:1588516026449*62\$GPWPL,4727.480,N,00251.511,W,POI_GO*51
\c:1588516026450*6A\$GPBWC,142706.00,4727.480,N,00251.511,W,251.7,T,,M,3.0,N,POI_GO*1D
\c:1588516026451*6B\$GPRMB,A,0,L,POI_GO,LauBen,4727.480,N,00251.511,W,3.0,251.7,3.3,V,%14*1D
\c:1588516027425*69\$IIVWT,052.,L,05.4,N,02.8,M,010.0,K*6C
\c:1588516027425*69\$IIHDG,275.,,,,*79
\c:1588516027425*69\$IIHDM,275.,M*12
\c:1588516027426*6A\$IIGLL,4728.426,N,00247.293,W,125356,A,A*44
\c:1588516027426*6A\$IIZDA,125356,07,07,2017,,*5D
\c:1588516027426*6A\$IIVTG,282.,T,,M,03.1,N,05.8,K,A*2D
\c:1588516027426*6A\$IIDPT,0005.6,,*71
\c:1588516027426*6A\$IIDBT,0018.5,f,0005.6,M,,*76
\c:1588516027426*6A\$IIVLW,0093.0,N,093.87,N*42
\c:1588516027426*6A\$IIVHW,,,275.,M,02.75,N,05.10,K*1B
\c:1588516027426*6A\$IIMWV,323,R,07.4,N,A*12
\c:1588516027426*6A\$IIVWR,037.,L,07.4,N,03.8,M,013.7,K*6E
\c:1588516027426*6A\$IIMWD,,,221.,M,05.4,N,02.8,M*04
\c:1588516027426*6A\$IIMTA,20.5,C*02
\c:1588516027426*6A\$IIMTW,18.5,C*1F
\c:1588516027426*6A\$IIVWT,054.,L,05.4,N,02.8,M,010.0,K*6A
\c:1588516028424*67\$IIVTG,282.,T,,M,03.1,N,05.8,K,A*2D
\c:1588516028425*66\$IIDPT,0005.6,,*71
\c:1588516028425*66\$IIDBT,0018.5,f,0005.6,M,,*76
\c:1588516028425*66\$IIVLW,0093.0,N,093.87,N*42
\c:1588516028425*66\$IIVHW,,,276.,M,02.74,N,05.08,K*10
\c:1588516028425*66\$IIMWV,323,R,07.3,N,A*15
\c:1588516028425*66\$IIVWR,037.,L,07.3,N,03.8,M,013.5,K*6B
\c:1588516028425*66\$IIMWD,,,220.,M,05.3,N,02.7,M*0D
\c:1588516028425*66\$IIMTA,20.5,C*02
\c:1588516028425*66\$IIMTW,18.5,C*1F
\c:1588516028425*66\$IIVWT,055.,L,05.3,N,02.7,M,009.8,K*63
\c:1588516028425*66\$IIHDG,276.,,,,*7A
\c:1588516028425*66\$IIHDM,276.,M*11
\c:1588516028425*66\$IIGLL,4728.427,N,00247.295,W,125358,A,A*4D
\c:1588516028425*66\$IIZDA,125358,07,07,2017,,*53
\c:1588516028425*66\$IIVTG,283.,T,,M,03.3,N,06.1,K,A*24
\c:1588516029424*66\$IIMWV,323,R,07.3,N,A*15
\c:1588516029424*66\$IIVWR,037.,L,07.3,N,03.8,M,013.5,K*6B
\c:1588516029424*66\$IIMWD,,,221.,M,05.3,N,02.7,M*0C
\c:1588516029424*66\$IIMTA,20.5,C*02
\c:1588516029424*66\$IIMTW,18.6,C*1C
\c:1588516029424*66\$IIVWT,055.,L,05.3,N,02.7,M,009.8,K*63
\c:1588516029424*66\$IIHDG,276.,,,,*7A
\c:1588516029424*66\$IIHDM,276.,M*11
\c:1588516029424*66\$IIGLL,4728.427,N,00247.295,W,125400,A,A*47
\c:1588516029424*66\$IIZDA,125400,07,07,2017,,*59
\c:1588516029424*66\$IIVTG,283.,T,,M,03.3,N,06.1,K,A*24
\c:1588516029424*66\$IIDPT,0005.6,,*71
\c:1588516029424*66\$IIDBT,0018.5,f,0005.6,M,,*76
\c:1588516029425*67\$IIVLW,0093.0,N,093.87,N*42
\c:1588516029425*67\$IIVHW,,,276.,M,02.76,N,05.12,K*19
\c:1588516029425*67\$IIMWV,322,R,07.3,N,A*14
\c:1588516029445*61\$PNKEP,01,4.3,N,7.9,K*61
\c:1588516029445*61\$PNKEP,02,164.0*6F
\c:1588516029445*61\$PNKEP,03,314.0,72.1,64.5*68
\c:1588516029445*61\$PNKEP,04,272.6,77.0,272.6,77.0*68
\c:1588516029445*61\$PNKEP,05,312.9,0.7,N,1.2,K*63
\c:1588516029445*61\$GPWPL,4727.480,N,00251.511,W,POI_GO*51
\c:1588516029446*62\$GPBWC,142709.00,4727.480,N,00251.511,W,251.6,T,,M,3.0,N,POI_GO*13
\c:1588516029446*62\$GPRMB,A,0,L,POI_GO,LauBen,4727.480,N,00251.511,W,3.0,251.6,3.3,V,%14*1C
\c:1588516030423*69\$IIVWR,038.,L,07.3,N,03.8,M,013.5,K*64
\c:1588516030423*69\$IIMWD,,,220.,M,05.3,N,02.7,M*0D
\c:1588516030423*69\$IIMTA,20.5,C*02
\c:1588516030423*69\$IIMTW,18.5,C*1F
\c:1588516030423*69\$IIVWT,056.,L,05.3,N,02.7,M,009.8,K*60
\c:1588516030423*69\$IIHDG,276.,,,,*7A
\c:1588516030423*69\$IIHDM,276.,M*11
\c:1588516030423*69\$IIGLL,4728.427,N,00247.298,W,125400,A,A*4A
\c:1588516030423*69\$IIZDA,125400,07,07,2017,,*59
\c:1588516030423*69\$IIVTG,283.,T,,M,03.2,N,05.9,K,A*2E
\c:1588516030423*69\$IIDPT,0005.5,,*72
\c:1588516030423*69\$IIDBT,0018.2,f,0005.5,M,,*72
\c:1588516030424*6E\$IIVLW,0093.0,N,093.87,N*42
\c:1588516030424*6E\$IIVHW,,,276.,M,02.77,N,05.13,K*19
\c:1588516030424*6E\$IIMWV,322,R,07.2,N,A*15
\c:1588516030424*6E\$IIVWR,038.,L,07.2,N,03.7,M,013.3,K*6C
\c:1588516030424*6E\$IIMWD,,,220.,M,05.3,N,02.7,M*0D
\c:1588516030424*6E\$IIMTA,20.5,C*02
\c:1588516030424*6E\$IIMTW,18.5,C*1F
\c:1588516030424*6E\$IIVWT,056.,L,05.3,N,02.7,M,009.8,K*60
\c:1588516031425*6E\$IIHDG,276.,,,,*7A
\c:1588516031425*6E\$IIHDM,276.,M*11
\c:1588516031426*6D\$IIDPT,0005.4,,*73
\c:1588516031426*6D\$IIDBT,0017.8,f,0005.4,M,,*76
\c:1588516031426*6D\$IIVLW,0093.0,N,093.87,N*42
\c:1588516031426*6D\$IIVHW,,,276.,M,02.77,N,05.13,K*19
\c:1588516031426*6D\$IIMWV,322,R,07.2,N,A*15
\c:1588516031426*6D\$IIVWR,038.,L,07.2,N,03.7,M,013.3,K*6C
\c:1588516031426*6D\$IIMWD,,,219.,M,05.2,N,02.7,M*06
\c:1588516031426*6D\$IIMTA,20.5,C*02
\c:1588516031426*6D\$IIMTW,18.6,C*1C
\c:1588516031426*6D\$IIVWT,057.,L,05.2,N,02.7,M,009.6,K*6E
\c:1588516031426*6D\$IIHDG,277.,,,,*7B
\c:1588516031426*6D\$IIHDM,277.,M*10
\c:1588516031426*6D\$IIGLL,4728.427,N,00247.300,W,125402,A,A*48
\c:1588516031426*6D\$IIZDA,125402,07,07,2017,,*5B
\c:1588516031426*6D\$IIVTG,281.,T,,M,03.1,N,05.8,K,A*2E
\c:1588516032428*60\$IIMWV,321,R,07.1,N,A*15
\c:1588516032428*60\$IIVWR,039.,L,07.1,N,03.7,M,013.1,K*6C
\c:1588516032428*60\$IIMWD,,,220.,M,05.3,N,02.7,M*0D
\c:1588516032428*60\$IIMTA,20.5,C*02
\c:1588516032428*60\$IIMTW,18.6,C*1C
\c:1588516032428*60\$IIVWT,057.,L,05.3,N,02.7,M,009.8,K*61
\c:1588516032428*60\$IIHDG,276.,,,,*7A
\c:1588516032428*60\$IIHDM,276.,M*11
\c:1588516032428*60\$IIGLL,4728.428,N,00247.303,W,125404,A,A*42
\c:1588516032428*60\$IIZDA,125404,07,07,2017,,*5D
\c:1588516032428*60\$IIVTG,281.,T,,M,03.1,N,05.8,K,A*2E
\c:1588516032428*60\$IIDPT,0005.5,,*72
\c:1588516032428*60\$IIDBT,0018.2,f,0005.5,M,,*72
\c:1588516032428*60\$IIVLW,0093.0,N,093.87,N*42
\c:1588516032429*61\$IIVHW,,,276.,M,02.75,N,05.09,K*10
\c:1588516032429*61\$IIMWV,321,R,07.1,N,A*15
\c:1588516032440*6E\$PNKEP,01,4.3,N,8.0,K*67
\c:1588516032440*6E\$PNKEP,02,162.0*69
\c:1588516032440*6E\$PNKEP,03,314.0,72.9,64.4*61
\c:1588516032440*6E\$PNKEP,04,269.6,76.1,269.6,76.1*68
\c:1588516032440*6E\$PNKEP,05,316.3,0.4,N,0.8,K*65
\c:1588516032440*6E\$GPWPL,4727.480,N,00251.511,W,POI_GO*51
\c:1588516032440*6E\$GPBWC,142712.00,4727.480,N,00251.511,W,251.6,T,,M,3.0,N,POI_GO*19
\c:1588516032441*6F\$GPRMB,A,0,L,POI_GO,LauBen,4727.480,N,00251.511,W,3.0,251.6,3.1,V,%14*1E
\c:1588516033425*6C\$IIMTA,20.5,C*02
\c:1588516033425*6C\$IIHDG,276.,,,,*7A
\c:1588516033425*6C\$IIHDM,276.,M*11
\c:1588516033425*6C\$IIGLL,4728.428,N,00247.303,W,125406,A,A*40
\c:1588516033425*6C\$IIZDA,125406,07,07,2017,,*5F
\c:1588516033425*6C\$IIVTG,282.,T,,M,03.2,N,05.9,K,A*2F
\c:1588516033425*6C\$IIDPT,0005.6,,*71
\c:1588516033425*6C\$IIDBT,0018.5,f,0005.6,M,,*76
\c:1588516033425*6C\$IIVLW,0093.0,N,093.87,N*42
\c:1588516033425*6C\$IIVHW,,,276.,M,02.74,N,05.07,K*1F
\c:1588516033425*6C\$IIMWV,320,R,07.1,N,A*14
\c:1588516033425*6C\$IIVWR,040.,L,07.1,N,03.7,M,013.1,K*62
\c:1588516033425*6C\$IIMWD,,,218.,M,05.2,N,02.7,M*07
\c:1588516033425*6C\$IIMTA,20.5,C*02
\c:1588516033425*6C\$IIMTW,18.5,C*1F
\c:1588516033425*6C\$IIVWT,058.,L,05.2,N,02.7,M,009.6,K*61
\c:1588516034424*6A\$IIHDM,276.,M*11
\c:1588516034424*6A\$IIDPT,0005.5,,*72
\c:1588516034425*6B\$IIDBT,0018.2,f,0005.5,M,,*72
\c:1588516034425*6B\$IIVLW,0093.0,N,093.88,N*4D
\c:1588516034425*6B\$IIVHW,,,276.,M,02.74,N,05.07,K*1F
\c:1588516034425*6B\$IIMWV,320,R,07.1,N,A*14
\c:1588516034425*6B\$IIVWR,040.,L,07.1,N,03.7,M,013.1,K*62
\c:1588516034425*6B\$IIMWD,,,217.,M,05.3,N,02.7,M*09
\c:1588516034425*6B\$IIMTA,20.5,C*02
\c:1588516034425*6B\$IIMTW,18.5,C*1F
\c:1588516034425*6B\$IIVWT,059.,L,05.3,N,02.7,M,009.8,K*6F
\c:1588516034425*6B\$IIHDG,276.,,,,*7A
\c:1588516034425*6B\$IIHDM,276.,M*11
\c:1588516034425*6B\$IIGLL,4728.428,N,00247.305,W,125408,A,A*48
\c:1588516034425*6B\$IIZDA,125408,07,07,2017,,*51
\c:1588516034425*6B\$IIVTG,284.,T,,M,03.2,N,05.9,K,A*29
\c:1588516035425*6A\$IIVHW,,,276.,M,02.76,N,05.11,K*1A
\c:1588516035425*6A\$IIVWR,040.,L,07.1,N,03.7,M,013.1,K*62
\c:1588516035425*6A\$IIMWD,,,217.,M,05.2,N,02.7,M*08
\c:1588516035425*6A\$IIMTA,20.5,C*02
\c:1588516035426*69\$IIMTW,18.5,C*1F
\c:1588516035426*69\$IIVWT,059.,L,05.2,N,02.7,M,009.6,K*60
\c:1588516035426*69\$IIHDG,276.,,,,*7A
\c:1588516035426*69\$IIHDM,276.,M*11
\c:1588516035426*69\$IIGLL,4728.428,N,00247.308,W,125408,A,A*45
\c:1588516035426*69\$IIZDA,125408,07,07,2017,,*51
\c:1588516035426*69\$IIVTG,280.,T,,M,03.2,N,05.9,K,A*2D
\c:1588516035426*69\$IIDPT,0005.4,,*73
\c:1588516035426*69\$IIDBT,0017.8,f,0005.4,M,,*76
\c:1588516035426*69\$IIVLW,0093.0,N,093.88,N*4D
\c:1588516035426*69\$IIVHW,,,275.,M,02.77,N,05.13,K*1A
\c:1588516035426*69\$IIMWV,319,R,07.1,N,A*1E
\c:1588516035440*69\$PNKEP,01,4.4,N,8.1,K*61
\c:1588516035440*69\$PNKEP,02,158.0*60
\c:1588516035440*69\$PNKEP,03,314.0,72.1,62.3*68
\c:1588516035440*69\$PNKEP,04,270.3,77.1,270.3,77.1*68
\c:1588516035440*69\$PNKEP,05,322.1,0.6,N,1.1,K*6A
\c:1588516035440*69\$GPWPL,4727.480,N,00251.511,W,POI_GO*51
\c:1588516035440*69\$GPBWC,142715.00,4727.480,N,00251.511,W,251.6,T,,M,3.0,N,POI_GO*1E
\c:1588516035440*69\$GPRMB,A,0,L,POI_GO,LauBen,4727.480,N,00251.511,W,3.0,251.6,3.2,V,%14*1D
\c:1588516036424*68\$IIMWD,,,216.,M,05.2,N,02.7,M*09
\c:1588516036425*69\$IIHDG,275.,,,,*79
\c:1588516036426*6A\$IIHDM,275.,M*12
\c:1588516036426*6A\$IIGLL,4728.429,N,00247.311,W,125410,A,A*45
\c:1588516036426*6A\$IIZDA,125410,07,07,2017,,*58
\c:1588516036426*6A\$IIVTG,280.,T,,M,03.2,N,05.9,K,A*2D
\c:1588516036426*6A\$IIDPT,0005.4,,*73
\c:1588516036426*6A\$IIDBT,0017.8,f,0005.4,M,,*76
\c:1588516036426*6A\$IIVLW,0093.0,N,093.88,N*4D
\c:1588516036426*6A\$IIVHW,,,275.,M,02.74,N,05.08,K*13
\c:1588516036426*6A\$IIMWV,319,R,07.1,N,A*1E
\c:1588516036426*6A\$IIVWR,041.,L,07.1,N,03.7,M,013.1,K*63
\c:1588516036426*6A\$IIMWD,,,214.,M,05.3,N,02.7,M*0A
\c:1588516036426*6A\$IIMTA,20.5,C*02
\c:1588516036426*6A\$IIMTW,18.5,C*1F
\c:1588516036426*6A\$IIVWT,061.,L,05.3,N,02.7,M,009.8,K*64
\c:1588516037422*6F\$IIVTG,285.,T,,M,03.1,N,05.8,K,A*2A
\c:1588516037422*6F\$IIDPT,0005.4,,*73
\c:1588516037422*6F\$IIDBT,0017.8,f,0005.4,M,,*76
\c:1588516037422*6F\$IIVLW,0093.0,N,093.88,N*4D
\c:1588516037422*6F\$IIVHW,,,275.,M,02.76,N,05.11,K*19
\c:1588516037422*6F\$IIMWV,319,R,07.1,N,A*1E
\c:1588516037422*6F\$IIVWR,041.,L,07.1,N,03.7,M,013.1,K*63
\c:1588516037422*6F\$IIMWD,,,214.,M,05.3,N,02.7,M*0A
\c:1588516037422*6F\$IIMTA,20.5,C*02
\c:1588516037422*6F\$IIMTW,18.5,C*1F
\c:1588516037422*6F\$IIVWT,061.,L,05.3,N,02.7,M,009.8,K*64
\c:1588516037422*6F\$IIHDG,275.,,,,*79
\c:1588516037422*6F\$IIHDM,274.,M*13
\c:1588516037422*6F\$IIGLL,4728.429,N,00247.313,W,125412,A,A*45
\c:1588516037422*6F\$IIZDA,125412,07,07,2017,,*5A
\c:1588516037422*6F\$IIVTG,285.,T,,M,03.1,N,05.8,K,A*2A
\c:1588516038431*62\$IIGLL,4728.429,N,00247.313,W,125412,A,A*45
\c:1588516038431*62\$IIZDA,125412,07,07,2017,,*5A
\c:1588516038431*62\$IIVTG,278.,T,,M,03.1,N,05.8,K,A*28
\c:1588516038431*62\$IIDPT,0005.4,,*73
\c:1588516038431*62\$IIDBT,0017.8,f,0005.4,M,,*76
\c:1588516038431*62\$IIVLW,0093.0,N,093.88,N*4D
\c:1588516038431*62\$IIVHW,,,274.,M,02.73,N,05.05,K*18
\c:1588516038431*62\$IIMWV,319,R,07.1,N,A*1E
\c:1588516038431*62\$PNKEP,01,4.5,N,8.3,K*62
\c:1588516038431*62\$PNKEP,02,153.0*6B
\c:1588516038431*62\$PNKEP,03,314.0,72.6,61.3*6C
\c:1588516038431*62\$PNKEP,04,268.6,77.7,268.6,77.7*68
\c:1588516038431*62\$PNKEP,05,336.4,0.6,N,1.1,K*6A
\c:1588516038431*62\$GPWPL,4727.480,N,00251.511,W,POI_GO*51
\c:1588516038431*62\$GPBWC,142718.00,4727.480,N,00251.511,W,251.5,T,,M,3.0,N,POI_GO*10
\c:1588516038431*62\$GPRMB,A,0,L,POI_GO,LauBen,4727.480,N,00251.511,W,3.0,251.5,3.1,V,%14*1D