\c:1588516189*5F\$IIGLL,4728.449,N,00247.565,W,125754,A,A*45
\c:1588516189*5F\$IIVLW,0094.0,N,094.03,N*4E
\c:1588516189*5F\$IIVHW,,,272.,M,02.42,N,04.49,K*15
\c:1588516189*5F\$IIMWV,320,R,06.7,N,A*13
\c:1588516189*5F\$IIVWR,040.,L,06.7,N,03.4,M,012.4,K*62
\c:1588516189*5F\$IIMWD,,,216.,M,05.0,N,02.6,M*0A
\c:1588516189*5F\$IIMTA,20.6,C*01
\c:1588516189*5F\$IIMTW,18.6,C*1C
\c:1588516189*5F\$IIVWT,058.,L,05.0,N,02.6,M,009.3,K*67
\c:1588516189*5F\$IIHDG,272.,,,,*7E
\c:1588516189*5F\$IIHDM,272.,M*15
\c:1588516189*5F\$IIGLL,4728.449,N,00247.568,W,125754,A,A*48
\c:1588516189*5F\$IIZDA,125754,07,07,2017,,*5B
\c:1588516189*5F\$IIVTG,276.,T,,M,03.1,N,05.8,K,A*26
\c:1588516189*5F\$IIDPT,0005.2,,*75
\c:1588516189*5F\$IIDBT,0016.9,f,0005.2,M,,*70
\c:1588516190*57\$IIVLW,0094.0,N,094.03,N*4E
\c:1588516190*57\$IIMTA,20.6,C*01
\c:1588516190*57\$IIMTW,18.6,C*1C
\c:1588516190*57\$IIVWT,058.,L,05.0,N,02.6,M,009.3,K*67
\c:1588516190*57\$IIHDG,271.,,,,*7D
\c:1588516190*57\$IIHDM,271.,M*16
\c:1588516190*57\$IIGLL,4728.449,N,00247.570,W,125756,A,A*43
\c:1588516190*57\$IIZDA,125756,07,07,2017,,*59
\c:1588516190*57\$IIVTG,276.,T,,M,03.1,N,05.8,K,A*26
\c:1588516190*57\$IIDPT,0005.2,,*75
\c:1588516190*57\$IIDBT,0017.2,f,0005.2,M,,*7A
\c:1588516190*57\$IIVLW,0094.0,N,094.03,N*4E
\c:1588516190*57\$IIVHW,,,271.,M,02.50,N,04.63,K*1D
\c:1588516190*57\$IIMWV,320,R,06.7,N,A*13
\c:1588516190*57\$IIVWR,040.,L,06.7,N,03.4,M,012.4,K*62
\c:1588516190*57\$IIMWD,,,213.,M,05.0,N,02.6,M*0F
\c:1588516191*56\$IIHDM,271.,M*16
\c:1588516191*56\$IIGLL,4728.449,N,00247.570,W,125756,A,A*43
\c:1588516191*56\$IIZDA,125756,07,07,2017,,*59
\c:1588516191*56\$IIVTG,276.,T,,M,03.1,N,05.8,K,A*26
\c:1588516191*56\$IIDPT,0005.2,,*75
\c:1588516191*56\$IIDBT,0017.2,f,0005.2,M,,*7A
\c:1588516191*56\$IIVLW,0094.0,N,094.03,N*4E
\c:1588516191*56\$IIVHW,,,271.,M,02.58,N,04.78,K*1F
\c:1588516191*56\$IIMWV,320,R,06.7,N,A*13
\c:1588516191*56\$IIVWR,040.,L,06.7,N,03.4,M,012.4,K*62
\c:1588516191*56\$IIMWD,,,212.,M,05.0,N,02.6,M*0E
\c:1588516191*56\$IIMTA,20.6,C*01
\c:1588516191*56\$IIMTW,18.6,C*1C
\c:1588516191*56\$IIVWT,059.,L,05.0,N,02.6,M,009.3,K*66
\c:1588516191*56\$IIHDG,270.,,,,*7C
\c:1588516191*56\$IIHDM,270.,M*17
\c:1588516191*56\$PNKEP,01,4.3,N,8.1,K*66
\c:1588516191*56\$PNKEP,02,155.0*6D
\c:1588516191*56\$PNKEP,03,314.0,65.8,57.5*67
\c:1588516191*56\$PNKEP,04,264.1,71.5,264.1,71.5*68
\c:1588516191*56\$PNKEP,05,295.7,0.6,N,1.2,K*62
\c:1588516191*56\$GPWPL,4727.480,N,00251.511,W,POI_GO*51
\c:1588516191*56\$GPBWC,142951.00,4727.480,N,00251.511,W,250.0,T,,M,2.8,N,POI_GO*1E
\c:1588516191*56\$GPRMB,A,0,L,POI_GO,LauBen,4727.480,N,00251.511,W,2.8,250.0,3.1,V,%14*10
\c:1588516192*55\$IIZDA,125758,07,07,2017,,*57
\c:1588516192*55\$IIVLW,0094.0,N,094.03,N*4E
\c:1588516192*55\$IIVHW,,,270.,M,02.62,N,04.85,K*15
\c:1588516192*55\$IIMWV,320,R,06.7,N,A*13
\c:1588516192*55\$IIVWR,040.,L,06.7,N,03.4,M,012.4,K*62
\c:1588516192*55\$IIMWD,,,210.,M,04.9,N,02.5,M*07
\c:1588516192*55\$IIMTA,20.6,C*01
\c:1588516192*55\$IIMTW,18.6,C*1C
\c:1588516192*55\$IIVWT,060.,L,04.9,N,02.5,M,009.1,K*65
\c:1588516192*55\$IIHDG,270.,,,,*7C
\c:1588516192*55\$IIHDM,270.,M*17
\c:1588516192*55\$IIGLL,4728.449,N,00247.573,W,125758,A,A*4E
\c:1588516192*55\$IIZDA,125758,07,07,2017,,*57
\c:1588516192*55\$IIVTG,272.,T,,M,03.3,N,06.1,K,A*2A
\c:1588516192*55\$IIDPT,0005.2,,*75
\c:1588516192*55\$IIDBT,0016.9,f,0005.2,M,,*70
\c:1588516193*54\$IIMWV,320,R,06.7,N,A*13
\c:1588516193*54\$IIMTA,20.6,C*01
\c:1588516193*54\$IIMTW,18.6,C*1C
\c:1588516193*54\$IIVWT,060.,L,04.9,N,02.5,M,009.1,K*65
\c:1588516193*54\$IIHDG,270.,,,,*7C
\c:1588516193*54\$IIHDM,270.,M*17
\c:1588516193*54\$IIGLL,4728.449,N,00247.576,W,125800,A,A*49
\c:1588516193*54\$IIZDA,125800,07,07,2017,,*55
\c:1588516193*54\$IIVTG,275.,T,,M,03.2,N,05.9,K,A*27
\c:1588516193*54\$IIDPT,0004.9,,*7F
\c:1588516193*54\$IIDBT,0016.2,f,0004.9,M,,*71
\c:1588516193*54\$IIVLW,0094.0,N,094.03,N*4E
\c:1588516193*54\$IIVHW,,,270.,M,02.65,N,04.90,K*16
\c:1588516193*54\$IIMWV,320,R,06.7,N,A*13
\c:1588516193*54\$IIVWR,040.,L,06.7,N,03.4,M,012.4,K*62
\c:1588516193*54\$IIMWD,,,210.,M,04.9,N,02.5,M*07
\c:1588516194*53\$IIHDM,269.,M*1F
\c:1588516194*53\$IIGLL,4728.449,N,00247.576,W,125802,A,A*4B
\c:1588516194*53\$IIZDA,125802,07,07,2017,,*57
\c:1588516194*53\$IIVTG,275.,T,,M,03.2,N,05.9,K,A*27
\c:1588516194*53\$IIDPT,0004.8,,*7E
\c:1588516194*53\$IIDBT,0015.9,f,0004.8,M,,*78
\c:1588516194*53\$IIVLW,0094.0,N,094.03,N*4E
\c:1588516194*53\$IIVHW,,,269.,M,02.67,N,04.95,K*19
\c:1588516194*53\$IIMWV,320,R,06.7,N,A*13
\c:1588516194*53\$IIVWR,040.,L,06.7,N,03.4,M,012.4,K*62
\c:1588516194*53\$IIMWD,,,209.,M,04.9,N,02.5,M*0F
\c:1588516194*53\$IIMTA,20.6,C*01
\c:1588516194*53\$IIMTW,18.6,C*1C
\c:1588516194*53\$IIVWT,060.,L,04.9,N,02.5,M,009.1,K*65
\c:1588516194*53\$IIHDG,269.,,,,*74
\c:1588516194*53\$IIHDM,269.,M*1F
\c:1588516194*53\$PNKEP,01,3.7,N,6.9,K*63
\c:1588516194*53\$PNKEP,02,150.0*68
\c:1588516194*53\$PNKEP,03,314.0,82.8,71.6*69
\c:1588516194*53\$PNKEP,04,262.3,87.0,262.3,87.0*68
\c:1588516194*53\$PNKEP,05,297.4,0.6,N,1.1,K*60
\c:1588516194*53\$GPWPL,4727.480,N,00251.511,W,POI_GO*51
\c:1588516194*53\$GPBWC,142954.00,4727.480,N,00251.511,W,250.0,T,,M,2.8,N,POI_GO*1B
\c:1588516194*53\$GPRMB,A,0,L,POI_GO,LauBen,4727.480,N,00251.511,W,2.8,250.0,3.2,V,%14*13
\c:1588516195*52\$IIZDA,125802,07,07,2017,,*57
\c:1588516195*52\$IIVLW,0094.0,N,094.04,N*49
\c:1588516195*52\$IIVHW,,,269.,M,02.68,N,04.96,K*15
\c:1588516195*52\$IIMWV,320,R,06.7,N,A*13
\c:1588516195*52\$IIVWR,040.,L,06.7,N,03.4,M,012.4,K*62
\c:1588516195*52\$IIMWD,,,209.,M,04.9,N,02.5,M*0F
\c:1588516195*52\$IIMTA,20.6,C*01
\c:1588516195*52\$IIMTW,18.5,C*1F
\c:1588516195*52\$IIVWT,060.,L,04.9,N,02.5,M,009.1,K*65
\c:1588516195*52\$IIHDG,269.,,,,*74
\c:1588516195*52\$IIHDM,269.,M*1F
\c:1588516195*52\$IIGLL,4728.449,N,00247.578,W,125804,A,A*43
\c:1588516195*52\$IIZDA,125804,07,07,2017,,*51
\c:1588516195*52\$IIVTG,271.,T,,M,03.2,N,05.9,K,A*23
\c:1588516195*52\$IIDPT,0004.8,,*7E
\c:1588516195*52\$IIDBT,0015.9,f,0004.8,M,,*78
\c:1588516196*51\$IIVLW,0094.0,N,094.04,N*49
\c:1588516196*51\$IIMTA,20.6,C*01
\c:1588516196*51\$IIMTW,18.6,C*1C
\c:1588516196*51\$IIVWT,061.,L,04.9,N,02.5,M,009.1,K*64
\c:1588516196*51\$IIHDG,268.,,,,*75
\c:1588516196*51\$IIHDM,268.,M*1E
\c:1588516196*51\$IIGLL,4728.449,N,00247.581,W,125804,A,A*45
\c:1588516196*51\$IIZDA,125804,07,07,2017,,*51
\c:1588516196*51\$IIVTG,269.,T,,M,03.3,N,06.1,K,A*20
\c:1588516196*51\$IIDPT,0004.8,,*7E
\c:1588516196*51\$IIDBT,0015.9,f,0004.8,M,,*78
\c:1588516196*51\$IIVLW,0094.0,N,094.04,N*49
\c:1588516196*51\$IIVHW,,,268.,M,02.74,N,05.08,K*1F
\c:1588516196*51\$IIMWV,321,R,06.7,N,A*12
\c:1588516196*51\$IIVWR,039.,L,06.7,N,03.4,M,012.4,K*6C
\c:1588516196*51\$IIMWD,,,208.,M,04.8,N,02.5,M*0F
\c:1588516197*50\$IIHDM,268.,M*1E
\c:1588516197*50\$IIGLL,4728.449,N,00247.584,W,125806,A,A*42
\c:1588516197*50\$IIZDA,125806,07,07,2017,,*53
\c:1588516197*50\$IIVTG,269.,T,,M,03.3,N,06.1,K,A*20
\c:1588516197*50\$IIDPT,0005.0,,*77
\c:1588516197*50\$IIDBT,0016.5,f,0005.0,M,,*7E
\c:1588516197*50\$IIVLW,0094.0,N,094.04,N*49
\c:1588516197*50\$IIVHW,,,267.,M,02.74,N,05.07,K*1F
\c:1588516197*50\$IIMWV,321,R,06.8,N,A*1D
\c:1588516197*50\$IIVWR,039.,L,06.8,N,03.5,M,012.6,K*60
\c:1588516197*50\$IIMWD,,,209.,M,04.9,N,02.5,M*0F
\c:1588516197*50\$IIMTA,20.6,C*01
\c:1588516197*50\$IIMTW,18.6,C*1C
\c:1588516197*50\$IIVWT,059.,L,04.9,N,02.5,M,009.1,K*6F
\c:1588516197*50\$IIHDG,267.,,,,*7A
\c:1588516197*50\$IIHDM,267.,M*11
\c:1588516197*50\$PNKEP,01,3.7,N,6.9,K*63
\c:1588516197*50\$PNKEP,02,148.0*61
\c:1588516197*50\$PNKEP,03,314.0,85.6,74.1*62
\c:1588516197*50\$PNKEP,04,256.9,88.4,256.9,88.4*68
\c:1588516197*50\$PNKEP,05,273.9,0.6,N,1.0,K*66
\c:1588516197*50\$GPWPL,4727.480,N,00251.511,W,POI_GO*51
\c:1588516197*50\$GPBWC,142957.00,4727.480,N,00251.511,W,250.0,T,,M,2.8,N,POI_GO*18
\c:1588516197*50\$GPRMB,A,0,L,POI_GO,LauBen,4727.480,N,00251.511,W,2.8,250.0,3.3,V,%14*12
\c:1588516198*5F\$IIGLL,4728.449,N,00247.584,W,125806,A,A*42
\c:1588516198*5F\$IIZDA,125806,07,07,2017,,*53
\c:1588516198*5F\$IIVTG,272.,T,,M,03.4,N,06.3,K,A*2F
\c:1588516198*5F\$IIDPT,0005.2,,*75
\c:1588516198*5F\$IIDBT,0017.2,f,0005.2,M,,*7A
\c:1588516198*5F\$IIVLW,0094.0,N,094.04,N*49
\c:1588516198*5F\$IIVHW,,,267.,M,02.71,N,05.01,K*1C
\c:1588516198*5F\$IIMWV,321,R,06.8,N,A*1D
\c:1588516198*5F\$IIVWR,039.,L,06.8,N,03.5,M,012.6,K*60
\c:1588516198*5F\$IIMWD,,,208.,M,04.9,N,02.5,M*0E
\c:1588516198*5F\$IIMTA,20.6,C*01
\c:1588516198*5F\$IIMTW,18.5,C*1F
\c:1588516198*5F\$IIVWT,059.,L,04.9,N,02.5,M,009.1,K*6F
\c:1588516198*5F\$IIHDG,267.,,,,*7A
\c:1588516198*5F\$IIHDM,267.,M*11
\c:1588516198*5F\$IIGLL,4728.449,N,00247.586,W,125808,A,A*4E
\c:1588516198*5F\$IIZDA,125808,07,07,2017,,*5D
\c:1588516198*5F\$IIVTG,272.,T,,M,03.4,N,06.3,K,A*2F
\c:1588516198*5F\$IIDPT,0005.2,,*75
\c:1588516198*5F\$IIDBT,0017.2,f,0005.2,M,,*7A
\c:1588516199*5E\$IIVLW,0094.0,N,094.04,N*49
\c:1588516199*5E\$IIMTA,20.6,C*01
\c:1588516199*5E\$IIMTW,18.6,C*1C
\c:1588516199*5E\$IIVWT,059.,L,04.9,N,02.5,M,009.1,K*6F
\c:1588516199*5E\$IIHDG,267.,,,,*7A
\c:1588516199*5E\$IIHDM,267.,M*11
\c:1588516199*5E\$IIGLL,4728.449,N,00247.586,W,125808,A,A*4E
\c:1588516199*5E\$IIZDA,125808,07,07,2017,,*5D
\c:1588516199*5E\$IIVTG,270.,T,,M,03.4,N,06.3,K,A*2D
\c:1588516199*5E\$IIDPT,0005.2,,*75
\c:1588516199*5E\$IIDBT,0016.9,f,0005.2,M,,*70
\c:1588516199*5E\$IIVLW,0094.0,N,094.04,N*49
\c:1588516199*5E\$IIVHW,,,267.,M,02.71,N,05.01,K*1C
\c:1588516199*5E\$IIMWV,321,R,06.9,N,A*1C
\c:1588516199*5E\$IIVWR,039.,L,06.9,N,03.5,M,012.8,K*6F
\c:1588516199*5E\$IIMWD,,,208.,M,04.9,N,02.5,M*0E
\c:1588516200*5D\$IIHDM,266.,M*10
\c:1588516200*5D\$IIGLL,4728.449,N,00247.589,W,125810,A,A*48
\c:1588516200*5D\$IIZDA,125810,07,07,2017,,*54
\c:1588516200*5D\$IIVTG,269.,T,,M,03.4,N,06.3,K,A*25
\c:1588516200*5D\$IIDPT,0004.8,,*7E
\c:1588516200*5D\$IIDBT,0015.9,f,0004.8,M,,*78
\c:1588516200*5D\$IIVLW,0094.0,N,094.04,N*49
\c:1588516200*5D\$IIVHW,,,266.,M,02.70,N,05.00,K*1D
\c:1588516200*5D\$IIMWV,321,R,06.9,N,A*1C
\c:1588516200*5D\$IIVWR,039.,L,06.9,N,03.5,M,012.8,K*6F
\c:1588516200*5D\$IIMWD,,,208.,M,05.0,N,02.6,M*05
\c:1588516200*5D\$IIMTA,20.6,C*01
\c:1588516200*5D\$IIMTW,18.5,C*1F
\c:1588516200*5D\$IIVWT,058.,L,05.0,N,02.6,M,009.3,K*67
\c:1588516200*5D\$IIHDG,266.,,,,*7B
\c:1588516200*5D\$IIHDM,266.,M*10
\c:1588516200*5D\$PNKEP,01,3.7,N,6.9,K*63
\c:1588516200*5D\$PNKEP,02,149.0*60
\c:1588516200*5D\$PNKEP,03,314.0,84.7,73.2*66
\c:1588516200*5D\$PNKEP,04,258.9,88.5,258.9,88.5*68
\c:1588516200*5D\$PNKEP,05,281.6,0.7,N,1.3,K*66
\c:1588516200*5D\$GPWPL,4727.480,N,00251.511,W,POI_GO*51
\c:1588516200*5D\$GPBWC,143000.00,4727.480,N,00251.511,W,250.0,T,,M,2.8,N,POI_GO*12
\c:1588516200*5D\$GPRMB,A,0,L,POI_GO,LauBen,4727.480,N,00251.511,W,2.8,250.0,3.4,V,%14*15
\c:1588516201*5C\$IIVTG,269.,T,,M,03.3,N,06.1,K,A*20
\c:1588516201*5C\$IIVLW,0094.0,N,094.04,N*49
\c:1588516201*5C\$IIVHW,,,266.,M,02.75,N,05.10,K*19
\c:1588516201*5C\$IIMWV,321,R,06.9,N,A*1C
\c:1588516201*5C\$IIVWR,039.,L,06.9,N,03.5,M,012.8,K*6F
\c:1588516201*5C\$IIMWD,,,207.,M,05.0,N,02.6,M*0A
\c:1588516201*5C\$IIMTA,20.6,C*01
\c:1588516201*5C\$IIMTW,18.6,C*1C
\c:1588516201*5C\$IIVWT,059.,L,05.0,N,02.6,M,009.3,K*66
\c:1588516201*5C\$IIHDG,266.,,,,*7B
\c:1588516201*5C\$IIHDM,266.,M*10
\c:1588516201*5C\$IIGLL,4728.449,N,00247.592,W,125812,A,A*40
\c:1588516201*5C\$IIZDA,125812,07,07,2017,,*56
\c:1588516201*5C\$IIVTG,266.,T,,M,03.3,N,06.1,K,A*2F
\c:1588516201*5C\$IIDPT,0004.9,,*7F
\c:1588516201*5C\$IIDBT,0016.2,f,0004.9,M,,*71
\c:1588516202*5F\$IIVLW,0094.0,N,094.04,N*49
\c:1588516202*5F\$IIMTA,20.6,C*01
\c:1588516202*5F\$IIMTW,18.6,C*1C
\c:1588516202*5F\$IIVWT,057.,L,05.1,N,02.6,M,009.4,K*6E
\c:1588516202*5F\$IIHDG,266.,,,,*7B
\c:1588516202*5F\$IIHDM,266.,M*10
\c:1588516202*5F\$IIGLL,4728.449,N,00247.592,W,125814,A,A*46
\c:1588516202*5F\$IIZDA,125814,07,07,2017,,*50
\c:1588516202*5F\$IIVTG,266.,T,,M,03.3,N,06.1,K,A*2F
\c:1588516202*5F\$IIDPT,0004.8,,*7E
\c:1588516202*5F\$IIDBT,0015.9,f,0004.8,M,,*78
\c:1588516202*5F\$IIVLW,0094.0,N,094.04,N*49
\c:1588516202*5F\$IIVHW,,,265.,M,02.74,N,05.07,K*1D
\c:1588516202*5F\$IIMWV,321,R,07.0,N,A*14
\c:1588516202*5F\$IIVWR,039.,L,07.0,N,03.6,M,013.0,K*6D
\c:1588516202*5F\$IIMWD,,,208.,M,05.1,N,02.6,M*04
\c:1588516203*5E\$IIVWT,058.,L,05.1,N,02.6,M,009.4,K*61
\c:1588516203*5E\$IIGLL,4728.449,N,00247.595,W,125814,A,A*41
\c:1588516203*5E\$IIZDA,125814,07,07,2017,,*50
\c:1588516203*5E\$IIVTG,266.,T,,M,03.3,N,06.1,K,A*2F
\c:1588516203*5E\$IIDPT,0004.9,,*7F
\c:1588516203*5E\$IIDBT,0016.2,f,0004.9,M,,*71
\c:1588516203*5E\$IIVLW,0094.0,N,094.04,N*49
\c:1588516203*5E\$IIVHW,,,266.,M,02.74,N,05.07,K*1E
\c:1588516203*5E\$IIMWV,321,R,07.0,N,A*14
\c:1588516203*5E\$IIVWR,039.,L,07.0,N,03.6,M,013.0,K*6D
\c:1588516203*5E\$IIMWD,,,207.,M,05.1,N,02.6,M*0B
\c:1588516203*5E\$IIMTA,20.6,C*01
\c:1588516203*5E\$IIMTW,18.5,C*1F
\c:1588516203*5E\$IIVWT,058.,L,05.1,N,02.6,M,009.4,K*61
\c:1588516203*5E\$IIHDG,265.,,,,*78
\c:1588516203*5E\$IIHDM,265.,M*13
\c:1588516203*5E\$PNKEP,01,4.3,N,8.0,K*67
\c:1588516203*5E\$PNKEP,02,151.0*69
\c:1588516203*5E\$PNKEP,03,314.0,72.1,63.7*6D
\c:1588516203*5E\$PNKEP,04,256.2,76.0,256.2,76.0*68
\c:1588516203*5E\$PNKEP,05,270.9,0.6,N,1.0,K*65
\c:1588516203*5E\$GPWPL,4727.480,N,00251.511,W,POI_GO*51
\c:1588516203*5E\$GPBWC,143003.00,4727.480,N,00251.511,W,249.9,T,,M,2.8,N,POI_GO*10
\c:1588516203*5E\$GPRMB,A,0,L,POI_GO,LauBen,4727.480,N,00251.511,W,2.8,249.9,3.3,V,%14*13
\c:1588516204*59\$IIZDA,125816,07,07,2017,,*52
\c:1588516204*59\$IIVLW,0094.0,N,094.05,N*48
\c:1588516204*59\$IIVHW,,,265.,M,02.78,N,05.15,K*12
\c:1588516204*59\$IIMWV,321,R,07.0,N,A*14
\c:1588516204*59\$IIVWR,039.,L,07.0,N,03.6,M,013.0,K*6D
\c:1588516204*59\$IIMWD,,,207.,M,05.1,N,02.6,M*0B
\c:1588516204*59\$IIMTA,20.6,C*01
\c:1588516204*59\$IIMTW,18.5,C*1F
\c:1588516204*59\$IIVWT,058.,L,05.1,N,02.6,M,009.4,K*61
\c:1588516204*59\$IIHDG,265.,,,,*78
\c:1588516204*59\$IIHDM,265.,M*13
\c:1588516204*59\$IIGLL,4728.449,N,00247.597,W,125816,A,A*41
\c:1588516204*59\$IIZDA,125816,07,07,2017,,*52
\c:1588516204*59\$IIVTG,267.,T,,M,03.5,N,06.5,K,A*2C
\c:1588516204*59\$IIDPT,0005.2,,*75
\c:1588516204*59\$IIDBT,0017.2,f,0005.2,M,,*7A
\c:1588516205*58\$IIVLW,0094.0,N,094.05,N*48
\c:1588516205*58\$IIMTA,20.6,C*01
\c:1588516205*58\$IIMTW,18.5,C*1F
\c:1588516205*58\$IIVWT,059.,L,05.1,N,02.6,M,009.4,K*60
\c:1588516205*58\$IIHDG,265.,,,,*78
\c:1588516205*58\$IIHDM,265.,M*13
\c:1588516205*58\$IIGLL,4728.449,N,00247.600,W,125818,A,A*42
\c:1588516205*58\$IIZDA,125818,07,07,2017,,*5C
\c:1588516205*58\$IIVTG,267.,T,,M,03.5,N,06.5,K,A*2C
\c:1588516205*58\$IIDPT,0005.2,,*75
\c:1588516205*58\$IIDBT,0017.2,f,0005.2,M,,*7A
\c:1588516205*58\$IIVLW,0094.0,N,094.05,N*48
\c:1588516205*58\$IIVHW,,,265.,M,02.80,N,05.19,K*19
\c:1588516205*58\$IIMWV,321,R,07.0,N,A*14
\c:1588516205*58\$IIVWR,039.,L,07.0,N,03.6,M,013.0,K*6D
\c:1588516205*58\$IIMWD,,,206.,M,05.1,N,02.6,M*0A
\c:1588516206*5B\$IIMTW,18.5,C*1F
\c:1588516206*5B\$IIGLL,4728.449,N,00247.600,W,125818,A,A*42
\c:1588516206*5B\$IIZDA,125818,07,07,2017,,*5C
\c:1588516206*5B\$IIVTG,267.,T,,M,03.2,N,05.9,K,A*24
\c:1588516206*5B\$IIDPT,0005.2,,*75
\c:1588516206*5B\$IIDBT,0017.2,f,0005.2,M,,*7A
\c:1588516206*5B\$IIVLW,0094.0,N,094.05,N*48
\c:1588516206*5B\$IIVHW,,,264.,M,02.84,N,05.26,K*10
\c:1588516206*5B\$IIMWV,321,R,07.0,N,A*14
\c:1588516206*5B\$IIVWR,039.,L,07.0,N,03.6,M,013.0,K*6D
\c:1588516206*5B\$IIMWD,,,205.,M,05.1,N,02.6,M*09
\c:1588516206*5B\$IIMTA,20.6,C*01
\c:1588516206*5B\$IIMTW,18.6,C*1C
\c:1588516206*5B\$IIVWT,059.,L,05.1,N,02.6,M,009.4,K*60
\c:1588516206*5B\$IIHDG,265.,,,,*78
\c:1588516206*5B\$IIHDM,265.,M*13
\c:1588516206*5B\$PNKEP,01,4.4,N,8.1,K*61
\c:1588516206*5B\$PNKEP,02,147.0*6E
\c:1588516206*5B\$PNKEP,03,314.0,73.7,63.6*6B
\c:1588516206*5B\$PNKEP,04,255.5,78.5,255.5,78.5*68
\c:1588516206*5B\$PNKEP,05,274.9,0.7,N,1.3,K*63
\c:1588516206*5B\$GPWPL,4727.480,N,00251.511,W,POI_GO*51
\c:1588516206*5B\$GPBWC,143006.00,4727.480,N,00251.511,W,249.9,T,,M,2.8,N,POI_GO*15
\c:1588516206*5B\$GPRMB,A,0,L,POI_GO,LauBen,4727.480,N,00251.511,W,2.8,249.9,3.5,V,%14*15
\c:1588516207*5A\$IIDBT,0016.9,f,0005.2,M,,*70
\c:1588516207*5A\$IIVLW,0094.0,N,094.05,N*48
\c:1588516207*5A\$IIVHW,,,265.,M,02.84,N,05.25,K*12
\c:1588516207*5A\$IIMWV,322,R,07.0,N,A*17
\c:1588516207*5A\$IIVWR,038.,L,07.0,N,03.6,M,013.0,K*6C
\c:1588516207*5A\$IIMWD,,,207.,M,05.0,N,02.6,M*0A
\c:1588516207*5A\$IIMTA,20.6,C*01
\c:1588516207*5A\$IIMTW,18.5,C*1F
\c:1588516207*5A\$IIVWT,058.,L,05.0,N,02.6,M,009.3,K*67
\c:1588516207*5A\$IIHDG,265.,,,,*78
\c:1588516207*5A\$IIHDM,265.,M*13
\c:1588516207*5A\$IIGLL,4728.448,N,00247.603,W,125820,A,A*4B
\c:1588516207*5A\$IIZDA,125820,07,07,2017,,*57
\c:1588516207*5A\$IIVTG,266.,T,,M,03.3,N,06.1,K,A*2F
\c:1588516207*5A\$IIDPT,0005.0,,*77
\c:1588516207*5A\$IIDBT,0016.5,f,0005.0,M,,*7E
\c:1588516208*55\$IIVLW,0094.0,N,094.05,N*48
\c:1588516208*55\$IIMTA,20.6,C*01
\c:1588516208*55\$IIMTW,18.5,C*1F
\c:1588516208*55\$IIVWT,059.,L,04.9,N,02.5,M,009.1,K*6F
\c:1588516208*55\$IIHDG,265.,,,,*78
\c:1588516208*55\$IIHDM,265.,M*13
\c:1588516208*55\$IIGLL,4728.448,N,00247.606,W,125822,A,A*4C
\c:1588516208*55\$IIZDA,125822,07,07,2017,,*55
\c:1588516208*55\$IIVTG,262.,T,,M,03.6,N,06.7,K,A*28
\c:1588516208*55\$IIDPT,0004.9,,*7F
\c:1588516208*55\$IIDBT,0016.2,f,0004.9,M,,*71
\c:1588516208*55\$IIVLW,0094.0,N,094.05,N*48
\c:1588516208*55\$IIVHW,,,264.,M,02.92,N,05.41,K*16
\c:1588516208*55\$IIMWV,323,R,06.9,N,A*1E
\c:1588516208*55\$IIVWR,037.,L,06.9,N,03.5,M,012.8,K*61
\c:1588516208*55\$IIMTA,20.6,C*01
\c:1588516209*54\$IIGLL,4728.448,N,00247.606,W,125824,A,A*4A
\c:1588516209*54\$IIZDA,125824,07,07,2017,,*53
\c:1588516209*54\$IIVTG,262.,T,,M,03.6,N,06.7,K,A*28
\c:1588516209*54\$IIDPT,0005.0,,*77
\c:1588516209*54\$IIDBT,0016.5,f,0005.0,M,,*7E
\c:1588516209*54\$IIVLW,0094.0,N,094.05,N*48
\c:1588516209*54\$IIVHW,,,264.,M,02.95,N,05.46,K*16
\c:1588516209*54\$IIMWV,322,R,06.9,N,A*1F
\c:1588516209*54\$IIVWR,038.,L,06.9,N,03.5,M,012.8,K*6E
\c:1588516209*54\$IIMWD,,,204.,M,04.9,N,02.5,M*02
\c:1588516209*54\$IIMTA,20.6,C*01
\c:1588516209*54\$IIMTW,18.5,C*1F
\c:1588516209*54\$IIVWT,060.,L,04.9,N,02.5,M,009.1,K*65
\c:1588516209*54\$IIHDG,264.,,,,*79
\c:1588516209*54\$IIHDM,264.,M*12
\c:1588516209*54\$IIGLL,4728.448,N,00247.608,W,125824,A,A*44
\c:1588516209*54\$PNKEP,01,4.3,N,8.0,K*67
\c:1588516209*54\$PNKEP,02,150.0*68
\c:1588516209*54\$PNKEP,03,314.0,76.8,67.9*6A
\c:1588516209*54\$PNKEP,04,253.1,80.2,253.1,80.2*68
\c:1588516209*54\$PNKEP,05,253.5,0.7,N,1.3,K*6A
\c:1588516209*54\$GPWPL,4727.480,N,00251.511,W,POI_GO*51
\c:1588516209*54\$GPBWC,143009.00,4727.480,N,00251.511,W,249.9,T,,M,2.8,N,POI_GO*1A
\c:1588516209*54\$GPRMB,A,0,L,POI_GO,LauBen,4727.480,N,00251.511,W,2.8,249.9,3.6,V,%14*16
\c:1588516210*5C\$IIVLW,0094.0,N,094.05,N*48
\c:1588516210*5C\$IIVHW,,,264.,M,02.94,N,05.45,K*14
\c:1588516210*5C\$IIMWV,323,R,06.9,N,A*1E
\c:1588516210*5C\$IIVWR,037.,L,06.9,N,03.5,M,012.8,K*61
\c:1588516210*5C\$IIMWD,,,206.,M,04.8,N,02.5,M*01
\c:1588516210*5C\$IIMTA,20.6,C*01
\c:1588516210*5C\$IIMTW,18.5,C*1F
\c:1588516210*5C\$IIVWT,058.,L,04.8,N,02.5,M,008.9,K*66
\c:1588516210*5C\$IIHDG,264.,,,,*79
\c:1588516210*5C\$IIHDM,264.,M*12
\c:1588516210*5C\$IIGLL,4728.448,N,00247.608,W,125824,A,A*44
\c:1588516210*5C\$IIZDA,125824,07,07,2017,,*53
\c:1588516210*5C\$IIVTG,265.,T,,M,03.4,N,06.3,K,A*29
\c:1588516210*5C\$IIDPT,0005.0,,*77
\c:1588516210*5C\$IIDBT,0016.5,f,0005.0,M,,*7E
\c:1588516210*5C\$IIVLW,0094.0,N,094.05,N*48
\c:1588516211*5D\$IIVHW,,,264.,M,02.96,N,05.48,K*1B
\c:1588516211*5D\$IIMTW,18.4,C*1E
\c:1588516211*5D\$IIVWT,058.,L,04.8,N,02.5,M,008.9,K*66
\c:1588516211*5D\$IIHDG,264.,,,,*79
\c:1588516211*5D\$IIHDM,264.,M*12
\c:1588516211*5D\$IIGLL,4728.448,N,00247.611,W,125826,A,A*4E
\c:1588516211*5D\$IIZDA,125826,07,07,2017,,*51
\c:1588516211*5D\$IIVTG,268.,T,,M,03.3,N,06.1,K,A*21
\c:1588516211*5D\$IIDPT,0004.9,,*7F
\c:1588516211*5D\$IIDBT,0016.2,f,0004.9,M,,*71
\c:1588516211*5D\$IIVLW,0094.0,N,094.05,N*48
\c:1588516211*5D\$IIVHW,,,263.,M,02.93,N,05.42,K*13
\c:1588516211*5D\$IIMWV,324,R,06.9,N,A*19
\c:1588516211*5D\$IIVWR,036.,L,06.9,N,03.5,M,012.8,K*60
\c:1588516211*5D\$IIMTA,20.6,C*01
\c:1588516211*5D\$IIMTW,18.4,C*1E
\c:1588516212*5E\$IIZDA,125828,07,07,2017,,*5F
\c:1588516212*5E\$IIVTG,268.,T,,M,03.3,N,06.1,K,A*21
\c:1588516212*5E\$IIDPT,0004.9,,*7F
\c:1588516212*5E\$IIDBT,0016.2,f,0004.9,M,,*71
\c:1588516212*5E\$IIVLW,0094.0,N,094.05,N*48
\c:1588516212*5E\$IIVHW,,,263.,M,02.92,N,05.41,K*11
\c:1588516212*5E\$IIMWV,325,R,06.9,N,A*18
\c:1588516212*5E\$IIVWR,035.,L,06.9,N,03.5,M,012.8,K*63
\c:1588516212*5E\$IIMWD,,,206.,M,04.8,N,02.5,M*01
\c:1588516212*5E\$IIMTA,20.6,C*01
\c:1588516212*5E\$IIMTW,18.5,C*1F
\c:1588516212*5E\$IIVWT,057.,L,04.8,N,02.5,M,008.9,K*69
\c:1588516212*5E\$IIHDG,263.,,,,*7E
\c:1588516212*5E\$IIHDM,263.,M*15
\c:1588516212*5E\$IIGLL,4728.448,N,00247.614,W,125828,A,A*45
\c:1588516212*5E\$IIZDA,125828,07,07,2017,,*5F
\c:1588516212*5E\$PNKEP,01,3.6,N,6.7,K*6C
\c:1588516212*5E\$PNKEP,02,149.0*60
\c:1588516212*5E\$PNKEP,03,314.0,91.6,81.4*68
\c:1588516212*5E\$PNKEP,04,257.7,93.9,257.7,93.9*68
\c:1588516212*5E\$PNKEP,05,301.8,0.5,N,0.8,K*69
\c:1588516212*5E\$GPWPL,4727.480,N,00251.511,W,POI_GO*51
\c:1588516212*5E\$GPBWC,143012.00,4727.480,N,00251.511,W,249.9,T,,M,2.8,N,POI_GO*10
\c:1588516212*5E\$GPRMB,A,0,L,POI_GO,LauBen,4727.480,N,00251.511,W,2.8,249.9,3.3,V,%14*13
\c:1588516213*5F\$IIVHW,,,263.,M,02.92,N,05.41,K*11
\c:1588516213*5F\$IIMWV,325,R,06.9,N,A*18
\c:1588516213*5F\$IIVWR,035.,L,06.9,N,03.5,M,012.8,K*63
\c:1588516213*5F\$IIMWD,,,208.,M,04.8,N,02.5,M*0F
\c:1588516213*5F\$IIMTA,20.6,C*01
\c:1588516213*5F\$IIMTW,18.5,C*1F
\c:1588516213*5F\$IIVWT,055.,L,04.8,N,02.5,M,008.9,K*6B
\c:1588516213*5F\$IIHDG,263.,,,,*7E
\c:1588516213*5F\$IIHDM,263.,M*15
\c:1588516213*5F\$IIGLL,4728.448,N,00247.617,W,125830,A,A*4F
\c:1588516213*5F\$IIZDA,125830,07,07,2017,,*56
\c:1588516213*5F\$IIVTG,264.,T,,M,03.4,N,06.3,K,A*28
\c:1588516213*5F\$IIDPT,0005.2,,*75
\c:1588516213*5F\$IIDBT,0017.2,f,0005.2,M,,*7A
\c:1588516213*5F\$IIVLW,0094.0,N,094.06,N*4B
\c:1588516213*5F\$IIVHW,,,263.,M,02.88,N,05.33,K*1F
\c:1588516214*58\$IIMWV,326,R,06.9,N,A*1B
\c:1588516214*58\$IIVWT,054.,L,04.7,N,02.4,M,008.7,K*6A
\c:1588516214*58\$IIHDG,263.,,,,*7E
\c:1588516214*58\$IIHDM,263.,M*15
\c:1588516214*58\$IIGLL,4728.448,N,00247.617,W,125830,A,A*4F
\c:1588516214*58\$IIZDA,125830,07,07,2017,,*56
\c:1588516214*58\$IIVTG,266.,T,,M,03.2,N,05.9,K,A*25
\c:1588516214*58\$IIDPT,0005.2,,*75
\c:1588516214*58\$IIDBT,0017.2,f,0005.2,M,,*7A
\c:1588516214*58\$IIVLW,0094.0,N,094.06,N*4B
\c:1588516214*58\$IIVHW,,,263.,M,02.91,N,05.39,K*1D
\c:1588516214*58\$IIMWV,326,R,06.9,N,A*1B
\c:1588516214*58\$IIVWR,034.,L,06.9,N,03.5,M,012.8,K*62
\c:1588516214*58\$IIMTA,20.6,C*01
\c:1588516214*58\$IIMTW,18.4,C*1E
\c:1588516214*58\$IIVWT,054.,L,04.7,N,02.4,M,008.7,K*6A
\c:1588516215*59\$IIHDM,263.,M*15
\c:1588516215*59\$IIDPT,0005.2,,*75
\c:1588516215*59\$IIDBT,0017.2,f,0005.2,M,,*7A
\c:1588516215*59\$IIVLW,0094.0,N,094.06,N*4B
\c:1588516215*59\$IIVHW,,,263.,M,02.88,N,05.34,K*18
\c:1588516215*59\$IIMWV,327,R,06.9,N,A*1A
\c:1588516215*59\$IIVWR,033.,L,06.9,N,03.5,M,012.8,K*65
\c:1588516215*59\$IIMWD,,,211.,M,04.7,N,02.4,M*09
\c:1588516215*59\$IIMTA,20.6,C*01
\c:1588516215*59\$IIMTW,18.4,C*1E
\c:1588516215*59\$IIVWT,052.,L,04.7,N,02.4,M,008.7,K*6C
\c:1588516215*59\$IIHDG,263.,,,,*7E
\c:1588516215*59\$IIHDM,263.,M*15
\c:1588516215*59\$IIGLL,4728.447,N,00247.619,W,125832,A,A*4C
\c:1588516215*59\$IIZDA,125832,07,07,2017,,*54
\c:1588516215*59\$IIVTG,262.,T,,M,03.2,N,05.9,K,A*21
\c:1588516215*59\$PNKEP,01,3.6,N,6.7,K*6C
\c:1588516215*59\$PNKEP,02,153.0*6B
\c:1588516215*59\$PNKEP,03,314.0,90.9,80.8*6B
\c:1588516215*59\$PNKEP,04,257.5,92.4,257.5,92.4*68
\c:1588516215*59\$PNKEP,05,293.4,0.3,N,0.6,K*67
\c:1588516215*59\$GPWPL,4727.480,N,00251.511,W,POI_GO*51
\c:1588516215*59\$GPBWC,143015.00,4727.480,N,00251.511,W,249.8,T,,M,2.8,N,POI_GO*16
\c:1588516215*59\$GPRMB,A,0,L,POI_GO,LauBen,4727.480,N,00251.511,W,2.8,249.8,3.2,V,%14*13
\c:1588516216*5A\$IIDPT,0005.2,,*75
\c:1588516216*5A\$IIVWR,033.,L,07.0,N,03.6,M,013.0,K*67
\c:1588516216*5A\$IIMWD,,,211.,M,04.8,N,02.5,M*07
\c:1588516216*5A\$IIMTA,20.6,C*01
\c:1588516216*5A\$IIMTW,18.4,C*1E
\c:1588516216*5A\$IIVWT,052.,L,04.8,N,02.5,M,008.9,K*6C
\c:1588516216*5A\$IIHDG,263.,,,,*7E
\c:1588516216*5A\$IIHDM,263.,M*15
\c:1588516216*5A\$IIGLL,4728.447,N,00247.619,W,125834,A,A*4A
\c:1588516216*5A\$IIZDA,125834,07,07,2017,,*52
\c:1588516216*5A\$IIVTG,264.,T,,M,03.1,N,05.8,K,A*25
\c:1588516216*5A\$IIDPT,0005.2,,*75
\c:1588516216*5A\$IIDBT,0017.2,f,0005.2,M,,*7A
\c:1588516216*5A\$IIVLW,0094.0,N,094.06,N*4B
\c:1588516216*5A\$IIVHW,,,263.,M,02.86,N,05.29,K*1A
\c:1588516216*5A\$IIMWV,327,R,07.0,N,A*12
\c:1588516217*5B\$IIMTA,20.6,C*01
\c:1588516217*5B\$IIHDG,264.,,,,*79
\c:1588516217*5B\$IIHDM,264.,M*12
\c:1588516217*5B\$IIGLL,4728.447,N,00247.622,W,125836,A,A*40
\c:1588516217*5B\$IIZDA,125836,07,07,2017,,*50
\c:1588516217*5B\$IIVTG,264.,T,,M,03.1,N,05.8,K,A*25
\c:1588516217*5B\$IIDPT,0005.2,,*75
\c:1588516217*5B\$IIDBT,0017.2,f,0005.2,M,,*7A
\c:1588516217*5B\$IIVLW,0094.0,N,094.06,N*4B
\c:1588516217*5B\$IIVHW,,,264.,M,02.82,N,05.23,K*13
\c:1588516217*5B\$IIMWV,327,R,07.1,N,A*13
\c:1588516217*5B\$IIVWR,033.,L,07.1,N,03.7,M,013.1,K*66
\c:1588516217*5B\$IIMWD,,,213.,M,04.8,N,02.5,M*05
\c:1588516217*5B\$IIMTA,20.6,C*01
\c:1588516217*5B\$IIMTW,18.4,C*1E
\c:1588516217*5B\$IIVWT,051.,L,04.8,N,02.5,M,008.9,K*6F
\c:1588516218*54\$IIHDM,264.,M*12
\c:1588516218*54\$IIDPT,0005.2,,*75
\c:1588516218*54\$IIDBT,0016.9,f,0005.2,M,,*70
\c:1588516218*54\$IIVLW,0094.0,N,094.06,N*4B
\c:1588516218*54\$IIVHW,,,264.,M,02.78,N,05.14,K*12
\c:1588516218*54\$IIMWV,327,R,07.1,N,A*13
\c:1588516218*54\$IIVWR,033.,L,07.1,N,03.7,M,013.1,K*66
\c:1588516218*54\$IIMWD,,,213.,M,04.9,N,02.5,M*04
\c:1588516218*54\$IIMTW,18.4,C*1E
\c:1588516218*54\$IIVWT,051.,L,04.9,N,02.5,M,009.1,K*67
\c:1588516218*54\$IIHDG,264.,,,,*79
\c:1588516218*54\$IIHDM,264.,M*12
\c:1588516218*54\$IIGLL,4728.447,N,00247.624,W,125838,A,A*48
\c:1588516218*54\$IIZDA,125838,07,07,2017,,*5E
\c:1588516218*54\$IIVTG,267.,T,,M,03.1,N,05.8,K,A*26
\c:1588516218*54\$IIDPT,0005.3,,*74
\c:1588516218*54\$PNKEP,01,3.4,N,6.3,K*6A
\c:1588516218*54\$PNKEP,02,162.0*69
\c:1588516218*54\$PNKEP,03,314.0,88.1,82.9*69
\c:1588516218*54\$PNKEP,04,259.4,89.1,259.4,89.1*68
\c:1588516218*54\$PNKEP,05,264.0,0.3,N,0.5,K*68
\c:1588516218*54\$GPWPL,4727.480,N,00251.511,W,POI_GO*51
\c:1588516218*54\$GPBWC,143018.00,4727.480,N,00251.511,W,249.8,T,,M,2.8,N,POI_GO*1B
\c:1588516218*54\$GPRMB,A,0,L,POI_GO,LauBen,4727.480,N,00251.511,W,2.8,249.8,3.1,V,%14*10
\c:1588516219*55\$IIVWR,033.,L,07.1,N,03.7,M,013.1,K*66
\c:1588516219*55\$IIMWD,,,213.,M,05.0,N,02.6,M*0F
\c:1588516219*55\$IIMTW,18.4,C*1E
\c:1588516219*55\$IIVWT,051.,L,05.0,N,02.6,M,009.3,K*6E
\c:1588516219*55\$IIHDG,265.,,,,*78
\c:1588516219*55\$IIHDM,265.,M*13
\c:1588516219*55\$IIGLL,4728.447,N,00247.627,W,125838,A,A*4B
\c:1588516219*55\$IIZDA,125838,07,07,2017,,*5E
\c:1588516219*55\$IIVTG,270.,T,,M,03.0,N,05.6,K,A*2F
\c:1588516219*55\$IIDPT,0005.2,,*75
\c:1588516219*55\$IIDBT,0016.9,f,0005.2,M,,*70
\c:1588516219*55\$IIVLW,0094.0,N,094.06,N*4B
\c:1588516219*55\$IIVHW,,,265.,M,02.62,N,04.85,K*11
\c:1588516219*55\$IIMWV,327,R,07.1,N,A*13
\c:1588516219*55\$IIVWR,033.,L,07.1,N,03.7,M,013.1,K*66
\c:1588516219*55\$IIMWD,,,215.,M,05.0,N,02.6,M*09