
==> Box WiFi V2.1  Start logging
 0.422 $PNKEV,Box WiFi nke 3,V2.1,Aug 23 2017,17:04:14,00.1E.C0.39.41.44,V1.0*04
 1.643 $IIXDR,U,12.154,V,BatWiFi*16
 1.698 $IIDPT,4.7,,*41
 1.700 $IIDBT,15.4,f,4.7,M,,*4A
 1.743 $IIRSA,4.3,A,,V*7E
 1.749 $IIVLW,,N,30.16,N*67
 1.753 $IIVLW,525.16,N,30.16,N*7C
 1.917 $IIXDR,C,11.4,C,AirTemp*22
 1.921 $IIMTW,8.7,C*2C
 2.009 $IIVHW,,T,,M,0.00,N,0.00,K*55
 2.013 $IIMWV,,R,1.4,N,A*16
 2.016 $IIVWR,,,1.4,N,0.7,M,2.6,K*33
 2.020 $IIVHW,,T,230,M,0.00,N,0.00,K*64
 2.023 $IIMWV,173,R,1.4,N,A*23
 2.035 $IIVWR,173,R,1.4,N,0.7,M,2.6,K*54
 2.037 $IIHDG,230,,,,*56
 2.038 $IIHDM,230,M*3D
 3.788 $IIDPT,4.8,,*4E
 3.790 $IIDBT,15.8,f,4.8,M,,*49
 3.858 $IIRSA,4.0,A,,V*7D
 3.930 $IIVWR,173,R,2.4,N,1.2,M,4.4,K*57
 3.934 $IIMWV,175,R,2.4,N,A*26
 3.937 $IIVWR,175,R,2.4,N,1.2,M,4.4,K*51
 3.985 $IIRSA,4.3,A,,V*7E
 4.292 $IIVHW,,T,230,M,0.00,N,0.00,K*64
 4.294 $IIHDG,230,,,,*56
 4.295 $IIHDM,230,M*3D
 4.503 $IIMWV,175,R,2.8,N,A*2A
 4.506 $IIVWR,175,R,2.8,N,1.4,M,5.2,K*5C
 4.517 $IIHDG,231,,,,*57
 4.518 $IIHDM,231,M*3C
 4.865 $IIRSA,4.0,A,,V*7D
 4.984 $IIRSA,4.3,A,,V*7E
 5.003 $IIMWV,,T,2.8,N,A*1F
 5.005 $IIVWT,,,2.8,N,1.4,M,5.2,K*3B
 5.008 $IIMWD,,T,,M,2.8,N,1.4,M*4B
 5.012 $IIMWV,175,T,2.8,N,A*2C
 5.015 $IIVWT,175,R,2.8,N,1.4,M,5.2,K*5A
 5.056 $IIMWD,,T,46,M,2.8,N,1.4,M*49
 5.195 $IIMWV,175,R,3.1,N,A*22
 5.198 $IIVWR,175,R,3.1,N,1.6,M,5.7,K*53
 5.238 $IIRSA,4.0,A,,V*7D
 5.246 $IIVHW,,T,230,M,0.00,N,0.00,K*64
 5.247 $IIHDG,230,,,,*56
 5.249 $IIHDM,230,M*3D
 5.364 $IIRSA,4.3,A,,V*7E
 5.490 $IIRSA,4.0,A,,V*7D
 5.856 $IIRSA,4.3,A,,V*7E
 5.880 $IIVWR,175,R,3.4,N,1.7,M,6.3,K*50
 5.927 $IIMWV,176,R,3.4,N,A*24
 5.930 $IIVWR,176,R,3.4,N,1.7,M,6.3,K*53
 6.108 $IIRSA,4.0,A,,V*7D
 6.422 $IIMWV,175,T,3.1,N,A*24
 6.425 $IIVWT,175,R,3.1,N,1.6,M,5.7,K*55
 6.428 $IIMWD,,T,46,M,3.1,N,1.6,M*43
 6.433 $IIMWD,,T,45,M,3.1,N,1.6,M*40
 6.611 $IIMWV,176,R,3.8,N,A*28
 6.613 $IIVWR,176,R,3.8,N,2.0,M,7.0,K*59
 6.618 $IIMWV,177,R,3.8,N,A*29
 6.621 $IIVWR,177,R,3.8,N,2.0,M,7.0,K*58
 6.632 $IIHDG,231,,,,*57
 6.633 $IIHDM,231,M*3C
 6.729 $IIRSA,4.3,A,,V*7E
 6.979 $IIRSA,4.0,A,,V*7D
 7.106 $IIMWV,175,T,3.8,N,A*2D
 7.109 $IIVWT,175,R,3.8,N,2.0,M,7.0,K*5C
 7.112 $IIMWD,,T,45,M,3.8,N,2.0,M*4C
 7.117 $IIMWV,177,T,3.8,N,A*2F
 7.120 $IIVWT,177,R,3.8,N,2.0,M,7.0,K*5E
 7.122 $IIMWD,,T,48,M,3.8,N,2.0,M*41
 7.295 $IIMWV,177,R,4.2,N,A*24
 7.298 $IIVWR,177,R,4.2,N,2.2,M,7.8,K*5F
 7.302 $IIMWV,178,R,4.2,N,A*2B
 7.305 $IIVWR,178,R,4.2,N,2.2,M,7.8,K*50
 7.307 $IIHDG,230,,,,*56
 7.308 $IIHDM,230,M*3D
 7.347 $IIRSA,4.3,A,,V*7E
 7.596 $IIRSA,4.0,A,,V*7D
 7.793 $IIMWV,177,T,4.2,N,A*22
 7.796 $IIVWT,177,R,4.2,N,2.2,M,7.8,K*59
 7.798 $IIMWD,,T,48,M,4.2,N,2.2,M*4E
 7.803 $IIMWV,178,T,4.2,N,A*2D
 7.806 $IIVWT,178,R,4.2,N,2.2,M,7.8,K*56
 7.967 $IIRSA,4.3,A,,V*7E
 7.982 $IIMWV,178,R,4.5,N,A*2C
 7.985 $IIVWR,178,R,4.5,N,2.3,M,8.3,K*52
 7.989 $IIMWV,179,R,4.5,N,A*2D
 7.992 $IIVWR,179,R,4.5,N,2.3,M,8.3,K*53
 8.217 $IIRSA,4.0,A,,V*7D
 8.342 $IIRSA,4.3,A,,V*7E
 8.667 $IIMWV,179,R,4.8,N,A*20
 8.679 $IIVWR,179,R,4.8,N,2.5,M,8.9,K*52
 8.711 $IIRSA,4.0,A,,V*7D
 8.716 $IIHDG,231,,,,*57
 8.717 $IIHDM,231,M*3C
 8.835 $IIRSA,4.3,A,,V*7E
 9.013 $IIVLW,525.16,N,30.16,N*7C
 9.172 $IIMWV,178,T,4.8,N,A*27
 9.175 $IIVWT,178,R,4.8,N,2.5,M,8.9,K*55
 9.177 $IIMWD,,T,48,M,4.8,N,2.5,M*43
 9.212 $IIMWV,179,T,4.8,N,A*26
 9.214 $IIVWT,179,R,4.8,N,2.5,M,8.9,K*54
 9.217 $IIMWD,,T,50,M,4.8,N,2.5,M*4A
 9.279 $IIXDR,C,11.4,C,AirTemp*22
 9.281 $IIMTW,8.7,C*2C
 9.331 $IIRSA,4.0,A,,V*7D
 9.354 $IIMWV,179,R,5.0,N,A*29
 9.366 $IIVWR,179,R,5.0,N,2.6,M,9.3,K*53
 9.400 $IIMWV,180,R,5.0,N,A*2F
 9.403 $IIVWR,180,R,5.0,N,2.6,M,9.3,K*55
 9.456 $IIRSA,4.3,A,,V*7E
 9.892 $IIMWV,179,T,5.0,N,A*2F
 9.895 $IIVWT,179,R,5.0,N,2.6,M,9.3,K*55
 9.898 $IIMWD,,T,50,M,5.0,N,2.6,M*40
 9.902 $IIMWV,180,T,5.0,N,A*29
 9.905 $IIVWT,180,R,5.0,N,2.6,M,9.3,K*53
 9.907 $IIMWD,,T,51,M,5.0,N,2.6,M*41
10.074 $IIRSA,4.0,A,,V*7D
10.081 $IIMWV,180,R,5.2,N,A*2D
10.084 $IIVWR,180,R,5.2,N,2.7,M,9.6,K*53
10.197 $IIRSA,4.3,A,,V*7E
10.449 $IIRSA,4.0,A,,V*7D
10.567 $IIRSA,4.3,A,,V*7E
10.693 $IIRSA,4.0,A,,V*7D
10.767 $IIMWV,180,R,5.3,N,A*2C
10.770 $IIVWR,180,R,5.3,N,2.7,M,9.8,K*5C
10.775 $IIMWV,181,R,5.3,N,A*2D
10.778 $IIVWR,179,L,5.3,N,2.7,M,9.8,K*44
10.818 $IIRSA,4.3,A,,V*7E
10.944 $IIRSA,4.0,A,,V*7D
11.043 $IIVHW,,T,231,M,0.00,N,0.00,K*65
11.045 $IIHDG,231,,,,*57
11.046 $IIHDM,231,M*3C
11.068 $IIRSA,4.3,A,,V*7E
11.194 $IIRSA,4.0,A,,V*7D
11.254 $IIDPT,4.8,,*4E
11.256 $IIDBT,15.8,f,4.8,M,,*49
11.264 $IIMWV,180,T,5.2,N,A*2B
11.276 $IIVWT,180,R,5.2,N,2.7,M,9.6,K*55
11.278 $IIMWD,,T,51,M,5.2,N,2.7,M*42
11.452 $IIMWV,181,R,5.4,N,A*2A
11.455 $IIVWR,179,L,5.4,N,2.8,M,10.0,K*7C
11.460 $IIVHW,,T,230,M,0.00,N,0.00,K*64
11.462 $IIMWV,182,R,5.4,N,A*29
11.465 $IIVWR,178,L,5.4,N,2.8,M,10.0,K*7D
11.467 $IIHDG,230,,,,*56
11.468 $IIHDM,230,M*3D
11.562 $IIRSA,4.3,A,,V*7E
11.932 $IIRSA,4.0,A,,V*7D
11.951 $IIMWV,180,T,5.4,N,A*2D
11.954 $IIVWT,180,R,5.4,N,2.8,M,10.0,K*62
11.957 $IIMWD,,T,51,M,5.4,N,2.8,M*4B
11.961 $IIMWV,182,T,5.4,N,A*2F
11.988 $IIVWT,178,L,5.4,N,2.8,M,10.0,K*7B
12.004 $IIMWD,,T,52,M,5.4,N,2.8,M*48
12.058 $IIRSA,4.3,A,,V*7E
12.872 $IIMWV,184,R,5.4,N,A*2F
12.875 $IIVWR,176,L,5.4,N,2.8,M,10.0,K*73
12.877 $IIHDG,231,,,,*57
12.878 $IIHDM,231,M*3C
13.176 $IIRSA,4.0,A,,V*7D
13.420 $IIRSA,4.3,A,,V*7E
13.562 $IIVHW,,T,230,M,0.00,N,0.00,K*64
13.564 $IIHDG,230,,,,*56
13.565 $IIHDM,230,M*3D
13.672 $IIRSA,4.0,A,,V*7D
13.922 $IIRSA,4.3,A,,V*7E
14.053 $IIMWV,184,T,5.4,N,A*29
14.056 $IIVWT,176,L,5.4,N,2.8,M,10.0,K*75
14.068 $IIMWD,,T,54,M,5.4,N,2.8,M*4E
14.242 $IIMWV,183,R,5.4,N,A*28
14.245 $IIVWR,177,L,5.4,N,2.8,M,10.0,K*72
14.247 $IIHDG,231,,,,*57
14.248 $IIHDM,231,M*3C
14.541 $IIRSA,4.0,A,,V*7D
14.665 $IIRSA,4.3,A,,V*7E
14.796 $IIMWV,183,T,5.4,N,A*2E
14.799 $IIVWT,177,L,5.4,N,2.8,M,10.0,K*74
14.983 $IIMWV,183,R,5.5,N,A*29
14.986 $IIVWR,177,L,5.5,N,2.8,M,10.2,K*71
14.991 $IIVHW,,T,230,M,0.00,N,0.00,K*64
14.993 $IIHDG,230,,,,*56
14.994 $IIHDM,230,M*3D
15.159 $IIRSA,4.0,A,,V*7D
15.525 $IIRSA,4.3,A,,V*7E
15.650 $IIRSA,4.0,A,,V*7D
15.671 $IIMWV,182,R,5.5,N,A*28
15.674 $IIVWR,178,L,5.5,N,2.8,M,10.2,K*7E
15.908 $IIRSA,4.3,A,,V*7E
16.171 $IIMWV,183,T,5.5,N,A*2F
16.174 $IIVWT,177,L,5.5,N,2.8,M,10.2,K*77
16.177 $IIMWD,,T,54,M,5.5,N,2.8,M*4F
16.181 $IIMWV,182,T,5.5,N,A*2E
16.184 $IIVWT,178,L,5.5,N,2.8,M,10.2,K*78
16.224 $IIMWD,,T,52,M,5.5,N,2.8,M*49
16.263 $IIVLW,525.16,N,30.16,N*7C
16.412 $IIVHW,,T,231,M,0.00,N,0.00,K*65
16.414 $IIHDG,231,,,,*57
16.415 $IIHDM,231,M*3C
16.779 $IIXDR,C,11.4,C,AirTemp*22
16.791 $IIMTW,8.7,C*2C
16.915 $IIMWD,,T,53,M,5.5,N,2.8,M*48
17.052 $IIMWV,182,R,5.6,N,A*2B
17.055 $IIVWR,178,L,5.6,N,2.9,M,10.4,K*7A
17.104 $IIVHW,,T,230,M,0.00,N,0.00,K*64
17.106 $IIHDG,230,,,,*56
17.107 $IIHDM,230,M*3D
17.280 $IIRSA,4.0,A,,V*7D
17.404 $IIRSA,4.3,A,,V*7E
17.776 $IIRSA,4.0,A,,V*7D
17.784 $IIMWV,182,R,5.7,N,A*2A
17.787 $IIVWR,178,L,5.7,N,2.9,M,10.6,K*79
17.792 $IIVHW,,T,231,M,0.00,N,0.00,K*65
17.793 $IIHDG,231,,,,*57
17.795 $IIHDM,231,M*3C
17.908 $IIRSA,4.3,A,,V*7E
18.033 $IIRSA,4.0,A,,V*7D
18.158 $IIRSA,4.3,A,,V*7E
18.274 $IIRSA,4.0,A,,V*7D
18.293 $IIMWD,,T,52,M,5.5,N,2.8,M*49
18.401 $IIRSA,4.3,A,,V*7E
18.475 $IIMWV,182,R,5.8,N,A*25
18.478 $IIVWR,178,L,5.8,N,3.0,M,10.7,K*7F
18.482 $IIMWV,181,R,5.8,N,A*26
18.486 $IIVWR,179,L,5.8,N,3.0,M,10.7,K*7E
18.754 $IIDPT,4.8,,*4E
18.756 $IIDBT,15.8,f,4.8,M,,*49
18.902 $IIRSA,4.0,A,,V*7D
18.974 $IIMWV,182,T,5.8,N,A*23
18.977 $IIVWT,178,L,5.8,N,3.0,M,10.7,K*79
18.980 $IIMWD,,T,52,M,5.8,N,3.0,M*4D
18.985 $IIMWV,181,T,5.8,N,A*20
18.997 $IIVWT,179,L,5.8,N,3.0,M,10.7,K*78
19.021 $IIRSA,4.3,A,,V*7E
19.170 $IIVHW,,T,230,M,0.00,N,0.00,K*64
19.172 $IIHDG,230,,,,*56
19.174 $IIHDM,230,M*3D
19.640 $IIRSA,4.0,A,,V*7D
19.857 $IIMWV,181,R,5.9,N,A*27
19.860 $IIVWR,179,L,5.9,N,3.0,M,10.9,K*71
19.865 $IIMWV,182,R,5.9,N,A*24
19.868 $IIVWR,178,L,5.9,N,3.0,M,10.9,K*70
19.899 $IIRSA,4.3,A,,V*7E

Ici, commence des donnees bricolees...
--------------------------------------
20.406 $GPGBS,133403.00,1.5,1.2,2.1,,,,*43
20.543 $IIVLW,0163.0,N,064.69,N*44
20.546 $IIVHW,,,083.,M,03.89,N,07.20,K*13
20.591 $IIMWV,164,R,05.7,N,A*12
20.604 !AIVDO,1,1,,,B3HvFrP0<gu=?iVjmudkcwQUwP06,0*21
20.606 $IIVWR,164.,R,05.7,N,02.9,M,010.6,K*74
20.607 $IIMWD,,,253.,M,09.5,N,04.9,M*0B
21.082 $GPRMC,133404.00,A,4729.78847,N,00226.43293,W,5.085,83.06,010618,,,D*46
21.085 $IIMTA,22.0,C*05
21.088 $IIMTW,22.1,C*12
21.093 $IIVWT,170.,R,09.5,N,04.9,M,017.6,K*78
21.136 $IIHDG,083.,,,,*72
21.263 $IIHDM,083.,M*19
21.270 $IIGLL,4729.787,N,00226.438,W,133404,A,A*4A
21.273 $IIZDA,133404,01,06,2018,,*52
21.277 $IIVTG,083.,T,,M,05.1,N,09.4,K,A*28
21.279 $IIDPT,0002.6,,*76
21.757 $IIDBT,0008.5,f,0002.6,M,,*70
21.769 $IIVLW,0163.0,N,064.69,N*44
21.772 $IIVHW,,,083.,M,03.89,N,07.21,K*12
21.784 $IIMWV,164,R,05.7,N,A*12
21.883 !AIVDO,1,1,,,B3HvFrP0<gu=?sVjmuhkswR5wP06,0*44
21.958 $IIVWR,164.,R,05.7,N,02.9,M,010.6,K*74
21.961 $IIMWD,,,253.,M,09.4,N,04.8,M*0B
21.965 $IIMTA,22.0,C*05
21.968 $IIMTW,22.0,C*13
22.385 $IIVWT,170.,R,09.4,N,04.8,M,017.4,K*7A
22.642 $IIHDG,083.,,,,*72
22.645 $IIHDM,083.,M*19
22.650 $IIGLL,4729.788,N,00226.434,W,133404,A,A*49
22.653 $IIZDA,133404,01,06,2018,,*52
22.752 $IIVTG,083.,T,,M,05.0,N,09.3,K,A*2E
23.140 $IIDPT,0002.6,,*76
23.144 $IIDBT,0008.5,f,0002.6,M,,*70
23.157 $IIVLW,0163.0,N,064.69,N*44
23.161 $IIVHW,,,083.,M,03.88,N,07.19,K*18
23.164 !AIVDO,1,1,,,B3HvFrP0<gu=@66jmupkwwRUwP06,0*62
23.192 $IIMWV,163,R,05.7,N,A*15
23.329 $IIVWR,163.,R,05.7,N,02.9,M,010.6,K*73
23.542 $IIMWD,,,253.,M,09.4,N,04.8,M*0B
23.544 $IIMTA,22.0,C*05
23.546 $IIMTW,22.0,C*13
23.748 $IIVWT,170.,R,09.4,N,04.8,M,017.4,K*7A
23.762 $IIHDG,084.,,,,*75
23.833 $IIHDM,084.,M*1E
23.836 $IIGLL,4729.788,N,00226.434,W,133406,A,A*4B
23.839 !AIVDO,1,1,,,B3HvFrP0<gu=@K6jmv4lCwSUwP06,0*6A
23.991 $GPRMC,133408.00,A,4729.78914,N,00226.42455,W,5.078,83.92,010618,,,D*4F
24.280 $IIVLW,0163.0,N,064.69,N*44
24.292 $IIVHW,,,084.,M,03.86,N,07.14,K*1C
24.366 $GPRMC,133412.00,A,4729.78978,N,00226.41627,W,5.060,84.22,010618,,,D*4F
24.736 !AIVDO,1,1,,,B3HvFrP0<gu=A?6jmvTlcwV5wP06,0*3A
24.744 $IIZDA,133444,01,06,2018,,*57
24.747 $IIGLL,4729.789,N,00226.421,W,133410,A,A*49
